stop_id,stop_name,stop_desc,stop_lat,stop_lon
10002,TELSTAR AV/AEROJET AV,0,34.068806448646,-118.06876538912
10003,AEROJET AV/FLAIR DR,0,34.071625764482,-118.06874129048
10004,TELSTAR AV/9320 TELSTAR AV,0,34.068810647997,-118.06616676981
10005,FLAIR DR/RIO HONDO AV,0,34.071985357833,-118.06443900157
10006,TELSTAR AV/RIO HONDO AV,0,34.068814340089,-118.06442004912
10007,FLAIR DR/FLETCHER AV,0,34.072031486315,-118.06024872052
10008,TELSTAR AV/FLETCHER AV,0,34.069311122969,-118.06021704358
10009,FLAIR DR/TELSTAR AV,0,34.07206598611,-118.05710848326
10010,FLAIR DR/9804 FLAIR DR,0,34.072083145352,-118.05566879514
10015,GARVEY AV/MERCED AV,0,34.062717604724,-118.05137036048
10016,MERCED AV/RIO HONDO PKWY,0,34.065649572791,-118.05135895373
10017,MERCED AV/TOWNE WAY DR,0,34.066666282442,-118.05135297425
10018,TOWNE WAY DR/ASHER ST,0,34.068159493332,-118.04863641995
10020,ASHER ST/RIO HONDO PKWY,0,34.067717567707,-118.04743097265
10021,GARVEY AV/CENTRAL AV,0,34.062738628923,-118.04697581751
10022,MILDRED ST/HIDDEN LN,0,34.067085792634,-118.04683627847
10023,VALLEY BLVD/ARDEN DR,0,34.076585359729,-118.04625710113
10024,ARDEN DR/VALLEY BLVD&ROSE AV,0,34.078019871215,-118.04591775779
10025,ARDEN DR/HICKSON ST,0,34.082218925276,-118.04505151515
10027,BISBY ST/ARDEN DR,0,34.085129266721,-118.04407882216
10029,GARVEY AV/SANTA ANITA AV,0,34.062773259253,-118.04250534033
10030,MILDRED ST/SANTA ANITA AV,0,34.06711214525,-118.04244811142
10033,RAMONA BLVD/SANTA ANITA AV,0,34.071964940301,-118.042222732
10035,ARDEN WY/MULHALL ST,0,34.090584646075,-118.04160129917
10036,VALLEY BLVD/SANTA ANITA AV,0,34.076524058879,-118.04099660057
10037,ARDEN DR/LOWER AZUSA RD,0,34.091862612823,-118.04098100013
10038,ESTO AV/GIDLEY ST,0,34.083580638828,-118.04076227834
10039,ESTO AV/BISBY ST,0,34.084649703192,-118.04032355894
10040,LOWER AZUSA RD/HALIFAX RD,0,34.09201133472,-118.03997370361
10042,MILDRED ST/GAGE AV,0,34.066786128964,-118.039565427
10043,RAMONA BLVD/LEXINGTON AV,0,34.071996103379,-118.03945231925
10044,LEXINGTON/GARVEY,0,34.062810068189,-118.03929610899
10045,ELIOTT AV/LEXINGTON AV,0,34.058608671626,-118.03906302832
10046,LEXINGTON AV/OWEN WY,0,34.06063934231,-118.03904746846
10047,OLD EL MONTE STATION,0,34.075749880924,-118.03882336802
10049,MONTEREY/VALLEY,0,34.076038697536,-118.037905485
10050,EL MONTE TROLLEY STATION,0,34.07617105386,-118.03641293931
10051,TYLER AV/RAMONA BLVD,0,34.072068622478,-118.03601160382
10052,TYLER AV/AMADOR ST,0,34.07045013562,-118.03600760504
10053,TYLER AV/BROCKWAY ST,0,34.068501906055,-118.03600346449
10054,TYLER AV/ASHER ST,0,34.067650071448,-118.03599979597
10055,MILDRED ST/TYLER AV,0,34.066443763375,-118.035995975
10058,TYLER AV/SALLY TANNER DR,0,34.064808815323,-118.03590612352
10061,TYLER AV/GARVEY AV,0,34.062833158588,-118.03573028552
10062,TYLER AV/DODSON ST&ELLIOTT AV,0,34.059708862024,-118.03567612595
10063,ELLIOTT AV/TYLER AV,0,34.058587744717,-118.03564923561
10064,ELIOTT AV/TYLER AV,0,34.058552031362,-118.03561950663
10066,TYLER AV/VALLEY MALL,0,34.073967540485,-118.0355104964
10067,LOWER AZUSA RD/EL MONTE AV,0,34.092691480946,-118.03540614942
10068,VALLEY BLVD/TYLER AV,0,34.074921178224,-118.03506180538
10069,EL MONTE METROLINK/10925 RAILROAD ST,0,34.076624852838,-118.03505261282
10070,SANTA ANITA AV/BRYANT RD,0,34.081972264752,-118.03477744782
10072,VALLEY BLVD/WIGGINS AV,0,34.074176882246,-118.03375054136
10073,TYLER AV/MONTECITO DR,0,34.078392198753,-118.03338238332
10074,RAMONA BLVD/VALLEY BLVD,0,34.072577972442,-118.03249840674
10075,LOWER AZUSA RD/DALEVIEW AV,0,34.092675896344,-118.03217923234
10076,BRYANT RD/TYLER AV,0,34.081027745474,-118.03208888792
10077,VALLEY BLVD/JOHNSON AV,0,34.071204395378,-118.03116385344
10079,BONWOOD RD/PECK RD,0,34.0550306574,-118.0305965925
10080,PECK RD/MOUNTAIN VIEW RD,0,34.055354905149,-118.03059340968
10081,PECK RD/KLINGERMAN ST,0,34.05599515626,-118.03059034238
10082,ELIOTT AV/PECK RD,0,34.058547918999,-118.03057146662
10084,BRYANT RD/ESMERALDA AV,0,34.080616080113,-118.03009408016
10085,COGSWELL RD/BONWOOD RD,0,34.054019828281,-118.02905119078
10087,FINEVIEW ST/MAXSON RD,0,34.049568482288,-118.02829697732
10088,KLINGERMAN ST/COGSWELL RD,0,34.05468774353,-118.028265695
10089,VALLEY BLVD/PECK RD,0,34.068894200098,-118.02809549276
10090,BRYANT RD/CYPRESS AV,0,34.080075372296,-118.02749161096
10091,SAMS PARKING LOT/FIRST STOP SIGN,0,34.092154969439,-118.02745264491
10092,CYPRESS AV/BASYE ST,0,34.081976959736,-118.02718510779
10093,ELLIOTT AV/MOUNTAIN VIEW RD,0,34.058518590346,-118.02679120627
10094,FINEVIEW ST/DURFEE AV,0,34.048269098573,-118.02675491314
10095,KLINGERMAN ST/ALLGEYER AV,0,34.053402093983,-118.0267433493
10096,MOUNTAIN VIEW RD/ELIOTT AV,0,34.058603797262,-118.02668558455
10097,CYPRESS AV/LAMBERT AV,0,34.083779677029,-118.02663747456
10099,LOWER AZUSA RD/SANTA ANITA AV,0,34.09210298842,-118.02642874313
10100,MCGIRK AV/CYPRESS AV,0,34.085640101276,-118.02607002014
10101,FINEVIEW ST/BUNKER AV,0,34.047390008315,-118.02572799338
10103,PECK RD/STEWART ST,0,34.071486041262,-118.02532925389
10104,KLINGERMAN ST/MAXSON RD,0,34.052094447311,-118.02519793483
10105,KLINGERMAN ST/DURFEE AV,0,34.050800518924,-118.023659175
10106,MOUNTAIN VIEW RD/MAGNOLIA ST,0,34.061132458237,-118.02364558883
10107,ELLIOTT AV/ALLGEYER AV,0,34.05595275417,-118.02362431632
10108,VALLEY BLVD/LA MADERA AV,0,34.065680169421,-118.02360064895
10109,FINEVIEW ST/BURKETT RD,0,34.045225210957,-118.02320206006
10110,MCGIRK AV/CEDAR AV,0,34.085192803882,-118.02310416294
10111,PECK RD/RAMONA AV,0,34.074083259817,-118.02285673574
10112,RAMONA BLVD/PECK RD&FERRIS RD,0,34.074110805964,-118.02249680963
10114,MAXSON RD/ELLIOTT AV,0,34.054653309179,-118.0220888098
10115,MOUNTAIN VIEW RD/GARVEY AV,0,34.062828211186,-118.02191928003
10116,FINEVIEW ST/PARKWAY DR,0,34.043953237446,-118.02167996788
10117,BRYANT RD/ELROVIA AV,0,34.078908723174,-118.02163619126
10118,KLINGERMAN ST/BRYCE AV,0,34.048943378809,-118.02146668614
10119,LOWER AZUSA RD/CEDAR AV,0,34.091592928131,-118.02113744222
10120,VALLEY BLVD/MOUNTAIN VIEW RD,0,34.063839604862,-118.02088940278
10121,MCGIRK AV/LAMBERT PARK,0,34.085014643629,-118.02061397295
10122,CEDAR AV/FAIRVIEW AV,0,34.09341759815,-118.0206094385
10123,BRYANT RD/PECK RD,0,34.078691832656,-118.02054636813
10124,CEDAR AV/HALLWOOD DR,0,34.094340927113,-118.02032561302
10126,KLINGERMAN ST/BURKETT RD,0,34.047759293191,-118.02007331669
10127,FERRIS RD/RICHWOOD AV,0,34.072921414051,-118.02005293834
10128,PECK RD/BASYE ST,0,34.080456102745,-118.01967496954
10129,PARKWAY DR/PINEVILLE ST,0,34.045283548822,-118.01963368898
10130,MAGNOLIA ST/MAXSON RD,0,34.057187363201,-118.01896298158
10131,PARKWAY DR/KLINGERMAN ST,0,34.046531234568,-118.01862385892
10132,FERRIS RD/LA MADERA AV,0,34.072025860223,-118.01850075491
10133,PECK RD/MCGIRK AV,0,34.084399580829,-118.01773069549
10134,MAGNOLIA ST/DURFEE AV,0,34.055876866494,-118.01743412536
10135,PARKWAY DR/FELIPE ST,0,34.047649813801,-118.01726075397
10136,PECK RD/MCGIRK AV&EMERY ST,0,34.085594982837,-118.01715299447
10137,FERRIS RD/WHISTLER AV,0,34.071116548586,-118.01693869586
10138,RAMONA BLVD/LA MADERA AV,0,34.074793204438,-118.01677763408
10139,PECK RD/EMERY ST,0,34.086641991401,-118.01662148446
10140,HALLWOOD DR/ELROVIA AV,0,34.093976070684,-118.01630916406
10141,ELROVIA AV/CHERRYLEE DR,0,34.095748510417,-118.01578103008
10142,PARKWAY DR/ELLIOTT AV,0,34.049109156796,-118.01555105586
10143,COGSWELL RD/FERRIS RD,0,34.070174249212,-118.01532383291
10144,PECK RD/LOWER AZUSA RD,0,34.090917929416,-118.01453496026
10146,PARKWAY DR/POINSETTIA ST,0,34.050593161493,-118.01422754438
10148,HEMLOCK ST/EMBREE DR,0,34.096952282109,-118.01409009801
10150,FERRIS RD/PENN MAR AV,0,34.06903959951,-118.01352076406
10151,MAGNOLIA ST/PARKWAY DR,0,34.052456309511,-118.01332991067
10152,PECK RD/HALLWOOD DR,0,34.093751133674,-118.01312840923
10153,RAMONA BLVD/COGSWELL RD,0,34.075255335516,-118.01276226544
10155,HEMLOCK ST/PECK RD,0,34.0966420269,-118.01172177098
10156,FERRIS RD/MAXSON RD,0,34.068336357428,-118.01149987813
10157,DURFEE AV/EXLINE ST,0,34.064739462127,-118.01097109991
10159,FERRIS RD/DURFEE AV,0,34.067624837726,-118.00948232714
10160,COGSWELL RD/EMERY ST,0,34.084491279459,-118.00825238708
10163,HEMLOCK ST/BUFFINGTON RD,0,34.095282158093,-118.00772167229
10164,COGSWELL RD/RANCHITO ST,0,34.086214242153,-118.0074004808
10166,COGSWELL RD/LOWER AZUSA RD,0,34.087857508882,-118.00658816542
10169,COGSWELL RD/ROSEGLEN ST,0,34.089506265968,-118.00577581849
10170,HEMLOCK ST/LA MADERA AV,0,34.094600800044,-118.00572332312
10172,RAMONA BLVD/DURFEE AV,0,34.076179177131,-118.0052201244
10173,COGSWELL RD/HALLWOOD DR,0,34.091045096698,-118.00512196798
10175,COGSWELL RD/CHERRYLEE DR,0,34.092476759877,-118.00440203032
10177,HEMLOCK ST/COGSWELL RD,0,34.093891931579,-118.0036853702
