stop_id,stop_name,stop_desc,stop_lat,stop_lon
10007,EL SEGUNDO/AVIATION BLVD,0,33.916366779296,-118.37849463967
10011,AVIATION LAX STATION/BUS BAY 3,0,33.92949892272,-118.37756502124
10012,EL SEGUNDO BLVD/ISIS AV,0,33.916376823063,-118.37439781781
10013,MARINE AV/REDONDO BEACH STATION,0,33.894626897254,-118.37018509653
10014,EL SEGUNDO BLVD/OCEAN GATE AV,0,33.916399192043,-118.36712375324
10015,EL SEGUNDO BLVD/SHOUP AV,0,33.916402533079,-118.36421014736
10016,MARINE AV/INGLEWOOD AV,0,33.894634459957,-118.36135427561
10017,EL SEGUNDO BLVD/INGLEWOOD AV,0,33.91640575432,-118.36131302079
10018,MARINE AV/FIRMONA AV,0,33.894637194411,-118.35767366711
10019,EL SEGUNDO BLVD/RAMONA AV,0,33.916412476213,-118.35721288742
10022,SOUTH BAY TRANS CTR/BUS BAY 8,0,33.87229959389,-118.35688988589
10025,REDONDO BEACH BLVD/HAWTHORNE BLVD,0,33.874224304091,-118.35274068288
10026,HAWTHORNE BLVD/ARTESIA BLVD,0,33.872822935159,-118.35273149294
10027,MARINE AV/HAWTHORNE BLVD,0,33.894643390827,-118.35277388876
10028,HAWTHORNE BLVD/182ND ST,0,33.865544225317,-118.35262840723
10029,HAWTHORNE BLVD/179TH ST,0,33.868085949249,-118.35263580246
10030,EL SEGUNDO BLVD/HAWTHORNE BLVD,0,33.916404028377,-118.35261500171
10031,MARINE AV/HAWTHORNE BLVD,0,33.894641693653,-118.35241471641
10034,147TH ST/HAWTHORNE BLVD,0,33.898266080483,-118.35242006936
10035,EL SEGUNDO BLVD/BIRCH AV,0,33.916418949452,-118.35032437939
10036,EL SEGUNDO BLVD/WASHINGTON AV,0,33.916418468811,-118.34954323732
10037,REDONDO BEACH BLVD/AMIE AV,0,33.87567813962,-118.3488858235
10038,MARINE AV/FREEMAN AV,0,33.894646321241,-118.34893511703
10039,147TH ST/FREEMAN AV,0,33.898270717764,-118.34893702432
10040,EL SEGUNDO BLVD/JEFFERSON AV,0,33.916423886409,-118.34671533515
10042,EL SEGUNDO BLVD/OXFORD AV,0,33.916425723473,-118.34607592855
10044,REDONDO BEACH BLVD/PRAIRIE AV,0,33.877308315744,-118.34385874616
10045,MARINE AV/PRAIRIE AV,0,33.894649875356,-118.34387386859
10046,147TH ST/PRAIRIE AV,0,33.898287992198,-118.34388220379
10047,EL SEGUNDO BLVD/PRAIRIE AV,0,33.916429162468,-118.34391379991
10049,EL SEGUNDO BLVD/CORDARY AV,0,33.916435366556,-118.34173190683
10050,REDONDO BEACH BLVD/AINSWORTH ST,0,33.878669594109,-118.33959470317
10051,EL SEGUNDO BLVD/DOTY AV,0,33.916435998402,-118.3395631748
10052,MARINE AV/DOTY AV,0,33.894651863726,-118.33929369777
10053,MARINE AV/BODGER AV,0,33.894650654367,-118.33874670753
10054,MARINE AV/CRANBROOK AV,0,33.894652829497,-118.33699043206
10055,MARINE AV/KORNBLUM AV,0,33.894839689678,-118.33698788819
10056,MARINE AV/CRANBROOK AV,0,33.894656452065,-118.33667741284
10057,MARINE AV/YUKON AV,0,33.894654914884,-118.33525722189
10058,REDONDO BEACH BLVD/YUKON AV,0,33.880102549631,-118.33519243917
10059,EL SEGUNDO BLVD/YUKON AV,0,33.916442704834,-118.33520266125
10060,EL SEGUNDO BLVD/CERISE AV,0,33.916447440734,-118.33250000206
10061,MARINE AV/LEMOLI AV,0,33.894658772055,-118.33087805988
10062,EL SEGUNDO BLVD/CHADRON AV,0,33.91645286404,-118.32952378176
10063,MARINE AV/CHADRON AV,0,33.894659190695,-118.32871648133
10064,REDONDO BEACH BLVD/CRENSHAW BLVD,0,33.882904324137,-118.326555238
10065,MANHATTAN BEACH BLVD/CRENSHAW BLVD,0,33.887394249296,-118.32656943351
10066,MARINE AV/CRENSHAW BLVD,0,33.894656778126,-118.32657136732
10067,EL SEGUNDO BLVD/CRENSHAW BLVD,0,33.916449925798,-118.32656400853
10068,MARINE AV/MILLER AV,0,33.894656693749,-118.32456795152
10069,MANHATTAN BEACH BLVD/MARIGOLD AV,0,33.887410818147,-118.32348226449
10070,REDONDO BEACH BLVD/ARCTURUS AV,0,33.883940620613,-118.32336344481
10071,REDONDO BEACH BLVD/WILKIE AV,0,33.884043164157,-118.32303766764
10072,EL SEGUNDO BLVD/WILKIE AV,0,33.916445766795,-118.32300766453
10073,MARINE AV/CASIMIR AV,0,33.89465758073,-118.32218889923
10074,MANHATTAN BEACH BLVD/ARCTURUS AV,0,33.887421445134,-118.32156472811
10075,MANHATTAN BEACH BLVD/PURCHE AV,0,33.887404694606,-118.32063223384
10076,EL SEGUNDO BLVD/PURCHE AV,0,33.91644982645,-118.32045661662
10077,REDONDO BEACH BLVD/VAN NESS AV,0,33.885719341082,-118.31787138578
10078,VAN NESS AV/MANHATTAN BEACH BLVD,0,33.887411999436,-118.31787450931
10079,VAN NESS AV/157TH ST,0,33.887876379019,-118.31787627021
10080,VAN NESS AV/156TH ST,0,33.889225561648,-118.31787809144
10081,VAN NESS AV/154TH PL,0,33.891028124255,-118.31788492696
10082,MARINE AV/VAN NESS AV,0,33.89466078065,-118.31787893274
10083,VAN NESS AV/146TH ST,0,33.898312646917,-118.31788289655
10084,VAN NESS AV/144TH ST,0,33.900706016646,-118.31788208767
10085,VAN NESS AV/ROSECRANS AV,0,33.901920549455,-118.31788669396
10086,VAN NESS AV/139TH ST,0,33.905555974788,-118.31787411849
10087,135TH ST/VAN NESS AV,0,33.909191401343,-118.31786154193
10088,EL SEGUNDO BLVD/VAN NESS AV,0,33.916445771162,-118.317836323
10089,MARINE AV/CIMARRON ST,0,33.894662694932,-118.31610618127
10090,135TH ST/WILTON PL,0,33.909182262953,-118.31400887917
10091,EL SEGUNDO BLVD/WILTON PL,0,33.916442719624,-118.31375592923
10092,MARINE AV/GRAMERCY PL,0,33.894663929318,-118.31352942523
10093,135TH ST/GRAMERCY PL,0,33.909180801732,-118.31351452454
10094,REDONDO BEACH BLVD/GRAMERCY PL,0,33.887240273251,-118.31314582205
10096,WESTERN AV/195TH ST,0,33.854108267471,-118.30943878225
10097,WESTERN AV/20000 WESTERN AV,0,33.851616072943,-118.30940653297
10098,WESTERN AV/FRANCISCO ST,0,33.849294225641,-118.30938150061
10099,WESTERN AV/DEL AMO BLVD,0,33.84683224972,-118.30935265956
10100,WESTERN AV/205TH ST,0,33.844735697578,-118.30933834041
10101,WESTERN AV/208TH ST,0,33.841867082931,-118.30929483054
10102,WESTERN AV/190TH ST,0,33.858340192479,-118.30933253257
10103,WESTERN AV/TORRANCE BLVD,0,33.838314251387,-118.30925538676
10104,WESTERN AV/213TH ST,0,33.835462336833,-118.30912962551
10105,WESTERN AV/215TH ST,0,33.833472951272,-118.30911570878
10106,WESTERN AV/CARSON ST,0,33.831464365413,-118.30908855153
10107,WESTERN AV/182ND ST,0,33.865614080213,-118.30918149316
10108,WESTERN AV/178TH ST,0,33.869235684988,-118.30919484751
10109,WESTERN AV/ARTESIA BLVD,0,33.872860038922,-118.30920821316
10110,WESTERN AV/169TH ST,0,33.878325424305,-118.30922837021
10111,WESTERN AV/186TH ST,0,33.861973259099,-118.30916148149
10112,WESTERN AV/220TH ST,0,33.827930831685,-118.30902614517
10113,WESTERN AV/223RD ST,0,33.82449063133,-118.30900030347
10114,166TH ST/WESTERN AV,0,33.880130817792,-118.30920208412
10115,WESTERN AV/169TH ST,0,33.878317273867,-118.30919210122
10116,WESTERN AV/PLAZA DEL AMO ST,0,33.8227870353,-118.30898085967
10117,WESTERN AV/GARDENA BLVD,0,33.881955395539,-118.30919563519
10118,WESTERN AV/LINCOLN AV,0,33.821347227376,-118.30896238811
10119,WESTERN AV/235TH ST,0,33.812710938513,-118.30892729449
10120,WESTERN AV/162ND ST,0,33.883757991153,-118.30918910491
10121,WESTERN AV/234TH ST,0,33.813452857781,-118.3089234424
10122,WESTERN AV/SEPULVEDA BLVD,0,33.817019511026,-118.30892669893
10123,WESTERN AV/154TH ST,0,33.89194376482,-118.30919952821
10124,WESTERN AV/158TH ST,0,33.887431878567,-118.30917629686
10125,WESTERN AV/228TH ST,0,33.819036429798,-118.30891766501
10126,WESTERN AV/153RD ST,0,33.892828593512,-118.30918961197
10127,REDONDO BEACH BLVD/WESTERN AV,0,33.888520036294,-118.30917042565
10128,WESTERN AV/ROSECRANS AV,0,33.901904682516,-118.3091967301
10129,MARINE AV/WESTERN AV,0,33.894666954841,-118.30916673718
10130,WESTERN AV/149TH ST,0,33.896312893638,-118.30917280809
10131,WESTERN AV/148TH ST,0,33.897090524245,-118.3091756764
10132,WESTERN AV/146TH ST,0,33.89898653966,-118.30917278434
10133,WESTERN AV/139TH ST,0,33.905551106631,-118.30918052275
10134,WESTERN AV/236TH ST,0,33.811271334954,-118.30882982326
10135,WESTERN AV/137TH ST,0,33.907361941309,-118.30917731627
10136,135TH ST/WESTERN AV,0,33.909164532844,-118.30917407925
10137,WESTERN AV/132ND ST,0,33.912651526933,-118.30918035194
10138,EL SEGUNDO BLVD/WESTERN AV,0,33.916440925587,-118.3091317098
10139,WESTERN AV/125TH ST,0,33.91927122747,-118.30912237445
10140,WESTERN AV/122ND ST,0,33.92213723479,-118.30911976253
10141,WESTERN AV/120TH ST,0,33.924019532332,-118.30911022523
10142,WESTERN AV/L A SOUTHWEST COLLEGE,0,33.929232186821,-118.30911297342
10143,IMPERIAL HWY/WESTERN AV,0,33.93096888486,-118.30908971195
10144,WESTERN AV/237TH ST,0,33.810191961503,-118.30862834411
10145,WESTERN AV/238TH ST,0,33.808706589859,-118.30816204065
10146,WESTERN AV/245TH ST,0,33.802571806408,-118.30774124321
10147,PACIFIC COAST HWY/WESTERN AV,0,33.789473260947,-118.30764384934
10148,WESTERN AV/255TH ST,0,33.792495851682,-118.3076417651
10149,WESTERN AV/253RD ST,0,33.794765568502,-118.30763033848
10150,WESTERN AV/LOMITA BLVD,0,33.797823966508,-118.307595472
10151,WESTERN AV/247TH ST,0,33.800962093407,-118.30754443814
10152,WESTERN AV/242ND PL,0,33.804952017685,-118.30750310501
10153,166TH ST/HARVARD BLVD,0,33.880117133863,-118.3070309463
10154,EL SEGUNDO BLVD/HARVARD BLVD,0,33.916430415992,-118.30679154968
10155,166TH ST/DENKER AV,0,33.880141930122,-118.30484018215
10156,REDONDO BEACH BLVD/DENKER AV,0,33.889916035244,-118.30481641771
10157,PACIFIC COAST HWY/PRESIDENT AV,0,33.789465222422,-118.304319951
10158,IMPERIAL HWY/DENKER AV,0,33.930966220705,-118.30473829933
10159,EL SEGUNDO BLVD/DENKER AV,0,33.916424998646,-118.30459313445
10160,166TH ST/DENKER AV,0,33.880148400125,-118.30445474697
10161,REDONDO BEACH BLVD/NUANU DR,0,33.890597244846,-118.30273649938
10162,166TH ST/HALLDALE AV,0,33.880152873055,-118.30267901751
10163,135TH ST/HALLDALE AV,0,33.909168030009,-118.30237844176
10164,EL SEGUNDO BLVD/HALLDALE AV,0,33.916425111243,-118.3023650761
10165,166TH ST/HALLDALE AV,0,33.880154501344,-118.30203000317
10166,PACIFIC COAST HWY/BELLE PORTE AV,0,33.789456565334,-118.30120667274
10167,166TH ST/BRIGHTON AV,0,33.880165826421,-118.30079789378
10168,NORMANDIE AV/MARINE AV,0,33.894658760265,-118.30045449115
10169,NORMANDIE AV/149TH ST,0,33.896909234567,-118.30045596763
10170,NORMANDIE AV/148TH ST,0,33.897384606072,-118.30045767162
10171,NORMANDIE AV/146TH ST,0,33.898992142057,-118.30043707197
10172,NORMANDIE AV/145TH PL,0,33.899629651038,-118.30043276649
10173,NORMANDIE AV/ROSECRANS AV,0,33.901907604533,-118.30043434098
10174,NORMANDIE AV/139TH ST,0,33.905540255535,-118.30043088511
10175,135TH ST/NORMANDIE AV,0,33.909164680736,-118.30042080813
10176,EL SEGUNDO BLVD/NORMANDIE AV,0,33.916427175256,-118.30044025179
10177,REDONDO BEACH BLVD/NORMANDIE AV,0,33.891419501535,-118.30027813269
10178,IMPERIAL HWY/NORMANDIE AV,0,33.930963514482,-118.30034073619
10179,NORMANDIE AV/166TH ST,0,33.880137973186,-118.29984567814
10181,NORMANDIE AV/166TH ST,0,33.88022042381,-118.29983938398
10182,GARDENA BLVD/NORMANDIE AV,0,33.881308719629,-118.299777385
10183,NORMANDIE AV/163RD ST,0,33.883172004007,-118.29967532479
10184,NORMANDIE AV/162ND ST,0,33.884062416876,-118.29962908764
10185,NORMANDIE AV/160TH ST,0,33.885711323387,-118.29954602323
10186,NORMANDIE AV/223RD ST,0,33.824509777468,-118.29924189648
10187,NORMANDIE AV/220TH ST,0,33.828123164445,-118.29923832355
10188,NORMANDIE AV/CARSON ST,0,33.831585416118,-118.29923750379
10189,NORMANDIE AV/170TH ST,0,33.876528452098,-118.29939132273
10190,NORMANDIE AV/LEVINSON ST,0,33.834410197237,-118.29922782444
10191,NORMANDIE AV/212TH ST,0,33.837320120016,-118.29923491234
10192,NORMANDIE AV/TORRANCE BLVD,0,33.841947424636,-118.29924483484
10193,NORMANDIE AV/FRANCISCO ST,0,33.850254017554,-118.29927447364
10194,NORMANDIE AV/KNOX ST,0,33.854213605106,-118.29928531043
10195,NORMANDIE AV/186TH ST,0,33.861998134757,-118.29930980026
10196,NORMANDIE AV/MAGNOLIA AV,0,33.888627125966,-118.29940487915
10197,NORMANDIE AV/190TH ST,0,33.858324339794,-118.29929010036
10198,NORMANDIE AV/W 204TH ST,0,33.845604791727,-118.29923812502
10199,182ND ST/NORMANDIE AV,0,33.865878122786,-118.29928741649
10200,NORMANDIE AV/225TH ST,0,33.82223768165,-118.2991021024
10201,NORMANDIE AV/179TH ST,0,33.868032646538,-118.29919628549
10202,NORMANDIE AV/178TH ST,0,33.869217089305,-118.29914451246
10203,NORMANDIE AV/177TH ST,0,33.870522451969,-118.29908658102
10204,NORMANDIE AV/245TH ST,0,33.802536644238,-118.29879160283
10205,NORMANDIE AV/ARTESIA BLVD,0,33.872938108049,-118.29896013445
10206,NORMANDIE AV/PASATIEMPO LN,0,33.807032664943,-118.29854757247
10207,NORMANDIE AV/OAKHEATH DR,0,33.809855016398,-118.29840619378
10208,NORMANDIE AV/SEPULVEDA BLVD,0,33.813075879357,-118.29823330338
10209,NORMANDIE AV/228TH ST,0,33.819000160153,-118.29823460991
10210,REDONDO BEACH BLVD/RAYMOND AV,0,33.892048228841,-118.29827703342
10211,NORMANDIE AV/PACIFIC COAST HWY,0,33.789927366049,-118.29751917748
10212,NORMANDIE AV/255TH ST,0,33.792818047029,-118.29752284312
10213,NORMANDIE AV/253RD ST,0,33.794725047696,-118.29751314809
10214,NORMANDIE AV/LOMITA BLVD,0,33.797788873246,-118.29750426244
10215,GARDENA BLVD/RAYMOND AV,0,33.881382527243,-118.29771525012
10216,IMPERIAL HWY/VAN BUREN AV,0,33.930961483914,-118.29672115407
10217,EL SEGUNDO BLVD/BUDLONG AV,0,33.916420665623,-118.29640928864
10218,REDONDO BEACH BLVD/BUDLONG AV,0,33.892364004467,-118.2961397032
10219,IMPERIAL HWY/BUDLONG AV,0,33.930861912389,-118.29586700481
10220,GARDENA BLVD/BUDLONG AV,0,33.881456242995,-118.29567617339
10221,IMPERIAL HWY/BUDLONG AV,0,33.930961682698,-118.29552122294
10222,REDONDO BEACH BLVD/1145 W REDONDO BEACH BLVD,0,33.892383198289,-118.2950359464
10223,182ND ST/BUDLONG AV,0,33.866359612928,-118.29457545492
10224,REDONDO BEACH BLVD/BERENDO AV,0,33.892410577224,-118.29395198783
10225,GARDENA BLVD/BERENDO AV,0,33.881524837896,-118.29346905209
10226,VERMONT AV/REDONDO BEACH BLVD,0,33.89247563474,-118.29205758969
10227,VERMONT AV/MARINE AV,0,33.894638242545,-118.29203217385
10228,VERMONT AV/155TH ST,0,33.890640240435,-118.29199188632
10229,VERMONT AV/149TH ST,0,33.89645462639,-118.29200555056
10230,VERMONT AV/146TH ST,0,33.8990073766,-118.29200126278
10231,VERMONT AV/ROSECRANS AV,0,33.901909099808,-118.29199819048
10232,VERMONT AV/140TH ST,0,33.904799856491,-118.29198519331
10233,VERMONT AV/MAGNOLIA AV,0,33.888840575939,-118.29192301538
10234,VERMONT AV/135TH ST,0,33.909155311475,-118.29193115877
10235,VERMONT AV/159TH ST,0,33.887021693006,-118.29184749092
10236,VERMONT AV/133RD ST,0,33.911870201834,-118.29192084132
10237,VERMONT AV/130TH ST,0,33.914351528393,-118.29190970964
10238,VERMONT AV/IMPERIAL HWY,0,33.930964851477,-118.29196429344
10239,VERMONT AV/161ST ST,0,33.88520828204,-118.29178187293
10240,EL SEGUNDO BLVD/VERMONT AV,0,33.916431714004,-118.29188070031
10241,VERMONT AV/149TH ST,0,33.896911345792,-118.29176659375
10242,VERMONT AV/125TH ST,0,33.919278629068,-118.29181810328
10243,VERMONT/120TH ST,0,33.923686130698,-118.29183345273
10244,VERMONT AV/REDONDO BEACH BLVD,0,33.892484708018,-118.29171494105
10245,VERMONT AV/163RD ST,0,33.883389471434,-118.29167670324
10246,VERMONT/125TH,0,33.919278700861,-118.29178843902
10247,VERMONT AV/VERMONT ATHENS STATION,0,33.928613139636,-118.29178138842
10248,VERMONT AV/149TH ST,0,33.896917104576,-118.29165787297
10249,VERMONT AV/146TH ST,0,33.899703419034,-118.29165438729
10250,VERMONT AV/ROSECRANS AV,0,33.901909953403,-118.29164558855
10251,VERMONT AV/157TH ST,0,33.888841365545,-118.29159682707
10252,VERMONT AV/140TH ST,0,33.904753989223,-118.29163571213
10253,VERMONT AV/13800 VERMONT AV,0,33.905998781308,-118.29162686146
10254,VERMONT AV/135TH ST,0,33.909156053273,-118.29162466516
10255,VERMONT AV/132ND ST,0,33.912274888602,-118.29160915183
10256,VERMONT AV/130TH ST,0,33.914374236731,-118.2916098652
10257,VERMONT AV/EL SEGUNDO BLVD,0,33.916437911454,-118.2915906788
10258,IMPERIAL HWY/VERMONT AV,0,33.930965665115,-118.29162805167
10259,VERMONT AV/124TH ST,0,33.920045852556,-118.29158016078
10260,VERMONT AV/ALONDRA BLVD,0,33.885228305932,-118.29145576561
10261,VERMONT AV/147TH ST,0,33.899008612793,-118.29149050195
10262,VERMONT/120TH,0,33.92368404473,-118.29155985843
10263,GARDENA BLVD/VERMONT AV,0,33.881590533089,-118.2913080413
10264,VERMONT AV/168TH ST,0,33.879145190619,-118.29121388815
10265,VERMONT AV/170TH ST,0,33.876771307585,-118.29111339985
10266,VERMONT AV/ARTESIA BLVD&170TH ST,0,33.874853497326,-118.29104085472
10267,VERMONT AV/ARTESIA BLVD,0,33.872864268295,-118.29095818237
10268,VERMONT AV/ARTESIA BLVD,0,33.872669197907,-118.29094762276
10272,HARBOR GATEWAY TRANS CTR/BUS BAY11 OR 12,0,33.86924579616,-118.28734848084
10274,GARDENA BLVD/HOOVER ST,0,33.881705351753,-118.2869727749
10275,EL SEGUNDO BLVD/HOOVER ST,0,33.916426882614,-118.28702575852
10279,EL SEGUNDO BLVD/FIGUEROA ST,0,33.91640671125,-118.28277062779
10280,GARDENA BLVD/FIGUEROA ST,0,33.88184475248,-118.28263428545
10284,FIGUEROA ST / HARBOR FREEWAY STATION,0,33.928757580417,-118.28070918852
10288,GARDENA BLVD/BROADWAY,0,33.881959312384,-118.27827593212
10289,EL SEGUNDO BLVD/BROADWAY,0,33.916416927806,-118.27838046697
10290,MARTIN LUTHER KING JR BLVD/BROADWAY,0,34.011110008289,-118.27744150972
10291,MAIN ST/ALONDRA BLVD,0,33.885638505933,-118.27595218008
10292,MAIN ST/GARDENA BLVD,0,33.88202548951,-118.27578544173
10293,BROADWAY PL/38TH ST,0,34.01358375683,-118.27594831456
10294,BROADWAY PL/37TH PL,0,34.014021454803,-118.27560328008
10296,EL SEGUNDO BLVD/MAIN ST,0,33.916416045656,-118.27396719774
10297,BROADWAY PL/MAIN ST,0,34.016382542094,-118.27409971015
10298,MAIN ST/JEFFERSON BLVD,0,34.018641776941,-118.27266832301
10299,ALONDRA BLVD/MAPLE AV,0,33.885828787025,-118.27080642388
10300,MAIN ST/30TH ST,0,34.021756810526,-118.27068851706
10301,EL SEGUNDO BLVD/SAN PEDRO ST,0,33.916417602386,-118.2696198558
10302,MAIN ST/ADAMS BLVD,0,34.024844311745,-118.26871837608
10303,MAIN ST/23RD ST,0,34.027571325301,-118.2669680622
10304,MAIN ST/21ST ST,0,34.028930697317,-118.26609449956
10305,ALONDRA BLVD/AVALON BLVD,0,33.886005726335,-118.2653805494
10306,EL SEGUNDO BLVD/AVALON BLVD,0,33.916418980606,-118.26528240146
10307,MAIN ST/WASHINGTON BLVD,0,34.031049691636,-118.26466553893
10308,MAIN ST/16TH ST,0,34.033606949129,-118.2626074783
10309,ALONDRA BLVD/HASKINS AV,0,33.886140823636,-118.26140091842
10310,EL SEGUNDO BLVD/MCKINLEY AV,0,33.916353119746,-118.26146879227
10311,MAIN ST/PICO BLVD,0,34.036365134722,-118.26037828302
10312,ALONDRA BLVD/MCKINLEY AV,0,33.88619712607,-118.25950661129
10313,MAIN ST/12TH ST,0,34.037584567905,-118.25938856275
10314,MAIN ST/11TH ST,0,34.039070992887,-118.25818508797
10315,EL SEGUNDO BLVD/KEENE AV,0,33.916367247497,-118.25745767908
10316,ALONDRA BLVD/CLYMAR AV,0,33.886279240606,-118.25709180967
10317,MAIN ST/OLYMPIC BLVD,0,34.040456234306,-118.25674690108
10318,MAIN ST/9TH ST,0,34.041583775136,-118.25501740375
10319,ALONDRA BLVD/APRILIA AV,0,33.886548492107,-118.25451942323
10320,EL SEGUNDO BLVD/CENTRAL AV,0,33.916359910553,-118.25444187326
10323,MAIN ST/8TH ST,0,34.042736208783,-118.25319881051
10324,LOS ANGELES ST/8TH ST,0,34.041908114831,-118.25235788048
10325,MAIN ST/7TH ST,0,34.043910542889,-118.25140664075
10326,ALONDRA BLVD/CENTRAL AV,0,33.888357586603,-118.25009336055
10327,ALONDRA BLVD/CENTRAL AV,0,33.888371325671,-118.25009340154
10328,LOS ANGELES ST/7TH ST,0,34.043261217558,-118.25048372861
10329,MAIN ST/6TH ST,0,34.045260070743,-118.24992523882
10330,EL SEGUNDO BLVD/SLATER AV,0,33.916275165906,-118.24896706904
10331,LOS ANGELES ST/6TH ST,0,34.044580460094,-118.24902534011
10332,MAIN ST/5TH ST,0,34.046691737349,-118.24857937697
10333,MAIN ST/WINSTON ST,0,34.047558998083,-118.24775997825
10334,ALONDRA BLVD/NESTOR AV,0,33.888471144875,-118.24699325406
10335,MAIN ST/4TH ST,0,34.048142651013,-118.24722032146
10336,120TH ST/COMPTON AV,0,33.923740979065,-118.2463226032
10337,COMPTON AV/EL SEGUNDO BLVD,0,33.916225780317,-118.24625437024
10338,COMPTON AV/124TH ST,0,33.919828214653,-118.24624518019
10339,LOS ANGELES ST/4TH ST,0,34.047237925627,-118.24620751391
10340,MAIN ST/3RD ST,0,34.04955229146,-118.24588090468
10341,LOS ANGELES ST/3RD ST,0,34.048507648851,-118.24475214511
10342,ALONDRA BLVD/NORTHWOOD AV,0,33.888482427293,-118.24415313428
10343,MAIN ST/2ND ST,0,34.051003108105,-118.24455476813
10345,MAIN ST/1ST ST,0,34.052208999381,-118.2434028419
10349,ALONDRA BLVD/DWIGHT AV,0,33.888488773442,-118.24099998983
10350,1ST ST/SAN PEDRO ST,0,34.050386698958,-118.24089521834
10351,WILMINGTON AV/120TH ST,0,33.923288373339,-118.23910587022
10352,WILMINGTON AV/118TH ST,0,33.925953781772,-118.23910358722
10353,120TH ST/WILMINGTON AV,0,33.924601859054,-118.23909643324
10354,WILMINGTON AV/COMPTON BLVD,0,33.895884413266,-118.23761408744
10355,ROSA PARKS STATION/BUS BAY 11 & 12,0,33.928160332594,-118.23769572796
10356,WILMINGTON AV/LAUREL ST,0,33.892790748996,-118.23741420739
10357,WILMINGTON AV/ALONDRA BLVD,0,33.888518408982,-118.23714181505
10358,COMPTON BLVD/MATTHISEN AV,0,33.89591004093,-118.23434868398
10359,COMPTON BLVD/ARANBE AV,0,33.895909362774,-118.23185756225
10360,COMPTON BLVD/OLEANDER AV,0,33.895934534436,-118.22875032161
10361,COMPTON BLVD/ACACIA AV,0,33.895969078546,-118.2264635929
10362,MYRRH ST/ACACIA AV,0,33.892149928986,-118.22628523084
10363,COMPTON BLVD/WILLOWBROOK AV,0,33.895954394244,-118.22402844976
10365,MLK JR TRANS CTR/BUS BAY 5,0,33.89790708041,-118.22309782919
