stop_id,stop_name,stop_desc,stop_lat,stop_lon
10002,HIGHLAND AV/ROSECRANS AV,0,33.901005339651,-118.41788708014
10003,ROSECRANS AV/ALMA AV,0,33.901299847354,-118.41695266525
10004,HIGHLAND AV/33RD ST,0,33.898453740334,-118.41676056381
10005,HIGHLAND AV/30TH PL&31ST ST,0,33.897068093187,-118.41617701477
10006,MAIN ST/GRAND AV,0,33.919010340654,-118.41598604783
10007,HIGHLAND AV/30TH ST&29TH ST,0,33.896428901897,-118.41587068532
10008,MAIN ST/HOLLY AV,0,33.920856878093,-118.41599191837
10009,MAIN ST/MARIPOSA AV,0,33.923599223794,-118.41599564397
10010,MAIN ST/OAK AV,0,33.926025583586,-118.4159945047
10011,MAIN ST/WALNUT AV,0,33.928916312189,-118.41599896731
10012,MAIN ST/IMPERIAL AV,0,33.930848033298,-118.41600526176
10013,HIGHLAND AV/26TH ST,0,33.89423122944,-118.41489761706
10014,HIGHLAND AV/MARINE AV,0,33.891776353581,-118.41360371591
10015,GRAND AV/EUCALYPTUS DR,0,33.919425282142,-118.4135852683
10016,IMPERIAL AV/EUCALYPTUS DR,0,33.93086730232,-118.4135988934
10017,HIGHLAND AV/18TH PL&19TH ST,0,33.889818117097,-118.41251661788
10018,HIGHLAND AV/18TH ST&17TH PL,0,33.889209289226,-118.41216765864
10019,GRAND AV/SHELDON ST,0,33.919430494026,-118.41125826448
10020,IMPERIAL AV/SHELDON ST,0,33.930861489501,-118.41128140727
10021,HIGHLAND AV/14TH ST,0,33.886988240156,-118.41078939633
10023,MANHATTAN AV/10TH PL&11TH ST,0,33.883920531787,-118.41030981449
10024,MANHATTAN AV/10TH ST&9TH PL,0,33.883317126231,-118.40998069031
10026,ROSECRANS AV/BLANCHE RD,0,33.901915438171,-118.40971905736
10027,MANHATTAN AV/4TH ST&3RD PL,0,33.879523318165,-118.40807768019
10028,MANHATTAN AV/3RD PL&4TH ST,0,33.879504105896,-118.40807099766
10029,IMPERIAL AV/MCCARTHY CT,0,33.930860993568,-118.40819256077
10030,GRAND AV/LOMITA ST,0,33.919434016753,-118.40779410632
10031,MANHATTAN AV/1ST ST,0,33.877729056189,-118.40724204345
10032,MANHATTAN AV/LONGFELLOW AV,0,33.875778897412,-118.40618825912
10033,HERMOSA AV/26TH ST,0,33.872025732853,-118.40525758028
10034,GREENWICH VILLAGE ST/MANHATTAN AV,0,33.873087732812,-118.40486081456
10035,HERMOSA AV/25TH ST,0,33.871364898303,-118.40484261304
10036,GRAND AV/CENTER ST,0,33.919443803038,-118.40489031138
10037,IMPERIAL AV/CENTER ST,0,33.930872062984,-118.40490927565
10038,HERMOSA AV/22ND ST,0,33.869396136353,-118.40359452265
10039,ROSECRANS AV/PACIFIC AV,0,33.901958296185,-118.40353052827
10040,HERMOSA AV/19TH ST,0,33.86728347646,-118.40182205054
10041,HERMOSA AV/19TH ST&19TH CT,0,33.867129885546,-118.40173567002
10042,IMPERIAL HWY/CALIFORNIA ST,0,33.931390278651,-118.40196137212
10043,CALIFORNIA ST/IMPERIAL AV,0,33.930873800087,-118.40192592909
10044,HERMOSA AV/16TH ST,0,33.865157216361,-118.40082697302
10045,GRAND AV/KANSAS ST,0,33.919450113387,-118.4005329303
10047,HERMOSA AV/11TH ST,0,33.861437152018,-118.39984740312
10048,ROSECRANS AV/WALNUT AV,0,33.901970321425,-118.39992213653
10049,HERMOSA AV/10TH ST,0,33.860715094489,-118.39965950925
10050,HERMOSA AV/8TH ST,0,33.859281948058,-118.39929037087
10051,HERMOSA AV/6TH ST,0,33.857802142777,-118.39890455489
10052,HERMOSA AV/6TH ST&6TH CT,0,33.857629173643,-118.39886091472
10053,HERMOSA AV/2ND ST,0,33.854911093379,-118.39817281175
10054,HERMOSA AV/LYNDON ST,0,33.8530441403,-118.39769627572
10055,HARBOR DR/YACHT CLUB WY,0,33.851957851293,-118.39713453609
10056,ROSECRANS AV/SEPULVEDA BLVD,0,33.901872651457,-118.39621436409
10057,SEPULVEDA BLVD/PARK PL,0,33.905049276189,-118.39617994868
10058,IMPERIAL HWY/SEPULVEDA BLVD,0,33.930887307852,-118.39618344774
10059,GRAND AV/SEPULVEDA BLVD,0,33.919448293564,-118.39609310901
10061,SEPULVEDA BLVD/EL SEGUNDO BLVD,0,33.916360005987,-118.396002705
10062,BERYL ST/HARBOR DR,0,33.846056301425,-118.39354336012
10063,PARK VIEW AV/VILLAGE DR,0,33.900407297279,-118.39308676396
10064,VILLAGE DR/ROSECRANS AV,0,33.901869902732,-118.3928563559
10065,96TH ST/LAX CITY BUS CTR,0,33.948861132276,-118.39279317296
10067,BERYL ST/CATALINA AV,0,33.846426728782,-118.3920203447
10069,IMPERIAL HWY/HUGHES WY,0,33.930889870013,-118.39203643237
10070,CATALINA AV/CARNELIAN ST,0,33.844817853041,-118.39075813806
10071,REDONDO BEACH PIER,0,33.83887571144,-118.3903221351
10072,CATALINA AV/DIAMOND ST,0,33.843393704887,-118.38929925267
10073,CATALINA AV/KNOB HILL AV,0,33.82892165664,-118.38906417358
10074,CATALINA AV/TOPAZ ST,0,33.831467200141,-118.38873684047
10075,CATALINA AV/AVENUE C,0,33.82556787785,-118.38865682582
10076,CATALINA AV/AVENUE F,0,33.822441358022,-118.38850077428
10077,AVENUE I/CATALINA AV,0,33.819265230449,-118.38839059467
10078,CATALINA AV/EMERALD ST,0,33.841852084266,-118.38847542735
10079,ROSECRANS AV/NASH ST,0,33.9018781436,-118.38861853231
10080,CATALINA AV/SAPPHIRE ST,0,33.833304334953,-118.38824486558
10081,CATALINA AV/GARNET ST,0,33.840039287365,-118.38823652466
10082,CATALINA AV/TORRANCE BLVD,0,33.838204264087,-118.38807326574
10083,CATALINA AV/PEARL ST,0,33.836652262989,-118.38791132282
10084,DIAMOND ST/PACIFIC COAST HWY,0,33.844971957554,-118.38728458631
10085,CATALINA AV/ELENA AV,0,33.816238636287,-118.38706965253
10086,IMPERIAL HWY/NASH ST,0,33.930901667077,-118.38753673212
10087,96TH ST/AIRPORT BLVD&JENNY AV,0,33.94903488647,-118.38749862383
10091,APOLLO ST/ROSECRANS AV,0,33.901882102504,-118.38653257354
10092,PALOS VERDES BLVD/VIA VALENCIA&CATALINA AV,0,33.816108789635,-118.3855744794
10093,CENTURY BLVD/AIRPORT BLVD,0,33.945489201829,-118.38608095623
10095,AVENUE I/ELENA AV,0,33.818934056298,-118.38541627325
10096,96TH ST/AIRPORT BLVD,0,33.949435456442,-118.38597714587
10097,DIAMOND ST/HELBERTA AV,0,33.847253419923,-118.38447281831
10099,DIAMOND ST/SEA HAWK WY,0,33.84758757255,-118.38395072358
10102,PARK PL/DOUGLAS ST,0,33.904305407265,-118.38318236248
10103,IMPERIAL HWY/DOUGLAS ST,0,33.93090450818,-118.38320840965
10104,BERYL ST/PROSPECT AV,0,33.854141716061,-118.38204414911
10105,DIAMOND ST/LUCIA AV,0,33.849474699647,-118.38155523744
10106,CENTURY BLVD/INTERNATIONAL RD,0,33.945497924531,-118.38161342895
10108,PROSPECT AV/DIAMOND ST,0,33.85171228214,-118.37867380346
10109,BERYL ST/FLAGLER LN,0,33.85498072167,-118.37827028256
10111,AVIATION BLVD/IMPERIAL HWY,0,33.930908322348,-118.37852077099
10112,AVIATION BLVD/111TH ST,0,33.934510757874,-118.37852056302
10113,AVIATION BLVD/104TH ST,0,33.941987645239,-118.37852796999
10114,CENTURY BLVD/AVIATION BLVD,0,33.945458178515,-118.37853046338
10116,AVIATION LAX STATION/BUS BAY 3,0,33.92949892272,-118.37756502124
10117,190TH ST/BERYL ST,0,33.858253099857,-118.37484645566
10118,190TH ST/RINDGE LN,0,33.858284002834,-118.3728572186
10119,RINDGE LN/RIPLEY AV,0,33.861834470288,-118.37277089757
10120,RINDGE LN/PULLMAN LN,0,33.864288354168,-118.37274886741
10121,RINDGE LN/CLARK LN,0,33.866167847176,-118.37275722248
10122,ARTESIA BLVD/RINDGE LN,0,33.872839531325,-118.372777001
10123,RINDGE LN/GRANT AV,0,33.86902284951,-118.37275673843
10124,RINDGE LN/CARNEGIE LN,0,33.87094082281,-118.37276197106
10125,MANHATTAN BEACH BLVD/REDONDO BEACH AV,0,33.887380897125,-118.37016627804
10126,REDONDO BEACH AV/SANTA FE AV,0,33.889787973032,-118.37017690725
10127,REDONDO BEACH AV/SPACE PARK DR,0,33.891291042097,-118.37017695491
10128,REDONDO BEACH STATION,0,33.894626897254,-118.37018509653
10129,VAIL AV/VOORHEES AV,0,33.87660713061,-118.37000011254
10130,VAIL AV/NELSON AV,0,33.874738646817,-118.36998527819
10131,VAIL AV/GATES AV,0,33.878478403015,-118.370001782
10132,VAIL AV/ARTESIA BLVD,0,33.87284817087,-118.36997364171
10133,VAIL AV/ROBINSON ST,0,33.88009963597,-118.3699990535
10134,VAIL AV/PINCKARD AV,0,33.88423510806,-118.3700074215
10135,VAIL AV/BATAAN RD,0,33.884661027554,-118.37000600666
10136,VAIL AV/MAY AV,0,33.882792532138,-118.36999446534
10137,VAIL AV/WARFIELD AV,0,33.886532352035,-118.36999120276
10138,ARTESIA BLVD/MACKAY LN,0,33.872844258052,-118.36856039593
10139,ARTESIA BLVD/FELTON LN,0,33.872862586193,-118.3643405559
10140,ARTESIA BLVD/INGLEWOOD AV,0,33.872866166221,-118.36132634272
10141,ARTESIA BLVD/FIRMONA AV,0,33.872877055236,-118.35767637274
10142,ARTESIA BLVD/KINGSDALE AV,0,33.87286804706,-118.3570076039
10144,HAWTHORNE BLVD/ARTESIA BLVD,0,33.872822935159,-118.35273149294
10145,HAWTHORNE BLVD/182ND ST,0,33.865544225317,-118.35262840723
10146,HAWTHORNE BLVD/MARKETPLACE,0,33.868085949249,-118.35263580246
10147,HAWTHORNE BLVD/ARTESIA BLVD; TORRANCE; 90504,0,33.872818412996,-118.35239875609
