stop_id,stop_code,stop_name,stop_desc,stop_lat,stop_lon,zone_id,stop_url,location_type,parent_station,stop_timezone,wheelchair_boarding
1,1389,"Pierce at Sand Pebble Apts",,33.897972,-117.493326,,,,,,0
10,1397,"Hole + Bayonne",,33.917918,-117.481283,,,,,,0
100,1433,"Arlington + Yellowstone",,33.946387,-117.394760,,,,,,0
1000,2179,"Iris + Coachlight",,33.893054,-117.201670,,,,,,0
1001,2180,"Iris + Grande Vista",,33.895258,-117.195189,,,,,,0
1002,2181,"Iris + Hammett Ct",,33.895276,-117.190224,,,,,,0
1003,2182,"Iris + Oliver",,33.895116,-117.182380,,,,,,0
1004,2183,"Moreno Beach + Via Del Lago",,33.895097,-117.179148,,,,,,0
1005,2184,"Moreno Beach + Championship",,33.899554,-117.173933,,,,,,0
1006,2185,"Moreno Beach + JFK",,33.903196,-117.173829,,,,,,0
1007,2186,"Moreno Beach + Cactus",,33.910595,-117.173894,,,,,,0
1008,2187,"Alessandro + Moreno Beach",,33.917502,-117.176057,,,,,,0
1009,2188,"Alessandro + Country Squire",,33.917422,-117.193978,,,,,,0
101,1434,"Brockton + Tibbetts",,33.947588,-117.396706,,,,,,0
1010,2189,"Alessandro + Morrison",,33.917527,-117.200944,,,,,,0
1011,2190,"Alessandro + Chervil Ct",,33.917445,-117.211819,,,,,,0
1012,2191,"Alessandro 25634 @ MV School Dist",,33.917469,-117.215526,,,,,,0
1013,2192,"Alessandro + Kitching @ Library",,33.917494,-117.218447,,,,,,0
1015,2193,"Alessandro + Perris",,33.917462,-117.224340,,,,,,0
1016,2194,"Alessandro + Elsworth",,33.917133,-117.271013,,,,,,0
1017,2195,"Alessandro + Day",,33.916982,-117.279118,,,,,,0
1018,2196,"Alessandro + Old 215",,33.916957,-117.284287,,,,,,0
1019,2197,"Alessandro + Sangonio @Farmer Boys",,33.916884,-117.294664,,,,,,0
102,1435,"Brockton + Nelson",,33.950318,-117.396710,,,,,,0
1021,2198,"Alessandro + Barton",,33.916664,-117.313479,,,,,,0
1022,2199,"Mission Grove + Northrop @ Social Security",,33.908809,-117.325681,,,,,,0
1023,2200,"Alessandro + Glenhaven",,33.948582,-117.356203,,,,,,0
1024,2201,"Central + Falkirk",,33.953881,-117.363149,,,,,,0
1025,2202,"Central + Victoria",,33.953834,-117.369287,,,,,,0
1026,2203,"Alessandro + Mission Grove Parkway",,33.916540,-117.325154,,,,,,0
1027,2204,"Alessandro + Cannon",,33.923545,-117.336378,,,,,,0
1028,2205,"Alessandro + Canyon Crest",,33.925912,-117.339788,,,,,,0
1029,2206,"Alessandro + Via Vista",,33.931419,-117.347684,,,,,,0
103,1436,"Central + Magnolia",,33.953442,-117.395608,,,,,,0
1030,2207,"Alessandro + Century",,33.936869,-117.351034,,,,,,0
1031,2208,"Alessandro + Chicago",,33.943305,-117.353494,,,,,,0
1032,3936,"Oceanside Transit Center",,33.192885,-117.378947,,,,,,0
1033,3694,"Town Center North @ NCTD Stops",,33.240703,-117.292185,,,,,,0
1034,3937,"Hwy 76 + I-15 Park n Ride Lot 19",,33.330087,-117.162089,,,,,,0
1035,3610,"Hwy 76 + Camino Del Rey",,33.289270,-117.225260,,,,,,0
1036,3611,"Hwy 76 + Olive Hill Rd",,33.288540,-117.225826,,,,,,0
1037,3586,"Country Village + Granite Hill",,34.020670,-117.507460,,,,,,0
1038,3660,"Mills Circle 1 Ontario Mills Mall",,34.073544,-117.556252,,,,,,0
1039,3939,"Richton 5091 @ Montclair TransCenter",,34.094737,-117.695164,,,,,,0
104,1437,"Central + De Anza",,33.953460,-117.393113,,,,,,0
1040,3423,"Granite Hill @ Park + Ride",,34.019855,-117.506028,,,,,,0
1041,3424,"LE Outlet Center @ Park N Ride",,33.704707,-117.357783,,,,,,0
1042,3425,"Temescal Canyon @ Dos Lagos",,33.816196,-117.506380,,,,,,0
1043,3426,"Corona Transit Center",,33.881796,-117.564321,,,,,,0
1044,3427,"Temesca Canyon @ Dos Lagos",,33.817144,-117.506278,,,,,,0
1045,3428,"Temesscal @ Toms Farms",,33.774217,-117.487926,,,,,,0
1046,3429,"Sycamore Cyn + Eastridge",,33.931660,-117.296380,,,,,,0
1047,3630,"Sycamore Cyn + Sierra Ridge",,33.934718,-117.298500,,,,,,0
1048,2209,"Van Buren + Magnolia",,33.920804,-117.446609,,,,,,0
105,1438,"Central + San Diego",,33.953478,-117.390935,,,,,,0
1051,2210,"Van Buren + California",,33.926914,-117.451745,,,,,,0
1052,2211,"Van Buren + Colorado @ Wells",,33.933824,-117.453910,,,,,,0
1053,2212,"Van Buren + Audrey",,33.937231,-117.453900,,,,,,0
1054,2213,"Van Buren + Philbin",,33.939338,-117.453870,,,,,,0
1055,2214,"Van Buren + Jackson",,33.942930,-117.453680,,,,,,0
1056,2215,"Van Buren + Arlington",,33.946340,-117.453730,,,,,,0
1057,2216,"Van Buren + Central",,33.956212,-117.457745,,,,,,0
1058,2217,"Van Buren + Jurupa",,33.959043,-117.461764,,,,,,0
1059,2218,"Van Buren + Clay",,33.966778,-117.465975,,,,,,0
106,1439,"Central + Riverside",,33.953470,-117.387470,,,,,,0
1060,2219,"Van Buren + Clay",,33.966805,-117.466477,,,,,,0
1061,2220,"Etiwanda + Jurupa",,33.992239,-117.523235,,,,,,0
1062,2221,"Limonite + Clay",,33.977315,-117.462906,,,,,,0
1063,2222,"Limonite + Baldwin",,33.975816,-117.467472,,,,,,0
1064,2223,"Limonite + Pedley",,33.975686,-117.473011,,,,,,0
1065,2224,"Pedley + Limonite",,33.976219,-117.473894,,,,,,0
1066,2225,"Pedley Metrolink Station",,33.978701,-117.476073,,,,,,0
1067,2226,"Pedley + Limonite",,33.976363,-117.474484,,,,,,0
1068,2227,"Limonite + Collins",,33.975640,-117.478073,,,,,,0
1069,2228,"Limonite + Felspar",,33.975632,-117.484428,,,,,,0
107,1440,"Central 3300 @ Memorial Park",,33.953604,-117.378251,,,,,,0
1070,2229,"Limonite + Downey",,33.975657,-117.488054,,,,,,0
1071,2230,"Limonite + Homestead",,33.975585,-117.493397,,,,,,0
1072,2231,"Limonite + Bain",,33.975431,-117.506448,,,,,,0
1074,2233,"Limonite + Marlatt",,33.975518,-117.514028,,,,,,1
1076,2235,"Etiwanda + Limonite",,33.975752,-117.523193,,,,,,0
1077,2236,"Etiwanda + Milky Way",,33.978739,-117.523192,,,,,,0
1078,2237,"Etiwanda + 58th",,33.982977,-117.523186,,,,,,0
1079,2238,"Etiwanda + Mechanics",,33.987499,-117.523206,,,,,,0
108,1441,"14th + Victoria",,33.970443,-117.365482,,,,,,0
1080,2239,"Etiwanda + 54th",,33.989561,-117.523225,,,,,,0
1081,2240,"Jurupa + Martin",,33.992641,-117.519691,,,,,,0
1082,2241,"Jurupa + Troth",,33.992662,-117.516356,,,,,,0
1083,2242,"Jurupa + Marlatt",,33.992686,-117.513244,,,,,,0
1084,2243,"Jurupa + Dodd",,33.992668,-117.508928,,,,,,0
1085,2244,"Jurupa + Bain",,33.992678,-117.504587,,,,,,0
1086,2245,"Jurupa + Steve",,33.993230,-117.501242,,,,,,0
1087,2246,"Jurupa + Rutile",,33.994271,-117.496909,,,,,,0
1088,2247,"Jurupa + J Street",,33.996097,-117.489211,,,,,,0
1089,2248,"Felspar + Jurupa",,33.997743,-117.484041,,,,,,0
109,1442,"14th + Park",,33.971570,-117.368275,,,,,,0
1090,2249,"Felspar + Galena",,34.004157,-117.484071,,,,,,0
1091,2250,"Felspar + Mission",,34.010846,-117.484090,,,,,,0
1092,2251,"Mission + Kenneth",,34.011894,-117.485590,,,,,,0
1093,2252,"Mission + Hunter",,34.011911,-117.489860,,,,,,0
1094,2253,"Mission + Campbell",,34.011765,-117.493493,,,,,,0
1095,2254,"Mission + Lindsay",,34.011604,-117.498723,,,,,,0
1096,2255,"Mission + Conning @ Sacred Ht Church",,34.014048,-117.502429,,,,,,0
1097,2256,"Mission + Conning",,34.015448,-117.504279,,,,,,0
1098,2257,"Mission + Ben Nevis",,34.016700,-117.505548,,,,,,0
1099,2258,"Country Village + Granite Hill",,34.020656,-117.507470,,,,,,0
11,1398,"Hole + Jones",,33.917474,-117.478511,,,,,,0
110,1443,"14th + Howard",,33.972441,-117.370154,,,,,,0
1100,2259,"Country Village + Country Club",,34.023454,-117.507557,,,,,,0
1103,4379,"Mulberry + Marlay",,34.039883,-117.507043,,,,,,0
1104,2262,"Country Village + Oak Leaf",,34.031376,-117.507017,,,,,,0
1106,2264,"Country Village + Country Club",,34.022745,-117.507981,,,,,,0
1107,2265,"Mission + San Sevaine",,34.016681,-117.505770,,,,,,0
1108,2266,"Limonite + Etiwanda",,33.975583,-117.521187,,,,,,0
1109,2267,"Felspar + Galena",,34.004058,-117.484253,,,,,,0
111,1444,"14th + Lime",,33.974327,-117.374146,,,,,,0
1110,2268,"Felspar + Jurupa",,33.997994,-117.484247,,,,,,0
1111,2269,"Van Buren + Jurupa",,33.958560,-117.461370,,,,,,0
1112,2270,"Van Buren + Central",,33.955730,-117.457520,,,,,,0
1114,2271,"Van Buren + Arlington",,33.945322,-117.454100,,,,,,0
1115,2272,"Van Buren + Cypress",,33.941587,-117.454089,,,,,,0
1116,2273,"Van Buren + Philbin",,33.938506,-117.454154,,,,,,0
1117,2274,"Van Buren + Audrey Lane",,33.936223,-117.454188,,,,,,0
1118,2275,"Van Buren + Wells",,33.933767,-117.454173,,,,,,0
1119,2276,"Van Buren + California",,33.926190,-117.451538,,,,,,0
112,1445,"Lemon + 14th",,33.975370,-117.375758,,,,,,0
1120,2277,"Van Buren + Garfield",,33.923265,-117.449044,,,,,,0
1121,4403,"Mission + Bellegrave",,34.011721,-117.486019,,,,,,0
1122,2278,"Mission + Conning",,34.014944,-117.503881,,,,,,0
1123,2279,"Mission + 9935 Sacred Heart Church",,34.013986,-117.502638,,,,,,0
1124,2280,"Mission + Lindsay",,34.011446,-117.498023,,,,,,0
1125,2281,"Mission + Campbell",,34.011590,-117.493626,,,,,,0
1126,2282,"Mission + Hunter",,34.011760,-117.488077,,,,,,0
1127,2283,"Mission + Felspar",,34.011715,-117.484439,,,,,,0
1128,2284,"Jurupa + Cedar",,33.996130,-117.489747,,,,,,0
1129,2285,"Jurupa + Rutile",,33.994437,-117.496772,,,,,,0
113,1446,"Lemon + 12th @ Riverside County Bldg",,33.977369,-117.374383,,,,,,0
1130,2286,"Jurupa + Steve",,33.993244,-117.501873,,,,,,0
1131,2287,"Jurupa + Bain",,33.992832,-117.504670,,,,,,0
1132,2288,"Jurupa + Dodd",,33.992759,-117.508890,,,,,,0
1133,2289,"Jurupa + Marlatt",,33.992752,-117.513617,,,,,,0
1134,2290,"Jurupa + Troth",,33.992773,-117.516326,,,,,,0
1135,2291,"Jurupa + Martin",,33.992755,-117.519125,,,,,,0
1136,2292,"Etiwanda + Jurupa",,33.992536,-117.523505,,,,,,0
1137,2293,"Etiwanda + Lucretia",,33.989216,-117.523516,,,,,,0
1138,2294,"Etiwanda + Pollux",,33.986209,-117.523487,,,,,,0
1139,2295,"Etiwanda + 58th",,33.982341,-117.523488,,,,,,0
1140,2296,"Etiwanda + Milky Way",,33.978539,-117.523472,,,,,,0
1141,2297,"Limonite + Etiwanda",,33.975406,-117.521686,,,,,,0
1146,2301,"Limonite + Homestead",,33.975472,-117.493345,,,,,,0
1147,2302,"Limonite + Downey",,33.975454,-117.488207,,,,,,0
1148,2303,"Limonite + Felspar",,33.975430,-117.483632,,,,,,0
1149,2304,"Limonite + Archer",,33.975440,-117.478280,,,,,,0
115,1448,"Market + Sixth",,33.984620,-117.374171,,,,,,0
1150,2305,"Limonite + Eucalyptus",,33.975482,-117.472035,,,,,,0
1151,2307,"Limonite + Baldwin",,33.975934,-117.465918,,,,,,0
1152,2308,"Hemet Transit @ Train Depot",,33.748454,-116.971474,,,,,,0
1153,2309,"Harveston Park @ Equity + Ynez",,33.531941,-117.159635,,,,,,0
1154,3665,"Escondido City Halls @ W Valley Pkwy",,33.122215,-117.083094,,,,,,0
1155,3666,"Escondido Transit Center",,33.118871,-117.090180,,,,,,0
1156,3622,"Tustin + Katella",,33.809578,-117.835634,,,,,,0
1157,3623,"Tustin + Chestnut",,33.813054,-117.835954,,,,,,0
1158,2310,"Hwy 74 + Dexter",,33.694217,-117.334930,,,,,,0
1159,2311,"Hwy 74 + Cambern",,33.695840,-117.333135,,,,,,0
116,1449,"Market + Third",,33.987039,-117.372528,,,,,,0
1160,2312,"Hwy 74 + Conard",,33.698535,-117.330121,,,,,,0
1161,4435,"Hwy 74 + Allan Street",,33.700035,-117.328684,,,,,,0
1162,2313,"Hwy 74 + Rosetta Canyon Dr",,33.704872,-117.324039,,,,,,0
1163,2314,"Hwy 74 + Riverside Street",,33.711210,-117.311666,,,,,,0
1164,2315,"Hwy 74 + Hammack Avenue",,33.714414,-117.305063,,,,,,0
1165,2316,"Hwy 74 + Wasson Canyon Rd",,33.716597,-117.299523,,,,,,0
1166,2317,"Hwy 74 + Meadowbrook",,33.725566,-117.292390,,,,,,0
1167,2318,"Hwy 74 + River Road",,33.731184,-117.289625,,,,,,0
1168,2319,"Hwy 74 + Richard",,33.736049,-117.285202,,,,,,0
1169,2320,"Hwy 74 + Spring St",,33.744738,-117.279259,,,,,,0
1170,2321,"Hwy 74 + Taylor",,33.747977,-117.276471,,,,,,0
1171,2322,"Theda + Highway 74",,33.758057,-117.275227,,,,,,0
1172,2323,"Theda + Betty",,33.761199,-117.275504,,,,,,0
1173,2324,"Theda + Mountain",,33.764403,-117.275548,,,,,,0
1174,2325,"Theda + Louise",,33.768121,-117.275604,,,,,,0
1175,2326,"Ellis + Theda",,33.771748,-117.275624,,,,,,0
1176,2327,"Ellis + Cowie",,33.771999,-117.269375,,,,,,0
1177,2328,"Old Elsinore + San Jacinto",,33.786944,-117.273516,,,,,,0
1178,2329,"Old Elsinore + Aloha",,33.793093,-117.274575,,,,,,0
1179,2330,"Old Elsinore + Amelia",,33.801183,-117.274275,,,,,,0
118,1451,"Main + First",,33.988914,-117.369641,,,,,,0
1180,2331,"Old Elsinore + Marie",,33.806616,-117.276275,,,,,,0
1181,2332,"Old Elsinore + Michael",,33.810300,-117.278243,,,,,,0
1182,2333,"Old Elsinore + Orange",,33.816696,-117.279866,,,,,,0
1183,2334,"Old Elsinore + Church",,33.821005,-117.281661,,,,,,0
1184,2335,"Old Elsinore + Palm",,33.826159,-117.283732,,,,,,0
1185,2336,"Old Elsinore @ Clark + Rider",,33.829762,-117.286631,,,,,,0
1186,2337,"Clark + Oakwood",,33.833207,-117.287612,,,,,,0
1187,2338,"Clark + Cajalco Rd",,33.837615,-117.287591,,,,,,0
1188,2339,"Clark + Kinney",,33.842614,-117.287565,,,,,,0
1189,2340,"Clark + Martin",,33.844900,-117.287569,,,,,,0
119,1452,"Main + Poplar",,33.992415,-117.367362,,,,,,0
1190,2341,"Clark + Perry",,33.848328,-117.287579,,,,,,0
1191,2342,"Clark + Markham",,33.852178,-117.287556,,,,,,0
1192,2343,"Clark + Bailey",,33.854081,-117.287553,,,,,,0
1193,2344,"Oleander + Clark",,33.858703,-117.288197,,,,,,0
1194,2345,"Oleander + Haines",,33.858681,-117.292262,,,,,,0
1195,2346,"Oleander + Brown",,33.858689,-117.296078,,,,,,0
1196,2347,"Alexander + Oleander",,33.858366,-117.305156,,,,,,0
1197,2348,"Alexander + Nance",,33.854899,-117.305157,,,,,,0
1198,2349,"Markham + Alexander",,33.851972,-117.305114,,,,,,0
1199,2350,"Markham + Northstar",,33.853950,-117.316214,,,,,,0
12,1399,"Hole + Mobley",,33.916519,-117.472668,,,,,,0
120,1453,"Russell + Main",,33.994784,-117.365056,,,,,,0
1200,2351,"Parson + Markham",,33.858565,-117.326909,,,,,,0
1201,2352,"Parson + Nandina",,33.865812,-117.326927,,,,,,0
1202,2353,"Parson + Dallas",,33.869375,-117.326925,,,,,,0
1203,2354,"Wood + Mariposa",,33.873251,-117.331294,,,,,,0
1204,2355,"Wood + Lurin",,33.876119,-117.331306,,,,,,0
1205,2356,"Wood + Krameria",,33.880886,-117.331267,,,,,,0
1206,2357,"Trautwein + Jesse Lane",,33.904664,-117.327109,,,,,,0
1207,2358,"Mission Grove + Earhart Way",,33.908721,-117.325385,,,,,,0
1208,2359,"Mission Grove + Mission Village",,33.912921,-117.323835,,,,,,0
1209,2360,"Chicago + Keswick",,33.945277,-117.351373,,,,,,0
121,1454,"Victoria + 14th",,33.970107,-117.366027,,,,,,0
1210,2361,"Chicago + Ransom",,33.947971,-117.347647,,,,,,0
1211,2363,"Chicago + Country Club",,33.949914,-117.346252,,,,,,0
1212,2364,"Chicago + Central",,33.956413,-117.346383,,,,,,0
1213,2366,"Chicago + Le Conte",,33.961373,-117.348239,,,,,,0
1214,2367,"Chicago + Vassar",,33.966033,-117.348399,,,,,,0
1215,1174,"Ellis + Cox",,33.772009,-117.260929,,,,,,0
1216,1175,"Ellis + Hwy 74",,33.771987,-117.252841,,,,,,0
1217,1176,"Hwy 74 @ Fourth + Belloma Ln",,33.779699,-117.244222,,,,,,0
1218,2368,"San Jacinto + Cowie",,33.786484,-117.269671,,,,,,0
1219,2369,"San Jacinto + Aloha",,33.786447,-117.265120,,,,,,0
122,1455,"Victoria + Cridge",,33.965777,-117.368414,,,,,,0
1220,2370,"San Jacinto + Lukens",,33.786460,-117.261119,,,,,,0
1221,2371,"Fourth + Perris",,33.782477,-117.226528,,,,,,0
1222,2372,"San Jacinto + La More",,33.786563,-117.259663,,,,,,0
1223,2373,"San Jacinto + Lukens",,33.786570,-117.261518,,,,,,0
1224,2374,"San Jacinto + Aloha",,33.786586,-117.265806,,,,,,0
1225,2375,"San Jacinto + Cowie",,33.786582,-117.269535,,,,,,0
1226,2376,"Collier 17600 + LE Outlet Center",,33.699807,-117.352008,,,,,,0
1227,2377,"Collier + 3rd Driveway Outlet Center",,33.704622,-117.358139,,,,,,0
1228,2378,"San Jacinto + La More",,33.786462,-117.259340,,,,,,0
1229,2379,"San Jacinto + Diana",,33.786432,-117.255734,,,,,,0
123,1456,"Victoria + Woodbine",,33.962992,-117.370283,,,,,,0
1230,2380,"San Jacinto + Altura",,33.786478,-117.253955,,,,,,0
1232,2382,"Navajo + Shawnee",,33.784276,-117.251767,,,,,,0
1233,4404,"Navajo + Cochise",,33.783401,-117.251102,,,,,,0
1234,2383,"Navajo + Iroquois",,33.782466,-117.249786,,,,,,0
1235,2384,"Navajo + Cherokee",,33.782808,-117.246594,,,,,,0
1236,2385,"Navajo + Indian Circle",,33.781737,-117.244448,,,,,,0
1237,2386,"Fourth + A Street",,33.782261,-117.235197,,,,,,0
1238,2387,"Fourth + A Street",,33.782442,-117.235094,,,,,,0
1239,2388,"Navajo + Indian Circle",,33.781543,-117.243873,,,,,,0
124,1457,"Victoria + Arroyo",,33.959422,-117.368803,,,,,,0
1240,2389,"Navajo + Cherokee",,33.782920,-117.246583,,,,,,0
1241,2390,"Navajo + Mohawk",,33.782641,-117.249208,,,,,,0
1242,2391,"Navajo + Cochise",,33.784288,-117.251620,,,,,,0
1243,2392,"San Jacinto + Navajo",,33.786634,-117.253970,,,,,,0
1244,2393,"San Jacinto + Carolyn",,33.786597,-117.255761,,,,,,0
1245,2394,"San Jacinto + Diana",,33.786601,-117.257572,,,,,,0
1246,2395,"Fourth @ Hwy 74 + Navajo",,33.780161,-117.244206,,,,,,0
1247,2396,"Fourth @ Hwy 74 + Seventh St",,33.777148,-117.246251,,,,,,0
1248,2397,"Ellis + Hwy 74",,33.772059,-117.252918,,,,,,0
1249,2398,"Van Buren + Bountiful",,33.887503,-117.328275,,,,,,0
125,1458,"Victoria + Central",,33.954037,-117.370514,,,,,,0
1250,2399,"Ellis + Cowie",,33.772096,-117.270216,,,,,,0
1251,2400,"Trautwein + Van Buren",,33.891705,-117.324693,,,,,,0
1252,2401,"Trautwein + Orange Terrace",,33.895389,-117.324779,,,,,,0
1253,2402,"Trautwein + Grove Comm Drive",,33.900505,-117.325588,,,,,,0
1254,2403,"Chicago + Prince Albert",,33.961464,-117.348553,,,,,,0
1255,2404,"Trautwein + Grove Comm Drive",,33.899691,-117.325558,,,,,,0
1256,2405,"Mission Grove + Mission Village",,33.913858,-117.324540,,,,,,0
1257,2406,"Trautwein MB Jesse Lane",,33.903782,-117.327068,,,,,,0
1258,2407,"Wood + Van Buren",,33.886587,-117.331453,,,,,,0
1259,2408,"Wood + Krameria @ MLK HS",,33.879411,-117.331487,,,,,,0
126,1459,"Central + Riverside",,33.953695,-117.388419,,,,,,0
1260,2409,"Wood + Lurin",,33.875898,-117.331443,,,,,,0
1261,2410,"Wood + Mariposa",,33.872992,-117.331426,,,,,,0
1262,2411,"Wood + Dallas",,33.869233,-117.331424,,,,,,0
1263,2412,"Wood + Nandina",,33.865700,-117.331415,,,,,,0
1264,2413,"Markham + Wood",,33.858097,-117.330859,,,,,,0
1265,2414,"Markham + Parsons",,33.858138,-117.326636,,,,,,0
1266,2415,"Markham + Cable Ln",,33.853462,-117.315811,,,,,,0
1267,2416,"Alexander + Markham",,33.851972,-117.305051,,,,,,0
1268,2417,"Alexander + Sage",,33.854687,-117.305055,,,,,,0
1269,2418,"Alexander + Oleander",,33.858315,-117.305036,,,,,,0
127,1460,"Central + San Diego",,33.953666,-117.391059,,,,,,0
1270,2419,"Oleander + Brown",,33.858557,-117.296099,,,,,,0
1271,2420,"Oleander + Haines",,33.858597,-117.292313,,,,,,0
1272,2421,"Clark + Oleander",,33.858360,-117.287656,,,,,,0
1273,2422,"Clark + Bailey",,33.853571,-117.287705,,,,,,0
1274,2423,"Clark + Markham",,33.851308,-117.287712,,,,,,0
1275,2424,"Clark + Perry",,33.848072,-117.287724,,,,,,0
1276,2425,"Clark + Martin",,33.844220,-117.287725,,,,,,0
1277,2426,"Clark + Hicks",,33.842308,-117.287707,,,,,,0
1278,2427,"Clark + Cajalco",,33.838155,-117.287728,,,,,,0
1279,2428,"Clark + Oakwood",,33.833389,-117.287742,,,,,,0
128,1461,"Central + De Anza",,33.953632,-117.393768,,,,,,0
1280,2429,"Clark @ Old Elsinore + Rider",,33.829698,-117.286716,,,,,,0
1281,2430,"Old Elsinore + Palm",,33.826225,-117.283862,,,,,,0
1282,2431,"Old Elsinore + Church Street",,33.820687,-117.281637,,,,,,0
1283,2432,"Old Elsinore + Orange",,33.816103,-117.279800,,,,,,0
1284,2433,"Old Elsinore + Michael",,33.810056,-117.278305,,,,,,0
1285,2434,"Old Elsinore + Marie",,33.806221,-117.276136,,,,,,0
1286,2435,"Old Elsinore + Amelia",,33.800917,-117.274440,,,,,,0
1287,2436,"Old Elsinore + Aloha",,33.793127,-117.274683,,,,,,0
1288,2437,"Old Elsinore + San Jacinto",,33.786816,-117.273546,,,,,,0
1289,2438,"Theda + Ellis",,33.771724,-117.275806,,,,,,0
129,1462,"Arlington + Target",,33.946270,-117.382540,,,,,,0
1290,2439,"Theda + Louise",,33.768352,-117.275725,,,,,,0
1291,2440,"Theda + Mountain",,33.764963,-117.275685,,,,,,0
1292,2441,"Theda + Betty",,33.761281,-117.275608,,,,,,0
1293,2442,"Theda + Hwy 74",,33.757821,-117.275221,,,,,,0
1294,2443,"Hwy 74 + Theda",,33.751035,-117.275666,,,,,,0
1295,2444,"Hwy 74 + Taylor",,33.748368,-117.276530,,,,,,0
1296,2445,"Hwy 74 + Spring",,33.743776,-117.280434,,,,,,0
1297,2446,"Hwy 74 + Hwy 74 Market",,33.734288,-117.286925,,,,,,0
1298,4002,"Hwy 74 + River Road",,33.730120,-117.290702,,,,,,0
1299,2447,"Hwy 74 + Meadowbrook",,33.723839,-117.293448,,,,,,0
13,1400,"Hole + Bonita",,33.915741,-117.467942,,,,,,0
1300,2448,"Hwy 74 + Wasson Canyon",,33.716105,-117.301036,,,,,,0
1301,2449,"Hwy 74 + Hammack",,33.714843,-117.304484,,,,,,0
1302,2450,"Hwy 74 + El Toro Cut Off",,33.705686,-117.323898,,,,,,0
1303,2451,"Hwy 74 + Conard",,33.697122,-117.332076,,,,,,0
1304,2452,"Hwy 74 + Cambern",,33.695298,-117.334127,,,,,,0
1305,2453,"Hwy 74 + Dexter",,33.693960,-117.335674,,,,,,0
1306,4287,"Collier + Central @ Home Depot",,33.692485,-117.342673,,,,,,0
1307,3755,"Collier + Riverside Dr",,33.694269,-117.345087,,,,,,0
1308,2454,"Trautwein + Orange Terrace",,33.894282,-117.325027,,,,,,0
1310,2456,"Van Buren + Bountiful",,33.887802,-117.328239,,,,,,0
1311,3632,"Trautwein + Van Buren",,33.890062,-117.324723,,,,,,0
1312,3667,"Ellis + Cox",,33.772084,-117.260869,,,,,,0
1313,2457,"Pujol + Main @ Temecula Villa Apt",,33.491057,-117.150204,,,,,,0
1314,2458,"Main + Pujol",,33.491749,-117.150626,,,,,,0
1315,2459,"Jefferson + Del Rio",,33.504014,-117.154053,,,,,,0
1316,2460,"Jefferson + 27999",,33.507416,-117.155047,,,,,,0
1317,2461,"Jefferson + Via Montezuma",,33.511589,-117.158265,,,,,,0
1318,2462,"Murrieta Hot Springs @ Eagle Glen Apt",,33.553695,-117.143559,,,,,,0
1319,2463,"Murrieta Hot Springs + Calle Del Lago",,33.555292,-117.148069,,,,,,0
132,1463,"Lincoln + Horace",,33.940858,-117.378630,,,,,,0
1320,2464,"Murr Hot Springs + Via Princesa",,33.556395,-117.153193,,,,,,0
1321,2465,"Murrieta Hot Springs Rd + Margarita",,33.556710,-117.157371,,,,,,0
1322,2466,"Whitewood + Alta Murrieta",,33.566224,-117.167735,,,,,,0
1323,2467,"Whitewood + Via Temprano N",,33.569182,-117.167115,,,,,,0
1324,2468,"Whitewood + Blackthorne",,33.572008,-117.169206,,,,,,0
1325,2469,"Whitewood + Willowbend",,33.574152,-117.173204,,,,,,0
1326,2470,"Los Alamos + Murrieta Gateway",,33.574744,-117.177589,,,,,,0
1327,2471,"Hancock + Los Alamos",,33.570144,-117.183567,,,,,,0
1328,2472,"Hancock + Parkcrest",,33.565396,-117.182582,,,,,,0
1329,2473,"Hancock + Rancho Spring Medical Ctr",,33.557431,-117.184900,,,,,,0
133,1464,"Lincoln + Maude",,33.939888,-117.380305,,,,,,0
1330,2474,"Madison 25080 @ Best Buy",,33.555610,-117.198374,,,,,,0
1331,2475,"Madison + Los Alamos",,33.558682,-117.201706,,,,,,0
1332,2476,"Juniper + Madison",,33.560320,-117.205670,,,,,,0
1333,2477,"Juniper + Murrieta Senior Center",,33.557181,-117.209844,,,,,,0
1334,2478,"Juniper 41717 @ Murrieta Senior Center",,33.557365,-117.210728,,,,,,0
1335,2479,"California Oaks + Jackson",,33.571977,-117.203670,,,,,,0
1336,2480,"California Oaks + Lincoln",,33.574554,-117.201548,,,,,,0
1337,2481,"Skyview Ridge 24424 + Amanda Park Apt",,33.577746,-117.197673,,,,,,0
1338,2482,"California Oaks + Hancock",,33.582100,-117.198253,,,,,,0
1339,2483,"Nutmeg + Falconer",,33.592164,-117.207177,,,,,,0
134,1465,"Lincoln + Jane",,33.937335,-117.384757,,,,,,0
1340,2484,"Nutmeg + Saratoga Springs",,33.585926,-117.217292,,,,,,0
1341,2485,"Winchester + Promenade Mall West",,33.526751,-117.157728,,,,,,0
1342,2486,"Whitewood + Murrieta Hot Springs",,33.554937,-117.167920,,,,,,0
1343,2487,"Whitewood + Country Walk",,33.559823,-117.164453,,,,,,0
1344,2488,"Whitewood + Dove Hallow",,33.561694,-117.164242,,,,,,0
1345,2489,"Whitewood + Via Temprano",,33.563087,-117.165504,,,,,,0
1346,2490,"Alta Murrieta + Brownestone",,33.564895,-117.169753,,,,,,0
1347,2491,"Alta Murrieta + Ridgeplume",,33.563058,-117.173656,,,,,,0
1348,2492,"Alta Murrieta + Rockcrest",,33.562003,-117.176313,,,,,,0
1349,2493,"Alta Murrieta + Murrieta Town Center",,33.559720,-117.178344,,,,,,0
135,1466,"Lincoln + Ronald",,33.936443,-117.386281,,,,,,0
1350,2494,"Jefferson + Town Square",,33.559810,-117.208770,,,,,,0
1351,2495,"Hayes + Nighthawk",,33.561349,-117.234280,,,,,,0
1352,2496,"Nighthawk @ Murrieta Valley HS",,33.564479,-117.232227,,,,,,0
1353,2497,"Hayes @ Adult Education School",,33.559799,-117.232592,,,,,,0
1354,2498,"Kalmia + Jefferson",,33.561070,-117.211230,,,,,,0
1355,2499,"Jefferson + Kalmia",,33.560900,-117.210410,,,,,,0
1356,2500,"California Oaks + Calif Oaks Plaza",,33.567710,-117.205730,,,,,,0
1357,2501,"Sixth + Front",,33.496170,-117.150525,,,,,,0
1358,2502,"Front 28360 @ US Post Office",,33.497016,-117.152813,,,,,,0
1359,2503,"Ynez + Winchester",,33.523750,-117.158907,,,,,,0
136,1467,"Lincoln + Mary",,33.935519,-117.387995,,,,,,0
1360,2504,"County Center Dr 41000 @ Library",,33.527694,-117.161452,,,,,,0
1361,2505,"Ynez + Equity",,33.532154,-117.162487,,,,,,0
1362,2506,"Ynez + County Center Drive",,33.528442,-117.163049,,,,,,0
1363,2507,"Winchester + Ynez",,33.525293,-117.159045,,,,,,0
1364,2508,"Winchester + Promenade Mall West",,33.527131,-117.156653,,,,,,0
1365,2509,"Winchester + Promenade Mall East",,33.529196,-117.153854,,,,,,0
1366,2510,"Winchester + Margarita",,33.531130,-117.150890,,,,,,0
1367,2511,"Winchester + Nicolas",,33.539889,-117.144264,,,,,,0
1368,2512,"Winchester + Willows",,33.548156,-117.141872,,,,,,0
1369,2513,"Murrieta Hot Springs + Winchester",,33.552943,-117.141338,,,,,,0
137,1468,"Lincoln + Washington",,33.933108,-117.392162,,,,,,0
1370,2514,"Murr Hot Springs @ 41200 Walmart",,33.552179,-117.194204,,,,,,0
1372,2516,"Prielipp + Elizabeth",,33.590424,-117.227756,,,,,,0
1373,2517,"Nutmeg + Jackson",,33.585162,-117.218004,,,,,,0
1374,2518,"Nutmeg + Via De Gema Linda",,33.586827,-117.215832,,,,,,0
1375,2519,"Nutmeg + Falconer",,33.592011,-117.207113,,,,,,0
1376,2520,"California Oaks + Falconer",,33.590287,-117.198910,,,,,,0
1377,2521,"California Oaks + Hancock",,33.581604,-117.198664,,,,,,0
1378,2522,"Prielipp + Inland Valley",,33.590510,-117.235890,,,,,,0
1379,2523,"Skyview Ridge 24425 + Amanda Park Apt",,33.577733,-117.197821,,,,,,0
138,1469,"Lincoln + Dorlen",,33.931280,-117.395395,,,,,,0
1380,2524,"Prielipp + Inland Valley",,33.590380,-117.235950,,,,,,0
1381,2525,"California Oaks + Lincoln",,33.574867,-117.201639,,,,,,0
1382,2526,"California Oaks + Jackson",,33.571623,-117.204262,,,,,,0
1383,2527,"California Oaks + Calf Oaks Plaza",,33.567405,-117.206239,,,,,,0
1384,2528,"Juniper + Madison",,33.560328,-117.205356,,,,,,0
1385,2529,"Madison + Los Alamos",,33.558664,-117.202004,,,,,,0
1386,2530,"Madison + 25100 Home Depot",,33.556170,-117.199320,,,,,,0
1387,2531,"Hancock + Rancho Spring Medical Ctr",,33.558256,-117.184922,,,,,,0
1388,2532,"Hancock + Los Alamos @ Sierra Vista Shopping Ctr",,33.569943,-117.182984,,,,,,0
1389,2533,"Los Alamos + Murrieta Gateway",,33.574207,-117.178602,,,,,,0
139,1470,"Lincoln + Sonora",,33.930302,-117.397116,,,,,,0
1390,2534,"California Oaks + Morning Dove",,33.587097,-117.199423,,,,,,0
1391,2535,"California Oaks + Manresa",,33.590688,-117.198467,,,,,,0
1392,2536,"California Oaks + Raphael",,33.593361,-117.197353,,,,,,0
1393,2537,"Whitewood + Willowbend Dr",,33.573541,-117.172389,,,,,,0
1394,2538,"Clinton Keith + Vista Murrieta HS Entrance",,33.597751,-117.165683,,,,,,0
1395,2539,"Whitewood + Hunter",,33.588256,-117.172437,,,,,,0
1396,2540,"Whitewood + Blackthorne",,33.571165,-117.168581,,,,,,0
1397,2541,"Whitewood + Busman",,33.582329,-117.178432,,,,,,0
1398,2542,"Whitewood + Busman",,33.582707,-117.177857,,,,,,0
1399,2543,"Whitewood + Hunter",,33.588427,-117.171688,,,,,,0
14,1401,"Hole + Tyler",,33.915200,-117.464705,,,,,,0
140,1471,"Lincoln + Madison",,33.929274,-117.398989,,,,,,0
1400,2544,"Clinton Keith + Vista Murrieta HS Entrance",,33.598015,-117.166852,,,,,,0
1401,2545,"Whitewood + Via Temprano N",,33.569087,-117.167289,,,,,,0
1402,2546,"California Oaks + St Raphael",,33.592790,-117.197748,,,,,,0
1403,2547,"California Oaks + Morning Dove",,33.586492,-117.199574,,,,,,0
1404,3597,"Hancock + Los Alamos",,33.569919,-117.182975,,,,,,0
1405,2548,"Murrieta Hot Springs + Margarita",,33.556837,-117.159724,,,,,,0
1406,2549,"Murrieta Hot Springs + Calle Del Lago",,33.554924,-117.147351,,,,,,0
1407,2550,"Murrieta Hot Springs + Eagle Glen Apt",,33.553180,-117.142950,,,,,,0
1408,2551,"Winchester + Winchester Creek",,33.546941,-117.142832,,,,,,0
1409,2552,"Jefferson + Overland",,33.515276,-117.159994,,,,,,0
141,1473,"Lincoln + Grace",,33.926829,-117.403301,,,,,,0
1410,2553,"Jefferson + Via Montezuma",,33.511063,-117.158023,,,,,,0
1411,2554,"Jefferson + Calle Cortez",,33.507423,-117.155283,,,,,,0
1412,2555,"Jefferson + Del Rio",,33.503039,-117.154575,,,,,,0
1413,2556,"Pujol + First",,33.490042,-117.149090,,,,,,0
1414,2557,"Main + Pujol",,33.491826,-117.150715,,,,,,0
1415,2558,"Winchester + Nicolas",,33.539783,-117.144776,,,,,,0
1416,2559,"Winchester + Margarita",,33.530860,-117.151737,,,,,,0
1417,2560,"Winchester + Margarita Meadows",,33.529410,-117.154118,,,,,,0
1418,2561,"Ynez + Winchester",,33.523470,-117.159189,,,,,,0
1419,2562,"Ynez 26443 + Palm Plaza",,33.522734,-117.158357,,,,,,0
142,1474,"Lincoln + Jefferson",,33.924713,-117.407027,,,,,,0
1420,2563,"Front + Rancho California",,33.498778,-117.153849,,,,,,0
1421,2564,"Moreno + Front",,33.496578,-117.152128,,,,,,0
1422,2565,"Sixth + Front",,33.495995,-117.150865,,,,,,0
1423,2566,"Deer Hollow + Peach Tree",,33.455015,-117.090890,,,,,,0
1424,2567,"Peppercorn + Deer Hollow",,33.458523,-117.087007,,,,,,0
1425,2568,"Redhawk + Peppercorn",,33.463925,-117.090183,,,,,,0
1426,2569,"Redhawk + Wolf Valley",,33.468234,-117.095762,,,,,,0
1427,2570,"Vail Ranch + Cinon",,33.476773,-117.087335,,,,,,0
1428,2571,"Redhawk Pkwy + Via Rio Temecula",,33.478809,-117.100809,,,,,,0
1429,2572,"Redhawk + Wolf valley",,33.466204,-117.095128,,,,,,0
143,1475,"Lincoln + Adams",,33.920458,-117.414552,,,,,,0
1430,2573,"Peppercorn + Redhawk",,33.463511,-117.089621,,,,,,0
1431,2574,"Deer Hollow + Peppercorn",,33.458023,-117.087554,,,,,,0
1432,2575,"Overland + Bananal",,33.477408,-117.092528,,,,,,0
1433,2576,"Deer Hollow + Via la Colorada",,33.454885,-117.091254,,,,,,0
1434,2577,"Pechanga + Wolf Valley",,33.460136,-117.108246,,,,,,0
1435,2578,"Pechanga + Via Eduardo",,33.459352,-117.107578,,,,,,0
1436,2579,"Overland + Vail Ranch",,33.478182,-117.089684,,,,,,0
1437,2580,"Vail Ranch + Niclyn",,33.475228,-117.088774,,,,,,0
1438,2581,"Vail Ranch + Via Saltio",,33.469742,-117.095526,,,,,,0
1439,2582,"Pechanga Pkwy + Muirfield",,33.468426,-117.119228,,,,,,0
144,1476,"Lincoln + Gratton",,33.918414,-117.418146,,,,,,0
1440,2583,"Pechanga Pkwy + Clubhouse Drive",,33.472678,-117.125202,,,,,,0
1441,4335,"Pechanga Pkwy + Rainbow Canyon",,33.473710,-117.127257,,,,,,0
1442,2584,"Hwy 79 + La Paz",,33.478518,-117.135930,,,,,,0
1443,2585,"Front 28964 @ Quaid Harley Davidson",,33.485241,-117.143973,,,,,,0
1444,2586,"Front 28860 @ Campini's Deli",,33.486947,-117.144559,,,,,,0
1445,3583,"First + Front",,33.490848,-117.146424,,,,,,0
1446,2587,"Rancho California + Ynez",,33.503331,-117.147588,,,,,,0
1447,2588,"Rancho California + Moraga",,33.507513,-117.139651,,,,,,0
1448,2589,"Rancho California + Humber",,33.508575,-117.132212,,,,,,0
1449,2590,"Margarita + Rancho California",,33.507318,-117.124752,,,,,,0
145,1477,"Lincoln + Monroe",,33.916280,-117.421897,,,,,,0
1450,2591,"Margarita + Rancho Vista @ TV HS",,33.501468,-117.120076,,,,,,0
1451,2592,"Pauba + Margarita",,33.497692,-117.116558,,,,,,0
1452,2593,"Pauba + Calle Ventura @ Library",,33.496728,-117.122629,,,,,,0
1453,2594,"Ynez + Pauba Rd",,33.495766,-117.139104,,,,,,0
1454,2595,"Rancho Vista + Mira Loma",,33.501434,-117.133552,,,,,,0
1455,2596,"Rancho Vista + Comm Sport Park",,33.499896,-117.125118,,,,,,0
1456,2597,"Margarita + Rancho California",,33.508675,-117.124418,,,,,,0
1457,2598,"Margarita + La Serena",,33.514033,-117.124042,,,,,,0
1458,2599,"Margarita + Avenida Barca",,33.515656,-117.130847,,,,,,0
1459,2600,"Margarita + Tuscany Ridge",,33.512324,-117.138146,,,,,,0
146,1478,"Lincoln + Irving",,33.914169,-117.425578,,,,,,0
1460,2601,"Margarita + Stonewood",,33.512520,-117.146101,,,,,,0
1461,2602,"Solana + Margarita",,33.516185,-117.150329,,,,,,0
1462,2603,"Pechanga Pkwy 45000 Resort + Casino",,33.457209,-117.105846,,,,,,0
1463,2604,"Ynez + Solana",,33.514993,-117.155196,,,,,,0
1464,2605,"Ynez + Motor Car Pkwy",,33.517422,-117.155710,,,,,,0
1465,2606,"Solana + Ynez",,33.514554,-117.154636,,,,,,0
1466,2607,"Margarita + Solana",,33.515988,-117.149912,,,,,,0
1467,2608,"Margarita + Stonewood",,33.512102,-117.145726,,,,,,0
1468,2609,"Margarita + Moraga",,33.511379,-117.140563,,,,,,0
1469,2610,"Margarita 41955 @ Tuscany Ridge Apts",,33.512017,-117.138178,,,,,,0
147,1479,"Lincoln + Jackson",,33.912384,-117.428740,,,,,,0
1470,2611,"Margarita + Avenida Barca",,33.515595,-117.130225,,,,,,0
1471,2612,"Margarita + La Serena",,33.513432,-117.124023,,,,,,0
1472,2613,"Rancho California + Margarita",,33.508299,-117.125622,,,,,,0
1473,2614,"Rancho California + Humber",,33.508688,-117.133153,,,,,,0
1474,2615,"Rancho California + Lyndie",,33.507202,-117.141578,,,,,,0
1475,2616,"Rancho California 29676 + Target Drive Way",,33.505465,-117.144910,,,,,,0
1476,2617,"Rancho California + Town Center",,33.504440,-117.146389,,,,,,0
1477,2619,"Front + First",,33.490598,-117.145993,,,,,,0
1478,2620,"Front 28897 + Campini's Deli",,33.486894,-117.144711,,,,,,0
1479,2621,"Front 28991 + Harley Davidson",,33.485238,-117.144146,,,,,,0
148,1480,"Lincoln + Gibson",,33.909948,-117.433025,,,,,,0
1480,2622,"Hwy 79 + Bedford",,33.479026,-117.137565,,,,,,0
1481,2623,"Hwy 79 + Wabash",,33.476529,-117.132762,,,,,,0
1482,4004,"Hwy 79 + La Paz",,33.477979,-117.135508,,,,,,0
1483,2624,"Pechanga Parkway + Rainbow Canyon",,33.473188,-117.126761,,,,,,0
1484,2625,"Pechanga Parkway + Muirfield",,33.468495,-117.119812,,,,,,0
1485,2626,"Redhawk + Camino Carmargo",,33.469701,-117.095304,,,,,,0
1486,2627,"Vail Ranch + Redhawk Parkway",,33.473127,-117.092372,,,,,,0
1487,2628,"Overland + Vail Ranch",,33.477880,-117.087359,,,,,,0
1488,2629,"Overland + Vailside",,33.477959,-117.090784,,,,,,0
1489,2630,"Overland + Vail Creek",,33.477351,-117.093670,,,,,,0
149,1481,"Lincoln + Van Buren",,33.908842,-117.434970,,,,,,0
1490,2631,"Redhawk Parkway + Overland",,33.476261,-117.095904,,,,,,0
1491,2632,"Redhawk Parkway + Wolf Store Rd",,33.478441,-117.099776,,,,,,0
1492,2633,"Ynez + Motor Car Pkwy",,33.516788,-117.155958,,,,,,0
1493,2634,"Temecula Pkwy + County Glen Way",,33.479280,-117.105790,,,,,,0
1494,2635,"Iowa + Marlborough",,33.997915,-117.339699,,,,,,0
1495,2636,"Iowa + University",,33.976173,-117.339752,,,,,,0
1496,2637,"Iowa + Linden @ University Village Tower",,33.977927,-117.339753,,,,,,0
1497,2638,"Iowa + Blaine",,33.983310,-117.339720,,,,,,0
1498,2639,"Iowa + Massachusetts",,33.986970,-117.339723,,,,,,0
1499,2640,"Iowa + Spruce",,33.989880,-117.339670,,,,,,0
15,1002,"West University + Lemon",,33.980774,-117.371891,,,,,,0
150,1482,"Hole + Tyler",,33.915415,-117.464779,,,,,,0
1500,2641,"Iowa at Goodwill Center",,33.993271,-117.339701,,,,,,0
1501,2642,"Iowa + Columbia",,34.001582,-117.339695,,,,,,0
1502,2643,"Iowa + Palmyrita",,34.004207,-117.339717,,,,,,0
1503,2644,"Iowa + Villa",,34.013036,-117.339754,,,,,,0
1504,2645,"Center + Iowa",,34.015671,-117.339370,,,,,,0
1505,2646,"Center + Pacific",,34.015641,-117.337096,,,,,,0
1506,2647,"Center + Transit",,34.015645,-117.333080,,,,,,0
1507,2648,"Center + RR Track",,34.015617,-117.330306,,,,,,0
1508,2649,"Center + Garfield",,34.015606,-117.326902,,,,,,0
1509,2650,"Center + Michigan",,34.015589,-117.323915,,,,,,0
151,1483,"Hole + Bonita",,33.915945,-117.468071,,,,,,0
1510,4167,"Barton + Anderson",,34.048226,-117.260561,,,,,,0
1511,4168,"Benton + Prospect @ VA Hospital",,34.049742,-117.252342,,,,,,0
1513,2651,"Center + Michigan",,34.015753,-117.322715,,,,,,0
1514,2652,"Center + Walker",,34.015769,-117.325220,,,,,,0
1515,2653,"Center @ Sunkist Co-op",,34.015796,-117.330324,,,,,,0
1516,2654,"Center + Transit",,34.015815,-117.333120,,,,,,0
1517,2655,"Center + Highland",,34.015812,-117.335911,,,,,,0
1518,2656,"Iowa + Center",,34.014883,-117.340015,,,,,,0
1519,2657,"Iowa + Villa",,34.013649,-117.340014,,,,,,0
152,1484,"Hole + California",,33.916768,-117.473093,,,,,,0
1520,2658,"Iowa + Palmyrita",,34.004340,-117.339977,,,,,,0
1521,2659,"Iowa + Columbia",,34.000980,-117.339960,,,,,,0
1522,2660,"Iowa + Spruce",,33.989532,-117.339984,,,,,,0
1523,2661,"Iowa + Massachusetts",,33.986963,-117.339993,,,,,,0
1524,2662,"Iowa + Blaine",,33.983835,-117.340014,,,,,,0
1525,2663,"Iowa + Linden",,33.978919,-117.340032,,,,,,0
1526,2664,"Lincoln + Palm",,33.751280,-116.884403,,,,,,0
1527,2665,"Grant + Florida",,33.748324,-116.875799,,,,,,0
1528,2666,"Florida + Grant",,33.748004,-116.878741,,,,,,0
1529,2667,"Florida + First",,33.747976,-116.888771,,,,,,0
153,1485,"Hole + Jones",,33.917676,-117.478634,,,,,,0
1530,2668,"Florida + Fairview",,33.747951,-116.893785,,,,,,0
1531,2669,"Florida + Seventh",,33.747938,-116.895952,,,,,,0
1532,2670,"Florida + Eighth",,33.747921,-116.898306,,,,,,0
1533,2671,"Florida + New Chicago",,33.747910,-116.903682,,,,,,0
1534,2672,"Florida + Lake",,33.747879,-116.914529,,,,,,0
1535,2673,"Florida + Soboba",,33.747868,-116.920794,,,,,,0
1536,2674,"Florida + Hemet",,33.747850,-116.924268,,,,,,0
1537,2675,"Florida + Meridian",,33.747847,-116.928539,,,,,,0
1538,2676,"Florida + Stanford",,33.747823,-116.932997,,,,,,0
1539,2677,"Florida + Dartmouth",,33.747824,-116.937244,,,,,,0
154,1486,"Hole + Mitchell",,33.918335,-117.482678,,,,,,0
1541,2678,"Florida + Columbia",,33.747768,-116.946558,,,,,,0
1542,2679,"Florida + Yale",,33.747757,-116.951369,,,,,,0
1543,2680,"Florida + Girard",,33.747741,-116.954649,,,,,,0
1544,2681,"Florida + Alessandro",,33.747642,-116.974610,,,,,,0
1545,2682,"Florida + Tahquitz",,33.747623,-116.977897,,,,,,0
1546,2683,"Florida + Elk",,33.747592,-116.984923,,,,,,0
1547,2684,"Lyon + Florida",,33.748027,-116.989016,,,,,,0
1548,2685,"Florida + Warren",,33.744004,-117.033463,,,,,,0
1549,2686,"Hwy 74 + California",,33.743970,-117.047891,,,,,,0
155,1487,"Hole + Wells",,33.918943,-117.486456,,,,,,0
1550,2687,"Hwy 74 + Truelson",,33.739304,-117.073065,,,,,,0
1551,2688,"Hwy 74 + Winchester",,33.739190,-117.077383,,,,,,0
1552,2689,"Hwy 74 + Cortrite",,33.738962,-117.087637,,,,,,0
1553,2690,"Hwy 74 + Ritter",,33.743491,-117.110056,,,,,,0
1554,2691,"Hwy 74 + Juniper Flats",,33.743396,-117.115415,,,,,,0
1555,2692,"Hwy 74 + Sultanas",,33.743379,-117.126584,,,,,,0
1556,2693,"Hwy 74 + Briggs",,33.743302,-117.137185,,,,,,0
1557,2694,"Hwy 74 + Menifee",,33.743249,-117.153482,,,,,,0
1558,2695,"Hwy 74 + Palomar",,33.743093,-117.164130,,,,,,0
1559,2696,"Hwy 74 + Fourth",,33.744822,-117.173459,,,,,,0
156,1488,"Pierce + Hollyhock",,33.917726,-117.492058,,,,,,0
1560,2697,"Hwy 74 + Second",,33.746799,-117.176721,,,,,,0
1561,2698,"Hwy 74 + Trumble",,33.750420,-117.182890,,,,,,0
1562,2700,"Hwy 74 + Leon Rd",,33.743156,-117.118667,,,,,,0
1563,2701,"Nuevo + Perris",,33.801262,-117.227269,,,,,,0
1564,4374,"Van Buren + Meridian Pkwy",,33.887851,-117.281075,,,,,,0
1565,2702,"Van Buren + Village West",,33.885752,-117.287276,,,,,,0
1566,2703,"Orange Terrace + Golden Rain",,33.889056,-117.301310,,,,,,0
1567,2704,"Orange Terrace + Yarrow",,33.894818,-117.300398,,,,,,0
1568,2705,"Orange Terrace + Sandhill",,33.895707,-117.304630,,,,,,0
1569,2706,"Orange Terrace + Hollyleaf",,33.895054,-117.308288,,,,,,0
157,1489,"Pierce + Golden",,33.916630,-117.494424,,,,,,0
1570,2707,"Orange Terrace + Barton",,33.895073,-117.313714,,,,,,0
1571,2708,"Orange Terrace + Northstar",,33.895015,-117.317927,,,,,,0
1572,2709,"Orange Terrace + Silk Oak",,33.894969,-117.321127,,,,,,0
1573,2710,"Van Buren + Wood Rd",,33.887323,-117.332415,,,,,,0
1574,2711,"Van Buren + Dauchy",,33.887329,-117.339088,,,,,,0
1575,2712,"Van Buren + Ridgeway",,33.887160,-117.345260,,,,,,0
1576,2713,"Van Buren + Gamble",,33.883207,-117.353857,,,,,,0
1577,2714,"Van Buren + Porter",,33.882479,-117.357985,,,,,,0
1578,2715,"Van Buren + Gardner",,33.882471,-117.362733,,,,,,0
1579,2716,"Van Buren + Washington",,33.882453,-117.366878,,,,,,0
158,1490,"Pierce + Sierra Vista",,33.915406,-117.496995,,,,,,0
1580,2717,"Van Buren + King",,33.882446,-117.370942,,,,,,0
1581,2718,"Van Buren + Suttles",,33.882431,-117.375171,,,,,,0
1582,2719,"Van Buren + 15950 CowtownDanceCtr",,33.882401,-117.386821,,,,,,0
1583,2720,"Van Buren + Constable",,33.881058,-117.398018,,,,,,0
1584,2721,"Van Buren + Canyon Ridge",,33.888149,-117.412717,,,,,,0
1585,2722,"Van Buren + Dufferin",,33.898694,-117.428597,,,,,,0
1586,3584,"Hwy 74 + Leon Rd",,33.743347,-117.118765,,,,,,0
1587,2723,"Van Buren + Victoria",,33.905202,-117.434016,,,,,,0
1588,2724,"Fourth + G Street",,33.782328,-117.221085,,,,,,0
1589,2725,"Lincoln + Florida",,33.748156,-116.884397,,,,,,0
159,1491,"Sierra Vista + Pierce",,33.912846,-117.496225,,,,,,0
1590,2726,"Florida + San Jacinto",,33.747709,-116.959082,,,,,,0
1591,2727,"Florida + Santa Fe",,33.747695,-116.963524,,,,,,0
1592,2728,"Florida + Thompson",,33.747682,-116.965684,,,,,,0
1593,2729,"Florida + Buena Vista",,33.747660,-116.967732,,,,,,0
1594,2730,"Florida + Raymond",,33.747352,-116.991854,,,,,,0
1595,2731,"Florida + Gilmore",,33.747543,-116.993998,,,,,,0
1596,2732,"Gilmore + Devonshire Hemet Mall",,33.750056,-116.993550,,,,,,0
1597,2733,"Florida + Sanderson",,33.747495,-117.005260,,,,,,0
1598,2734,"Florida + Golden Village",,33.747130,-117.010340,,,,,,0
1599,2735,"Florida + Cawston",,33.744900,-117.016440,,,,,,0
16,1402,"Van Buren + Primrose",,33.916901,-117.443914,,,,,,0
160,1492,"Riverwalk + Pierce",,33.900322,-117.494943,,,,,,0
1600,2736,"Florida + Pomenade",,33.744017,-117.023600,,,,,,0
1602,2738,"Cherry Hills + Bradley",,33.710914,-117.189939,,,,,,0
1603,2739,"Sun City Blvd + Cherry Hills",,33.711185,-117.193337,,,,,,0
1604,2740,"Sun City Blvd27220 MB @ Vons Super Market",,33.713354,-117.193855,,,,,,0
1605,2741,"Sun City Blvd + McCall",,33.714751,-117.193883,,,,,,0
1606,2742,"Fourth + G Street",,33.782468,-117.221077,,,,,,0
1607,2743,"Van Buren + Lincoln",,33.907412,-117.436138,,,,,,0
1608,2744,"Van Buren + Cleveland",,33.901704,-117.431372,,,,,,0
1609,2745,"Van Buren + Canyon Ridge",,33.888895,-117.414254,,,,,,0
161,1493,"Van Buren + Andrew",,33.916701,-117.443433,,,,,,0
1610,2746,"Van Buren + 15181 RnchoCblleroMHP",,33.880910,-117.397339,,,,,,0
1611,2747,"Van Buren + Canyon View Drive",,33.882117,-117.388455,,,,,,0
1612,2748,"Van Buren + King",,33.882257,-117.370265,,,,,,0
1613,2749,"Van Buren + Washington",,33.882259,-117.365531,,,,,,0
1614,2750,"Van Buren + Gardner",,33.882271,-117.361277,,,,,,0
1615,2751,"Van Buren + Porter",,33.882325,-117.356892,,,,,,0
1616,2752,"Van Buren + Gamble",,33.883456,-117.352579,,,,,,0
1617,2753,"Van Buren + Little",,33.887041,-117.342567,,,,,,0
1618,2754,"Van Buren + Dauchy",,33.887020,-117.338857,,,,,,0
1619,2755,"Orange Terrace + Silk Oak",,33.894739,-117.321127,,,,,,0
162,1494,"Orange + Hiawatha",,33.990598,-117.367051,,,,,,0
1620,2756,"Orange Terrace + Northstar",,33.894786,-117.317719,,,,,,0
1621,2757,"Orange Terrace + Barton",,33.894833,-117.313526,,,,,,0
1622,2758,"Orange Terrace + Hollyleaf",,33.894878,-117.307912,,,,,,0
1623,2759,"Orange Terrace + Sandhill",,33.895579,-117.303958,,,,,,0
1624,2760,"Orange Terrace + Yarrow",,33.894308,-117.300229,,,,,,0
1625,2761,"Orange Terrace + Golden Rain",,33.889192,-117.301527,,,,,,0
1626,2762,"Van Buren + Village West",,33.885492,-117.287263,,,,,,0
1627,2763,"Van Buren + Harmon",,33.887618,-117.281162,,,,,,0
1628,2764,"Ethanac + Trumble",,33.742866,-117.184095,,,,,,0
1629,2765,"Sherman + Ethanac",,33.743571,-117.180429,,,,,,0
163,1495,"Orange at Salvation Army Apts.",,33.989319,-117.367922,,,,,,0
1630,2766,"Sherman + Harrison",,33.746111,-117.180421,,,,,,0
1631,2767,"Jackson + Sherman",,33.747783,-117.180189,,,,,,0
1632,2768,"Jackson + Second",,33.746259,-117.177639,,,,,,0
1633,2769,"Jackson + Ethanac",,33.743277,-117.172716,,,,,,0
1634,2770,"Palomar + Mathews",,33.738816,-117.162854,,,,,,0
1635,2771,"Palomar + Hwy 74",,33.741678,-117.162886,,,,,,0
1636,2772,"Hwy 74 + Menifee",,33.743049,-117.153461,,,,,,0
1637,2773,"Hwy 74 + Briggs",,33.743087,-117.136012,,,,,,0
1638,2774,"Hwy 74 + Sultanas",,33.743145,-117.128903,,,,,,0
1639,2775,"Hwy 74 + Juniper Flats",,33.743179,-117.115584,,,,,,0
164,1496,"Orange + First",,33.988444,-117.368573,,,,,,0
1640,2776,"Hwy 74 + Ritter",,33.743302,-117.108877,,,,,,0
1641,2777,"Hwy 74 + Cortrite",,33.738753,-117.086853,,,,,,0
1642,2778,"Hwy 74 + Winchester",,33.739029,-117.076051,,,,,,0
1643,2779,"Hwy 74 + Truelson",,33.739104,-117.073082,,,,,,0
1644,2780,"Hwy 74 + Cordoba",,33.743749,-117.046842,,,,,,0
1645,2781,"Florida + Warren",,33.743781,-117.031797,,,,,,0
1646,2782,"Florida + Lyon",,33.747372,-116.988761,,,,,,0
1647,2783,"Florida + Palm",,33.747394,-116.979937,,,,,,0
1648,2784,"Florida + Ramona",,33.747416,-116.975697,,,,,,0
1649,2785,"Florida + San Jacinto",,33.747496,-116.958313,,,,,,0
1650,2786,"Florida + Girard",,33.747514,-116.953915,,,,,,0
1651,2787,"Florida + Yale",,33.747528,-116.949391,,,,,,0
1652,2788,"Florida + Columbia",,33.747580,-116.945270,,,,,,0
1653,2789,"Florida + Cornell",,33.747588,-116.940772,,,,,,0
1654,2790,"Florida + Dartmouth",,33.747599,-116.937139,,,,,,0
1655,2791,"Florida + Stanford",,33.747633,-116.932194,,,,,,0
1656,2792,"Florida + Meridian",,33.747632,-116.927804,,,,,,0
1657,2793,"Florida + Hemet",,33.747657,-116.923346,,,,,,0
1658,2794,"Florida + Soboba",,33.747648,-116.919044,,,,,,0
1659,2795,"Florida 42751 + Arroyo Fairways Golf",,33.747664,-116.912333,,,,,,0
166,1498,"14th + Orange Grove",,33.975334,-117.376793,,,,,,0
1660,2796,"Florida + New Chicago",,33.747679,-116.904954,,,,,,0
1661,2797,"Florida + Seventh",,33.747739,-116.898056,,,,,,0
1662,2798,"Florida + Sixth",,33.747721,-116.895161,,,,,,0
1663,2799,"Florida + Fairview",,33.747736,-116.892503,,,,,,0
1664,2800,"Florida + First",,33.747773,-116.889181,,,,,,0
1665,2801,"Florida + Myers",,33.743802,-117.023598,,,,,,0
1666,2802,"Florida + Acacia",,33.744377,-117.017261,,,,,,0
1667,2803,"Florida + Golden Village",,33.746982,-117.010051,,,,,,0
1668,2804,"Florida + Sanderson",,33.747259,-117.004351,,,,,,0
1669,2805,"Florida + State",,33.747461,-116.971428,,,,,,0
167,1499,"14th + Howard",,33.971785,-117.369147,,,,,,0
1670,4150,"Florida + Juanita",,33.747474,-116.968071,,,,,,0
1671,2806,"Florida + Thompson",,33.747491,-116.965384,,,,,,0
1672,2807,"Florida + Santa Fe",,33.747484,-116.962262,,,,,,0
1673,2808,"Limonite + Plaza Lane",,33.991979,-117.423822,,,,,,0
1674,2809,"Riverview + 42nd Street",,33.997042,-117.418018,,,,,,0
1675,2810,"Riverview + Limonite",,33.994368,-117.421168,,,,,,0
1676,2811,"Riverview + Comm Center Driveway",,33.994480,-117.421318,,,,,,0
1677,2812,"Limonite + Clay",,33.977215,-117.462088,,,,,,0
1678,2813,"Limonite + El Palomino",,33.977882,-117.459782,,,,,,0
1679,2814,"Limonite + Camino Real",,33.978365,-117.452513,,,,,,0
168,1500,"Central + Rumsey",,33.953767,-117.373451,,,,,,0
1680,2815,"Limonite + Peralta Place",,33.982040,-117.438303,,,,,,0
1681,2816,"Limonite + Ave Juan Bautista",,33.984622,-117.432861,,,,,,0
1682,2817,"Pacific + Limonite",,33.992232,-117.425047,,,,,,0
1683,2818,"Pacific + 42nd",,33.998646,-117.422841,,,,,,0
1684,2819,"Tilton + Limonite",,33.996313,-117.416012,,,,,,0
1685,2820,"Tilton + Briggs",,33.995220,-117.413040,,,,,,0
1686,2821,"Rubidoux + Tilton",,33.993830,-117.409725,,,,,,0
1688,2822,"Rubidoux + Mission",,33.997900,-117.406498,,,,,,0
1689,2823,"Rubidoux + 34th",,34.001067,-117.403555,,,,,,0
169,1501,"Central + 3300 Memorial Park",,33.953809,-117.378351,,,,,,0
1690,2824,"Rubidoux + Frontage",,34.003842,-117.400970,,,,,,0
1691,2825,"Rubidoux + 30th",,34.005875,-117.399117,,,,,,0
1692,2826,"Rubidoux + 28th",,34.008267,-117.396971,,,,,,0
1693,2827,"Rubidoux + 26th",,34.012675,-117.392958,,,,,,0
1694,2828,"24th + Market",,34.012211,-117.384142,,,,,,0
1695,2829,"Market + Rivera",,34.002670,-117.376563,,,,,,0
1696,2830,"Market + Fairmount Park Ent",,33.995045,-117.370758,,,,,,0
1697,2831,"Rubidoux + 24th Street",,34.015678,-117.390296,,,,,,0
1698,2832,"Rubidoux + 24th",,34.015515,-117.390700,,,,,,0
1699,2833,"Limonite + Pats Ranch",,33.975136,-117.543046,,,,,,0
170,1502,"Brockton + Nelson",,33.951064,-117.396816,,,,,,0
1700,2834,"Hamner + 68th St",,33.965378,-117.558187,,,,,,0
1701,2835,"Hamner + 65th",,33.968619,-117.558188,,,,,,0
1702,2836,"Hamner + Oakdale",,33.972055,-117.558224,,,,,,0
1704,2837,"Market + Fairmount Park",,33.995684,-117.370465,,,,,,0
1705,2838,"Market + Rivera",,34.002531,-117.376213,,,,,,0
1706,2839,"Rubidoux + 26th",,34.012664,-117.393263,,,,,,0
1707,2840,"Rubidoux + 28th",,34.008525,-117.396972,,,,,,0
1708,2841,"Rubidoux + 29th",,34.006533,-117.398787,,,,,,0
1709,2842,"Rubidoux + Frontage",,34.003747,-117.401297,,,,,,0
171,1503,"Brockton + Tibbetts",,33.947501,-117.396824,,,,,,0
1710,2843,"Rubidoux + 34th",,34.001068,-117.403866,,,,,,0
1711,2844,"Rubidoux + Mission",,33.998485,-117.406306,,,,,,0
1713,2846,"Tilton + Rubidoux",,33.993781,-117.409893,,,,,,0
1714,2847,"Tilton + Briggs @ Post Office",,33.995907,-117.414181,,,,,,0
1715,2848,"Tilton + Riverview",,33.996319,-117.415817,,,,,,0
1716,2849,"Pacific + 42nd",,33.998721,-117.422953,,,,,,0
1717,2850,"Limonite + Pacific",,33.991033,-117.425145,,,,,,0
1718,2851,"Limonite + Ave Juan Bautista",,33.984125,-117.434628,,,,,,0
1719,2852,"Limonite + Peralta Place",,33.981273,-117.440773,,,,,,0
172,1504,"Arlington + Brockton",,33.946164,-117.395973,,,,,,0
1720,2853,"Limonite + Camino Real",,33.978682,-117.452250,,,,,,0
1721,2854,"Limonite + De Anza Plaza",,33.978675,-117.454610,,,,,,0
1722,2855,"Limonite + El Palomino",,33.978389,-117.458908,,,,,,0
1723,2856,"Limonite + Eastvale Gateway Entrance",,33.975344,-117.554789,,,,,,0
1724,2857,"A Street + Fourth",,33.781801,-117.234876,,,,,,0
1725,2858,"A Street + Seventh",,33.779107,-117.234838,,,,,,0
1726,2859,"A Street + Ninth",,33.777136,-117.234825,,,,,,0
1727,2860,"Eleventh Street + A Street",,33.775621,-117.234264,,,,,,0
1728,2861,"Perris + Seventh",,33.779016,-117.226001,,,,,,0
1729,2862,"Seventh + D Street",,33.779350,-117.229000,,,,,,0
173,1505,"Arlington + De Anza",,33.946183,-117.393986,,,,,,0
1730,2863,"C Street + Sixth Street",,33.780380,-117.230180,,,,,,0
1731,2864,"Redlands + San Jacinto",,33.787067,-117.215270,,,,,,0
1732,2865,"Redlands + Dale",,33.790497,-117.217299,,,,,,0
1733,2866,"Redlands + Mildred",,33.795943,-117.217325,,,,,,0
1734,2867,"Nuevo + Redlands",,33.801196,-117.217960,,,,,,0
1736,1178,"Sumner + Schleisman",,33.960930,-117.575710,,,,,,0
1737,1179,"Sumner + 68th",,33.964260,-117.575740,,,,,,0
1738,1180,"Sumner + Schleisman",,33.960790,-117.575850,,,,,,0
174,1506,"Van Buren + Lincoln",,33.908261,-117.436493,,,,,,0
1741,1183,"Citrus + Scholar",,33.951760,-117.567340,,,,,,0
1742,2869,"Nuevo + Ruby",,33.801020,-117.221440,,,,,,0
1743,2870,"Nuevo + Ruby",,33.801186,-117.222112,,,,,,0
1744,1184,"Hamner + Hidden Valley Pkwy",,33.898428,-117.562734,,,,,,0
1745,1185,"Hamner + First",,33.901828,-117.562205,,,,,,0
1746,1186,"Hamner 1609 @ Bethany Lutheran",,33.905353,-117.561656,,,,,,0
1747,1187,"Hamner + Second",,33.909681,-117.561068,,,,,,0
1748,1188,"Hamner + Auto Mall Dr",,33.911921,-117.560629,,,,,,0
1749,1189,"Hamner + Alhambra",,33.939186,-117.558212,,,,,,0
175,1507,"Tyler + Magnolia @ BofA",,33.912833,-117.461988,,,,,,0
1750,1190,"Hamner + Alhambra",,33.939739,-117.558002,,,,,,0
1751,1191,"Clark + 2960 Senior Center",,33.920709,-117.560888,,,,,,0
1752,1192,"Clark + Norco City Hall",,33.923239,-117.560995,,,,,,0
1753,2871,"Weston + Strohm",,33.790169,-117.258507,,,,,,0
1754,2872,"Perris + Fifth",,33.781175,-117.226158,,,,,,0
1755,2873,"Perris + Eighth",,33.778090,-117.226136,,,,,,0
1756,2874,"11th + Perris",,33.775248,-117.224940,,,,,,0
1757,2875,"Goetz + Case",,33.773464,-117.223711,,,,,,0
1758,2876,"Perris + Ellis",,33.773365,-117.225954,,,,,,0
176,1508,"Van Buren + Rudicill",,33.912351,-117.440171,,,,,,0
1760,2878,"Nuevo + Redlands",,33.801023,-117.217919,,,,,,0
1761,2879,"Redlands + Mildred",,33.796051,-117.217499,,,,,,0
1762,2880,"Redlands + Dale",,33.789976,-117.217465,,,,,,0
1763,2881,"Redlands + San Jacinto",,33.787318,-117.215525,,,,,,0
1764,2882,"11th + Front",,33.775730,-117.231016,,,,,,0
1765,2883,"11th + A Street",,33.775727,-117.234202,,,,,,0
1766,2884,"A Street + Ninth",,33.777184,-117.234706,,,,,,0
1767,2885,"A Street + Seventh",,33.779452,-117.234719,,,,,,0
1768,1193,"Main + Harrison",,33.885613,-117.564703,,,,,,0
1769,1194,"Belle + Tenth St @ Senior Center",,33.871536,-117.568991,,,,,,0
177,1509,"Van Buren + Rudicill",,33.912422,-117.440018,,,,,,0
1770,1195,"RCC Norco Campus",,33.916987,-117.570340,,,,,,0
1771,1196,"Hamner + Town + Country",,33.928366,-117.558086,,,,,,0
1772,1197,"Hamner + Fifth",,33.931280,-117.557540,,,,,,0
1773,2886,"Lyon + Acacia",,33.743533,-116.989163,,,,,,0
1774,2887,"Lyon + Mayberry",,33.740026,-116.989128,,,,,,0
1775,2888,"Lyon + Whittier",,33.737099,-116.989121,,,,,,0
1776,2889,"Lyon + Johnston",,33.732570,-116.989080,,,,,,0
1777,2890,"Lyon + San Marcos",,33.731003,-116.989076,,,,,,0
1778,2891,"Stetson + Lyon",,33.729283,-116.988612,,,,,,0
1779,2892,"Stetson + Elk",,33.729293,-116.984808,,,,,,0
178,3651,"Business Center + Commerce",,33.885100,-117.596410,,,,,,0
1780,2893,"Stetson + Palm",,33.729303,-116.980706,,,,,,0
1781,2894,"Gilbert + Stetson",,33.728767,-116.975948,,,,,,0
1782,2895,"Gilbert + Ruby",,33.726972,-116.975937,,,,,,0
1783,2896,"Thornton + Gilbert",,33.725690,-116.975601,,,,,,0
1784,2897,"Thornton + State",,33.725721,-116.972129,,,,,,0
1785,2898,"State 324 @ DMV",,33.727974,-116.971465,,,,,,0
1786,2899,"State + Stetson",,33.730703,-116.971473,,,,,,0
1787,2900,"State + Johnston",,33.733262,-116.971521,,,,,,0
1788,2901,"State + Whittier",,33.736304,-116.971548,,,,,,0
1789,2902,"State + Mary",,33.738884,-116.971571,,,,,,0
179,1055,"West Corona Metrolink",,33.885612,-117.613862,,,,,,0
1791,2904,"State 324 @ Post Office",,33.742926,-116.971555,,,,,,0
1792,2905,"State + Kimball",,33.745896,-116.971609,,,,,,0
1793,2906,"Devonshire + Juanita",,33.751229,-116.968262,,,,,,0
1794,2907,"State + Devonshire",,33.751418,-116.971637,,,,,,0
1795,2908,"State + Oakland",,33.754972,-116.971639,,,,,,0
1796,2909,"State + Menlo",,33.758660,-116.971684,,,,,,0
1797,2910,"Fruitvale 880 + State @ Superior Court",,33.762007,-116.970901,,,,,,0
1798,3603,"State + Fruitvale",,33.761760,-116.971911,,,,,,0
1799,2911,"State + Americana Mobile Park",,33.766142,-116.971730,,,,,,0
18,1403,"Lincoln + Van Buren",,33.908341,-117.435491,,,,,,0
180,1056,"Big Springs + Watkins",,33.975767,-117.316003,,,,,,0
1800,2912,"State + Esplanade",,33.773409,-116.971782,,,,,,0
1801,2913,"State + Seventh",,33.780582,-116.971789,,,,,,0
1802,2914,"State + Cottonwood",,33.787813,-116.971849,,,,,,0
1803,2915,"State + Quandt Ranch",,33.811540,-116.972023,,,,,,0
1804,2916,"State + Country Lake",,33.814008,-116.972041,,,,,,0
1805,2917,"Gilman Springs + Soboba",,33.824243,-116.975090,,,,,,0
1806,2918,"Gilman Springs 19625 Golden Era Prod",,33.835544,-116.989767,,,,,,0
1807,1198,"Fourth + Hamner",,33.924335,-117.559418,,,,,,0
1808,1199,"Clark 2870 @ Norco City Hall",,33.923342,-117.561089,,,,,,0
1809,1200,"Clark 2960 @ Norco Senior Center",,33.920567,-117.561006,,,,,,0
181,1057,"Magnolia + Pierce",,33.895131,-117.490581,,,,,,0
1810,1201,"Hamner 2176 @ Norco Car Wash",,33.913771,-117.560598,,,,,,0
1811,1202,"Hamner + Second",,33.908670,-117.561397,,,,,,0
1812,1203,"Hamner + Commerce",,33.906239,-117.561777,,,,,,0
1813,1204,"Hamner + First",,33.901278,-117.562549,,,,,,0
1814,1205,"Main + Parkridge",,33.892250,-117.563928,,,,,,0
1815,1206,"Main + Parkridge",,33.891006,-117.563878,,,,,,0
1816,1207,"Main + Third",,33.877609,-117.566985,,,,,,0
1818,2919,"Lyon + Latham",,33.748824,-116.989187,,,,,,0
1819,2920,"Lyon + Florida",,33.746278,-116.989189,,,,,,0
182,1058,"Magnolia + La Sierra",,33.903909,-117.475115,,,,,,0
1820,3614,"Hemet Mall Lay Over",,33.749188,-116.996573,,,,,,0
1821,2921,"Buena Vista + St John",,33.748681,-116.967268,,,,,,0
1822,2922,"Buena Vista + Calhoun",,33.750622,-116.967281,,,,,,0
1823,2923,"State + Ramona",,33.793225,-116.971453,,,,,,0
1824,2924,"State + Ramona Expressway",,33.802154,-116.971952,,,,,,0
1825,2925,"State + Community College Drive",,33.805878,-116.972003,,,,,,0
1826,2926,"Mt San Jacinto College San Jacinto",,33.808011,-116.969572,,,,,,0
1828,3950,"Sun Lakes Village Dr",,33.922857,-116.944328,,,,,,0
1829,2928,"2nd St 1540 @ Walmart",,33.923215,-116.951796,,,,,,0
183,1059,"Kaiser Medical Center",,33.906135,-117.471185,,,,,,0
1830,2929,"Second + Commerce @ Opp Walmart",,33.923180,-116.953290,,,,,,0
1831,2930,"Beaumont + First",,33.920301,-116.977366,,,,,,0
1832,2931,"Gilman Springs 19625 Golden Era Prod",,33.833528,-116.987557,,,,,,0
1833,2932,"Gilman Springs + Soboba",,33.819547,-116.973719,,,,,,0
1834,2933,"State + Sagecrest",,33.809291,-116.972260,,,,,,0
1835,2934,"State + Seventh",,33.780510,-116.972012,,,,,,0
1836,2935,"State + Esplanade",,33.773290,-116.971960,,,,,,0
1837,2936,"State @ Americana Mobile Park",,33.769212,-116.971976,,,,,,0
1838,2937,"State + Menlo",,33.758207,-116.971890,,,,,,0
1839,2938,"State + Oakland",,33.754574,-116.971862,,,,,,0
184,1060,"Magnolia + Polk",,33.907743,-117.468404,,,,,,0
1840,2939,"Devonshire + Carmalita",,33.751135,-116.969332,,,,,,0
1841,2940,"State + Florida",,33.746804,-116.971761,,,,,,0
1842,2941,"State 324 + Post Office",,33.742940,-116.971712,,,,,,0
1843,2942,"State + Vivian",,33.739487,-116.971688,,,,,,0
1844,2943,"State + Whittier",,33.736342,-116.971680,,,,,,0
1845,2944,"State + Johnston",,33.732836,-116.971692,,,,,,0
1846,2945,"State @ 220 W Stetson Kmart",,33.730700,-116.971676,,,,,,0
1847,2946,"State + Stetson",,33.728944,-116.971668,,,,,,0
1848,2947,"State + Ruby",,33.727028,-116.971661,,,,,,0
1849,2948,"Thornton + State",,33.725811,-116.971984,,,,,,0
185,1061,"Magnolia + Banbury",,33.910075,-117.464356,,,,,,0
1850,2949,"Gilbert + Ruby",,33.727025,-116.975832,,,,,,0
1851,2950,"Gilbert + Stetson",,33.728767,-116.975839,,,,,,0
1852,2951,"Stetson + Gilbert",,33.729490,-116.976316,,,,,,0
1853,2952,"Stetson + Palm",,33.729463,-116.980865,,,,,,0
1854,2953,"Stetson + Elk",,33.729441,-116.985550,,,,,,0
1855,2954,"Lyon + San Marcos",,33.731309,-116.988961,,,,,,0
1856,2955,"Lyon + Johnston",,33.732676,-116.988977,,,,,,0
1857,2956,"Lyon + Whittier",,33.736805,-116.989002,,,,,,0
1858,2957,"Lyon + Mayberry",,33.740348,-116.989027,,,,,,0
1859,2959,"State + Community College Drive",,33.805101,-116.972259,,,,,,0
1861,2960,"State + Ramona",,33.793287,-116.971652,,,,,,0
1862,2961,"State + Cottonwood",,33.787149,-116.972070,,,,,,0
1863,2962,"Buena Vista + Devonshire",,33.750925,-116.967436,,,,,,0
1864,2963,"Buena Vista + Latham",,33.749224,-116.967428,,,,,,0
1865,2964,"Lyon + Acacia",,33.744064,-116.989005,,,,,,0
1866,2965,"Lyon + Florida",,33.746318,-116.989055,,,,,,0
1867,1209,"Hamner + Mountain",,33.897814,-117.563069,,,,,,0
1868,1210,"Main + River",,33.887756,-117.564620,,,,,,0
1869,1211,"Main + Rincon",,33.885860,-117.564915,,,,,,0
187,1063,"Galleria @ Tyler",,33.911862,-117.459601,,,,,,0
1870,1212,"Hamner + Fifth",,33.930290,-117.558075,,,,,,0
1871,1213,"Hamner + Town + Country",,33.927683,-117.558477,,,,,,0
1872,1214,"Hamner + Lampton",,33.917948,-117.559945,,,,,,0
1875,2966,"Acacia + Lyon",,33.743756,-116.988654,,,,,,0
1876,2967,"Acacia W 1455 @ the Storage Place",,33.743774,-116.986697,,,,,,0
1877,2968,"Palm + Acacia",,33.743463,-116.980434,,,,,,0
1878,2969,"Mayberry + Palm",,33.740181,-116.979864,,,,,,0
1879,2970,"Mayberry + State",,33.740258,-116.971408,,,,,,0
188,1065,"Magnolia + Hughes",,33.914370,-117.456805,,,,,,0
1880,2971,"Mayberry + Buena Vista",,33.740281,-116.967018,,,,,,0
1881,2972,"Mayberry + Santa Fe",,33.740304,-116.962746,,,,,,0
1882,2973,"San Jacinto + Mayberry",,33.740589,-116.958530,,,,,,0
1883,2974,"Latham + Santa Fe",,33.749376,-116.962282,,,,,,0
1884,2975,"Latham + Laursen",,33.749391,-116.960585,,,,,,0
1885,2976,"San Jacinto + Devonshire",,33.751475,-116.958568,,,,,,0
1886,2977,"Esplanade + San Jacinto",,33.772930,-116.957670,,,,,,0
1887,2978,"Hewitt + Esplanade",,33.772911,-116.950928,,,,,,0
1888,2979,"Hewitt + Shaver",,33.778059,-116.951035,,,,,,0
1889,2980,"Hewitt + Seventh",,33.780975,-116.951003,,,,,,0
189,1066,"Magnolia + Harrison",,33.915922,-117.454064,,,,,,0
1890,2981,"Main + Mistletoe",,33.784033,-116.951994,,,,,,0
1891,2982,"Main + Jordan",,33.784008,-116.956343,,,,,,0
1892,2983,"Main + Pico",,33.784012,-116.959701,,,,,,0
1893,2984,"Main + Santa Fe",,33.783970,-116.962960,,,,,,0
1894,2985,"De Anza + Main",,33.784287,-116.965442,,,,,,0
1895,2986,"De Anza 446 + Wateka",,33.787053,-116.968787,,,,,,0
1896,2987,"De Anza + State",,33.789035,-116.971217,,,,,,0
1897,2988,"Menlo + State",,33.758334,-116.970904,,,,,,0
1898,2989,"Menlo + Buena Vista",,33.758363,-116.967775,,,,,,0
1899,2990,"Menlo 1101 @ Hemet Estate Apt",,33.758399,-116.960617,,,,,,0
19,1404,"Lincoln + Gibson",,33.909821,-117.432900,,,,,,0
190,1067,"Magnolia + Roosevelt",,33.919115,-117.448546,,,,,,0
1900,2991,"Commonwealth + Hawthorne",,33.769280,-116.948029,,,,,,0
1901,2992,"Commonwealth + Arroyo Viejo",,33.769299,-116.945571,,,,,,0
1902,2993,"Villines + Corte Floradora",,33.772844,-116.935972,,,,,,0
1903,2994,"Las Rosas + Seventh @ N Mountain Mid",,33.779292,-116.941243,,,,,,0
1904,2995,"Idyllwild + Wateka @ Senior Apt",,33.792396,-116.962863,,,,,,0
1905,2996,"Idyllwild + Tiger Ln",,33.794315,-116.965210,,,,,,0
1906,2997,"Seventh + Vernon",,33.780220,-116.949879,,,,,,0
1907,2998,"Las Rosas + Seventh @ N Mountain Mid",,33.779241,-116.941375,,,,,,0
1908,2999,"Evans + Villines",,33.775319,-116.937215,,,,,,0
1909,3000,"Villines + Corte Floradora",,33.772830,-116.936090,,,,,,0
191,1068,"Magnolia + Arlington",,33.946602,-117.400687,,,,,,0
1910,3001,"Commonwealth + Esplanade",,33.769915,-116.939245,,,,,,0
1911,3002,"Commonwealth + Arroyo Viejo",,33.769403,-116.945507,,,,,,0
1912,3003,"Commonwealth + Hawthorne",,33.769374,-116.948608,,,,,,0
1913,3004,"Hewitt + Commonwealth",,33.769655,-116.950852,,,,,,0
1914,3005,"Seventh + Vernon",,33.780358,-116.949821,,,,,,0
1915,3006,"San Jacinto + El Nita",,33.746450,-116.958545,,,,,,0
1916,3007,"Commonwealth + Esplanade",,33.769929,-116.938975,,,,,,0
1917,3008,"Latham + Buena Vista",,33.749337,-116.967146,,,,,,0
1918,3009,"Latham + Thompson",,33.749342,-116.964966,,,,,,0
1919,3010,"San Jacinto + Oakland",,33.755561,-116.958600,,,,,,0
1920,3011,"San Jacinto + Menlo",,33.758050,-116.958480,,,,,,0
1921,3012,"San Jacinto 2447 @ Ramona Tire",,33.761499,-116.958656,,,,,,0
1922,3013,"San Jacinto 1861 S @ Super Walmart",,33.767389,-116.958612,,,,,,0
1923,3014,"San Jacinto 1605 S @ Rite Aid",,33.770825,-116.958623,,,,,,0
1924,3015,"De Anza + State",,33.789016,-116.971351,,,,,,0
1925,3016,"De Anza 446 + Wateka",,33.786876,-116.968751,,,,,,0
1926,3017,"De Anza + Main",,33.784338,-116.965665,,,,,,0
1927,3018,"Main + Santa Fe",,33.783865,-116.963423,,,,,,0
1928,3019,"Main + Pico",,33.783859,-116.959513,,,,,,0
1929,3020,"Main + Jordon",,33.783841,-116.955826,,,,,,0
193,1070,"Magnolia @ Brockton Arcade",,33.951200,-117.397801,,,,,,0
1930,3021,"Hewitt @ 590",,33.782042,-116.951142,,,,,,0
1931,3022,"Hewitt + Seventh",,33.779711,-116.951180,,,,,,0
1932,3023,"Hewitt + Shaver",,33.778014,-116.951181,,,,,,0
1933,3024,"Esplanade + Hewitt",,33.772402,-116.951380,,,,,,0
1934,3025,"Latham + San Jacinto",,33.749489,-116.959147,,,,,,0
1935,3026,"Mayberry + San Jacinto",,33.740400,-116.958775,,,,,,0
1936,3027,"Mayberry + Santa Fe",,33.740390,-116.963131,,,,,,0
1937,3028,"Mayberry + Buena Vista",,33.740363,-116.967453,,,,,,0
1938,3029,"Mayberry + State",,33.740350,-116.971781,,,,,,0
1939,3030,"Mayberry + Gilbert",,33.740332,-116.976189,,,,,,0
194,1071,"Magnolia + Sunnyside",,33.954794,-117.395542,,,,,,0
1940,3031,"Palm + Mayberry",,33.740471,-116.980296,,,,,,0
1941,3032,"Acacia + Palm",,33.743913,-116.980715,,,,,,0
1942,3033,"Acacia + Elk",,33.743886,-116.984933,,,,,,0
1943,3034,"Acacia + Lyon",,33.743876,-116.988499,,,,,,0
1944,3035,"Main + Mistletoe",,33.783874,-116.951629,,,,,,0
1945,3036,"Esplanade + San Jacinto @ US Post Office",,33.773101,-116.956513,,,,,,0
1946,3037,"San Jacinto + Blue Fountain Mobile Park",,33.771292,-116.958904,,,,,,0
1947,3038,"San Jacinto + Commonwealth @ Wal-Mart",,33.769598,-116.958911,,,,,,0
1948,3039,"Menlo + Santa Fe",,33.758538,-116.963472,,,,,,0
1949,3040,"Menlo + Buena Vista",,33.758515,-116.967973,,,,,,0
195,1072,"Magnolia + Elizabeth",,33.959666,-117.392463,,,,,,0
1950,3041,"Menlo + Santa Fe",,33.758413,-116.962672,,,,,,0
1951,3042,"San Jacinto + Oakland",,33.755153,-116.958809,,,,,,0
1952,3043,"San Jacinto + Devonshire",,33.751014,-116.958765,,,,,,0
1953,3044,"Latham + Santa Fe",,33.749492,-116.963212,,,,,,0
1954,3045,"Latham + Thompson",,33.749474,-116.965349,,,,,,0
1955,3046,"San Jacinto + Florida",,33.747307,-116.958730,,,,,,0
1956,3047,"Lyon + Latham",,33.749427,-116.989086,,,,,,0
1957,3048,"Devonshire + Lyon",,33.751115,-116.990290,,,,,,0
1958,3049,"Devonshire + Gilmore",,33.751118,-116.991662,,,,,,0
1959,3050,"Thornton + Park Hill @ Walmart",,33.725390,-117.008973,,,,,,0
196,1073,"Magnolia + Briscoe",,33.962704,-117.390505,,,,,,0
1960,3051,"Cawston + American Way",,33.726907,-117.015255,,,,,,0
1961,3052,"Stetson + Cawston @ Time Warner",,33.729263,-117.014222,,,,,,0
1962,3053,"Kirby + Latham",,33.748581,-116.997736,,,,,,0
1963,3054,"Devonshire + Kirby",,33.751011,-116.997300,,,,,,0
1964,3055,"Fruitvale + Kirby",,33.761877,-116.997348,,,,,,0
1965,3056,"Weston + Oakland",,33.754295,-116.959839,,,,,,0
1966,3057,"Stanford + Florida",,33.746988,-116.932698,,,,,,0
1967,3058,"Stanford + Mayberry",,33.739860,-116.932658,,,,,,0
1968,3059,"Stanford + Lomas",,33.732042,-116.932602,,,,,,0
1969,3060,"Stanford + Stetson",,33.729262,-116.932587,,,,,,0
1970,3061,"Thornton + Stanford",,33.725986,-116.932819,,,,,,0
1971,3062,"Dartmouth + Thornton",,33.726138,-116.936733,,,,,,0
1972,3063,"Dartmouth + Stetson",,33.729937,-116.936759,,,,,,0
1973,3064,"Dartmouth + Whittier",,33.737398,-116.936814,,,,,,0
1974,3065,"Dartmouth + Mc Dowell",,33.739384,-116.936826,,,,,,0
1975,3066,"Devonshire + Kirby",,33.751013,-116.997325,,,,,,0
1976,3067,"Kirby + Latham",,33.748630,-116.997731,,,,,,0
1977,3068,"Devonshire + Sanderson",,33.750886,-117.005984,,,,,,0
1978,3069,"Devonshire + Circeli @ Social Security",,33.751083,-117.004895,,,,,,0
1979,3070,"Kirby + Menlo",,33.759104,-116.997825,,,,,,0
198,1075,"Magnolia + Bandini",,33.966253,-117.388131,,,,,,0
1980,3071,"Kirby + Fox Moor",,33.760900,-116.997827,,,,,,0
1981,3072,"Menlo + Sonrisa",,33.758487,-116.975553,,,,,,0
1982,3073,"Menlo + Buchanan",,33.758469,-116.978385,,,,,,0
1983,3074,"Menlo + Traci",,33.758439,-116.982618,,,,,,0
1984,3075,"Lyon + Matthew",,33.760133,-116.989115,,,,,,0
1985,3076,"Fruitvale + Kristin",,33.761999,-116.991618,,,,,,0
1986,3077,"Fruitvale + El Pueblo",,33.761980,-116.995448,,,,,,0
1987,3078,"Kirby + Fruitvale",,33.761493,-116.998021,,,,,,0
1988,3079,"Kirby + Las Brisas",,33.760050,-116.998005,,,,,,0
1989,3080,"Kirby at Colonial Country Club",,33.755798,-116.997972,,,,,,0
1990,3081,"Kirby + Oakland",,33.753991,-116.997967,,,,,,0
1991,3082,"Oakland + Santa Fe",,33.754787,-116.963353,,,,,,0
1992,3083,"Oakland + Santa Fe",,33.754904,-116.962747,,,,,,0
1993,3084,"Kirby + San Pedro",,33.756229,-116.997804,,,,,,0
1994,3085,"Fruitvale + Sunflower",,33.761871,-116.995561,,,,,,0
1995,3086,"Fruitvale + Kristin",,33.761900,-116.991196,,,,,,0
1996,3087,"Lyon + Matthew",,33.760232,-116.989314,,,,,,0
1997,3088,"Menlo + Traci",,33.758283,-116.982772,,,,,,0
1998,3089,"Menlo + Hillmer",,33.758304,-116.979020,,,,,,0
1999,3090,"Menlo + Sonrisa",,33.758320,-116.975427,,,,,,0
2,1390,"Riverwalk + Pierce",,33.901260,-117.494650,,,,,,0
20,1405,"Lincoln + Abraham",,33.910939,-117.430889,,,,,,0
200,1077,"Magnolia + Larchwood",,33.969825,-117.385769,,,,,,0
2000,1215,"Mayberry + Dartmouth",,33.740413,-116.936019,,,,,,0
2001,1216,"Stanford + Florida",,33.746660,-116.932500,,,,,,0
2003,3710,"Devonshire + Juanita",,33.751236,-116.968274,,,,,,0
2004,3091,"Stetson + Page Plaza @ Walmart",,33.729270,-117.008191,,,,,,0
2005,3092,"Oakland + Weston",,33.754912,-116.960514,,,,,,0
2006,3093,"Eucalyptus + Fir",,33.935158,-117.187857,,,,,,0
2007,3094,"Eucalyptus + Fir",,33.934331,-117.188642,,,,,,0
2008,3095,"Citrus + Northview",,33.951888,-117.560540,,,,,,0
2009,3096,"Citrus + Scholar Way",,33.951880,-117.567497,,,,,,0
201,1078,"Magnolia + Terracina @ RCC",,33.972248,-117.384323,,,,,,0
2010,3097,"Sumner + Citrus",,33.952140,-117.575613,,,,,,0
2011,3098,"Sumner + Pheasant Knoll",,33.956978,-117.575624,,,,,,0
2012,3099,"Pats Ranch + Mall Entrance",,33.972674,-117.544643,,,,,,0
2013,3100,"Pats Ranch + 65th",,33.969510,-117.546298,,,,,,0
2014,3101,"Hamner + 68th St",,33.964670,-117.558390,,,,,,0
2015,3102,"68th + Moonriver",,33.964617,-117.554988,,,,,,0
2016,3103,"Sumner + Pheasant Knoll",,33.956847,-117.575873,,,,,,0
2017,3104,"Hamner + Limonite",,33.976286,-117.558207,,,,,,0
2018,3105,"Sumner + Aspen Leaf",,33.953566,-117.575874,,,,,,0
2019,3106,"Citrus + Northview",,33.951733,-117.559922,,,,,,0
202,1079,"RCC Riverside Campus",,33.972628,-117.383553,,,,,,0
2020,1217,"68th + Scholar Way",,33.964400,-117.566520,,,,,,0
2021,1218,"68th + Rimmon",,33.964460,-117.562700,,,,,,0
2022,1219,"68th + Morab",,33.964580,-117.562470,,,,,,0
2023,1220,"68th + Cleveland",,33.964530,-117.567200,,,,,,0
2024,1221,"Sumner + 68th",,33.964300,-117.575900,,,,,,0
2025,3107,"Limonite + Hamner",,33.975035,-117.555426,,,,,,0
2026,3641,"Limonite + Hamner",,33.975036,-117.555426,,,,,,0
2027,1222,"Hamner @ Swan Lake",,33.978440,-117.558280,,,,,,0
2028,3108,"Hamner + Limonite",,33.973427,-117.558535,,,,,,0
2029,3109,"Hamner + 58th St",,33.982860,-117.558370,,,,,,0
203,1080,"Magnolia + 15th",,33.975422,-117.380514,,,,,,0
2030,3110,"Hamner + 65th St",,33.967685,-117.558524,,,,,,0
2031,3111,"68th + Hamner",,33.964395,-117.557399,,,,,,0
2032,3112,"68th + Moon River",,33.964425,-117.553780,,,,,,0
2033,3113,"Pats Ranch + 65th",,33.969122,-117.546061,,,,,,0
2034,3114,"Pats Ranch + Mall Entrance",,33.972666,-117.544377,,,,,,0
2035,3115,"Newport + Murrieta",,33.685107,-117.207506,,,,,,0
2036,3116,"Railroad Canyon + Canyon Hills",,33.668929,-117.263301,,,,,,0
2037,3117,"Rail Road Canyon + Canyon Hill",,33.668054,-117.264252,,,,,,0
2038,3118,"Railroad Canyon + Skylink",,33.671312,-117.261465,,,,,,0
2039,3119,"Railroad Canyon + Canyon Lake S",,33.673256,-117.253982,,,,,,0
204,1081,"Market + 14th",,33.976463,-117.379893,,,,,,0
2040,3121,"Murrieta + Newport Sun City Plaza",,33.686140,-117.205895,,,,,,0
2041,3122,"Murrieta + Park City Ave",,33.690733,-117.205911,,,,,,0
2042,3123,"Murrieta + Ridgemoor",,33.700003,-117.205985,,,,,,0
2043,3124,"Newport + Evans",,33.685160,-117.197450,,,,,,0
2044,3125,"Goetz + Vista Way",,33.689627,-117.240798,,,,,,0
2045,3126,"Goetz + Rock Canyon",,33.694637,-117.242996,,,,,,0
2046,3127,"Palm + Goetz @Quail Valley Comm",,33.701606,-117.240612,,,,,,0
2047,3128,"Cherry Hills + Bradley",,33.710707,-117.189846,,,,,,0
2048,3129,"Bradley + Augusta",,33.708152,-117.188869,,,,,,0
2049,3130,"Bradley + Pinehurst",,33.696975,-117.188721,,,,,,0
205,1082,"Market + 12th",,33.978786,-117.378025,,,,,,0
2050,3131,"Bradley + Rio Vista",,33.691554,-117.188714,,,,,,0
2051,3132,"Bradley + Lazy Creek",,33.689200,-117.188724,,,,,,0
2052,3133,"Evans + Newport",,33.684396,-117.197431,,,,,,0
2053,3134,"Newport + Town Center",,33.684935,-117.180160,,,,,,0
2055,3136,"Antelope + Menifee Town Center",,33.680376,-117.169789,,,,,,0
2056,3137,"Menifee + Newport",,33.684529,-117.153924,,,,,,0
2057,3138,"Antelope Entrance @ MSJC Menifee",,33.674479,-117.168880,,,,,,0
2058,3139,"Antelope + Stillwater",,33.681167,-117.168486,,,,,,0
2059,3140,"La Piedra Entrance @ MSJC Menifee",,33.676822,-117.165935,,,,,,0
2060,3141,"Bradley + La Piedra",,33.678244,-117.188781,,,,,,0
2061,3142,"Bradley + La Piedra",,33.678205,-117.188555,,,,,,0
2062,3143,"Bradley + Newport",,33.684621,-117.188753,,,,,,0
2063,3144,"Menifee + Shoreridge",,33.676880,-117.155390,,,,,,0
2064,3145,"Murrieta + Ridgemoor",,33.699417,-117.206164,,,,,,0
2065,3146,"Murrieta + Park City Ave",,33.690326,-117.206185,,,,,,0
2066,3147,"Goetz + Canyon Lake N",,33.680217,-117.235054,,,,,,0
2067,3148,"Railroad Canyon + Canyon Lake S",,33.673480,-117.255099,,,,,,0
2068,3149,"Railroad Canyon + Skylink",,33.671114,-117.261910,,,,,,0
2069,3150,"Grape + Railroad Cyn @ Circle K",,33.662503,-117.297290,,,,,,0
2070,1223,"Newport + Haun",,33.685201,-117.175894,,,,,,0
2071,3151,"Newport + Avenida De Cortez",,33.685167,-117.180064,,,,,,0
2072,3152,"Bradley + Park",,33.688193,-117.188533,,,,,,0
2073,3153,"Bradley + Rio Vista",,33.691616,-117.188518,,,,,,0
2074,3154,"Bradley + Pinehurst",,33.697676,-117.188510,,,,,,0
2075,3155,"Bradley + Augusta",,33.708048,-117.188652,,,,,,0
2076,3156,"Cajalco + Brown",,33.837065,-117.295997,,,,,,0
2077,3157,"Cajalco + Clark",,33.837183,-117.287188,,,,,,0
2078,3158,"Cajalco + Day",,33.837249,-117.279507,,,,,,0
2079,3159,"Cajalco + Seaton",,33.837328,-117.261181,,,,,,0
208,1084,"Mission Inn + Park",,33.978171,-117.363742,,,,,,0
2080,3160,"Cajalco + Harvill",,33.842057,-117.254792,,,,,,0
2081,3161,"Rider + Perris Blvd",,33.830051,-117.225436,,,,,,0
2082,3162,"Evans + Rider",,33.831069,-117.204190,,,,,,0
2083,3163,"Evans + Limousin",,33.835859,-117.204213,,,,,,0
2084,3164,"Evans + May Ranch",,33.837741,-117.204211,,,,,,0
2085,3165,"Lasselle + Via De Anza",,33.860883,-117.208889,,,,,,0
2086,3166,"Lasselle + Via De Anza",,33.861052,-117.208641,,,,,,0
2087,3167,"Lasselle + Kentucky Derby",,33.866435,-117.209650,,,,,,0
2088,3168,"Lasselle + Cremello",,33.870508,-117.210905,,,,,,0
2089,3169,"Lasselle + Rojo Tierra",,33.873523,-117.210841,,,,,,0
209,1085,"Riverside-Downtown Metrolink Station",,33.976021,-117.369807,,,,,,0
2090,3170,"Lasselle + Via Xavier",,33.877794,-117.209926,,,,,,0
2091,3171,"Lasselle + Iris",,33.891604,-117.207200,,,,,,0
2092,3172,"Lasselle + Margaret",,33.899918,-117.208758,,,,,,0
2095,3173,"Lasselle + Gentian",,33.895862,-117.208785,,,,,,0
2096,3174,"Lasselle + JFK",,33.903453,-117.208739,,,,,,0
2097,3175,"Rider St 21091 @ Mead Valley Comm Ctr",,33.829827,-117.294529,,,,,,0
2098,3176,"Lasselle + Cactus",,33.909332,-117.209035,,,,,,0
2099,3177,"Lasselle + Delphinium",,33.906192,-117.209030,,,,,,0
21,1406,"Lincoln + Jackson",,33.912263,-117.428582,,,,,,0
210,1086,"Mission Inn + Comer",,33.977177,-117.360515,,,,,,0
2100,3178,"Lasselle + Gentian",,33.895202,-117.209000,,,,,,0
2101,3179,"Lasselle + Hamaca",,33.878612,-117.209849,,,,,,0
2102,3180,"Lasselle + Via Xavier",,33.876913,-117.210496,,,,,,0
2103,3181,"Lasselle + Arroyo Park",,33.874613,-117.211001,,,,,,0
2104,3182,"Lasselle + Avenida De Plata",,33.869219,-117.211020,,,,,,0
2105,3183,"Lasselle + Avenida Classica",,33.865457,-117.209441,,,,,,0
2106,3184,"Lasselle + Camino Quintana",,33.863223,-117.208898,,,,,,0
2107,3185,"Evans + Ramona Exp",,33.843030,-117.208828,,,,,,0
2108,3186,"Evans + May Ranch",,33.837147,-117.204483,,,,,,0
2109,3187,"Evans + Limousin",,33.835250,-117.204480,,,,,,0
211,1087,"Third + Chicago",,33.982954,-117.348129,,,,,,0
2110,3188,"Evans + Marigold",,33.831311,-117.204464,,,,,,0
2111,3189,"Cajalco Exp + Harvill",,33.841350,-117.255892,,,,,,0
2112,3190,"Cajalco Exp + Seaton",,33.837504,-117.262048,,,,,,0
2113,3191,"Cajalco Exp + Day",,33.837395,-117.279288,,,,,,0
2114,3192,"Cajalco Exp + Clark",,33.837304,-117.288131,,,,,,0
2115,3193,"Brown + Souder",,33.835812,-117.296445,,,,,,0
2116,3194,"Brown + Verta",,33.830906,-117.296425,,,,,,0
2117,3195,"Santa Fe + Oakwood",,33.769040,-116.963250,,,,,,0
2118,3196,"Sante Fe + Midway",,33.763920,-116.963120,,,,,,0
2119,3197,"Santa Fe + Esplanade",,33.773466,-116.963113,,,,,,0
212,1510,"Frederick + Brodiaea",,33.913960,-117.261049,,,,,,0
2120,3198,"Santa Fe + Esplanade",,33.772568,-116.963230,,,,,,0
2121,3199,"Seventh + Minor",,33.780237,-116.953356,,,,,,0
2122,3200,"Mistletoe @ 501 San Jacinto MHP",,33.782434,-116.952284,,,,,,0
2123,3201,"Main St 662",,33.783868,-116.948218,,,,,,0
2124,3202,"Main + Rosario",,33.783870,-116.947078,,,,,,0
2125,3203,"Main + Miracle Dr",,33.783889,-116.941001,,,,,,0
2126,3204,"Main + Miracle Dr",,33.784190,-116.940980,,,,,,0
2127,3205,"Lake Park + Soboba Springs Estates",,33.788449,-116.930279,,,,,,0
2128,3206,"Kirby + Alne",,33.767919,-116.997871,,,,,,0
2129,3207,"Kirby + Whispering Bells",,33.776226,-116.997938,,,,,,0
213,1511,"Frederick + Alessandro",,33.916403,-117.261258,,,,,,0
2130,3208,"Kirby + Roanoke",,33.785415,-116.998030,,,,,,0
2131,3209,"Cottonwood + Kirby",,33.787259,-116.997709,,,,,,0
2132,3210,"Cottonwood + Ivy Crest",,33.787278,-116.994269,,,,,,0
2133,3211,"Palm + Cottonwood",,33.787112,-116.980782,,,,,,0
2134,3212,"Palm + Don Alberto",,33.784457,-116.980783,,,,,,0
2135,3213,"Enterprise + Grand",,33.783183,-116.977610,,,,,,0
2136,3214,"State + Seventh",,33.779925,-116.972004,,,,,,0
2137,3215,"Esplanade + State",,33.772852,-116.971311,,,,,,0
2138,3216,"Esplanade + Commerce",,33.772889,-116.966412,,,,,,0
2139,3217,"Esplanade + Santa Fe",,33.773095,-116.963745,,,,,,0
214,1088,"Watkins + Valencia Hill",,33.979506,-117.318311,,,,,,0
2140,3218,"Esplanade + Buena Vista",,33.773094,-116.968033,,,,,,0
2141,3219,"State + Esplande",,33.773399,-116.971784,,,,,,0
2142,3220,"7th + State",,33.780305,-116.972382,,,,,,0
2143,3221,"Enterprise + Grand",,33.783333,-116.977591,,,,,,0
2144,3222,"Palm + Enterprise",,33.783663,-116.980557,,,,,,0
2145,3223,"Palm + Birch",,33.785645,-116.980574,,,,,,0
2146,3224,"Cottonwood + Sandalwood",,33.787483,-116.995187,,,,,,0
2147,3225,"Kirby + Roanoke",,33.785385,-116.998127,,,,,,0
2148,3226,"Santa Fe 999 @ Valley-Hi Mobile Park",,33.777423,-116.963148,,,,,,0
2149,3227,"Seventh + 258 El Rancho MHP",,33.780214,-116.961494,,,,,,0
215,1089,"Blaine @ 783 University Center",,33.983061,-117.327867,,,,,,0
2150,3228,"San Jacinto Community Center",,33.780983,-116.959936,,,,,,0
2151,3229,"Kirby + Whispering Bells",,33.775697,-116.998127,,,,,,0
2152,3230,"Kirby + Alne",,33.767567,-116.998057,,,,,,0
2153,3231,"Idyllwild + Attenborough",,33.794948,-116.966228,,,,,,0
2154,3232,"Idyllwild + Tahquitz",,33.791132,-116.961519,,,,,,0
2155,3233,"Seventh 351 @ Grandview MHP",,33.780321,-116.954413,,,,,,0
2156,4106,"Lake Park 2230 Soboba Springs Estates",,33.788378,-116.929780,,,,,,0
2157,3234,"Soboba Road 23333 @ Soboba Casino",,33.780396,-116.917472,,,,,,0
2158,3235,"Main 719 San Jacinto Comm Church",,33.784020,-116.947131,,,,,,0
2159,3236,"Main @ 633 San Jacinto Senior Center",,33.784007,-116.949067,,,,,,0
216,1090,"Blaine @ Park Hill Apartments",,33.983073,-117.332829,,,,,,0
2160,3237,"Main + Mistletoe",,33.783995,-116.952047,,,,,,0
2161,3238,"Mistletoe + Fifth",,33.782645,-116.952398,,,,,,0
2162,3239,"Seventh + Estudillo",,33.780344,-116.961300,,,,,,0
2163,3240,"Santa Fe + Tenth",,33.777404,-116.963236,,,,,,0
2164,3241,"Mission + Pedley",,34.011709,-117.474868,,,,,,0
2165,3242,"Mission + Agate",,34.011710,-117.470789,,,,,,0
2166,3243,"Mission + Vernon",,34.011730,-117.465699,,,,,,0
2167,3244,"Mission + Pyrite",,34.011706,-117.462036,,,,,,0
2168,3245,"Mission + South Entrance of HS",,34.011686,-117.451624,,,,,,0
2169,3246,"Mission + Formosa",,34.011869,-117.444855,,,,,,0
217,1091,"Blaine + Rustin",,33.983078,-117.335802,,,,,,0
2170,3247,"Mission + Soto",,34.011942,-117.440951,,,,,,0
2171,3248,"Mission + Valley Way",,34.010896,-117.434545,,,,,,0
2173,3249,"Mission + Golden West",,34.008448,-117.429992,,,,,,0
2174,3250,"Mission + Opal",,34.005712,-117.424634,,,,,,0
2175,3251,"Mission + Pacific",,34.003774,-117.420786,,,,,,0
2176,3252,"Mission + La Rue",,34.001060,-117.415356,,,,,,0
2177,3253,"Mission + Avalon",,33.998147,-117.409665,,,,,,0
2178,3254,"Mission + Rubidoux Blvd",,33.997208,-117.407756,,,,,,0
2179,3255,"Mission + Wallace",,33.994649,-117.402603,,,,,,0
218,1513,"Meyer + 6th St",,33.902723,-117.249360,,,,,,0
2180,3256,"Mission + Crestmore",,33.991928,-117.397430,,,,,,0
2181,3257,"Mission Inn + Redwood",,33.987293,-117.383326,,,,,,0
2182,3258,"Mission Inn + Brockton",,33.985159,-117.378754,,,,,,0
2183,3259,"Mission + Sikh Temple",,34.011686,-117.456249,,,,,,0
2184,3260,"Mission + Sikh Temple",,34.011866,-117.456092,,,,,,0
2185,3261,"Mission + El Camino Real",,34.011780,-117.448799,,,,,,0
2186,3262,"Mission + Riverview",,33.999690,-117.412912,,,,,,0
2187,3263,"Mission + Riverview",,34.000150,-117.413010,,,,,,0
2188,3264,"Mission + Avon",,34.011709,-117.479558,,,,,,0
2189,3265,"Mission Inn + Brockton",,33.985295,-117.378662,,,,,,0
219,1092,"Blaine + Iowa",,33.983101,-117.338798,,,,,,0
2190,3266,"Mission + Crestmore",,33.992727,-117.398278,,,,,,0
2191,3267,"Mission + Wallace",,33.994551,-117.401689,,,,,,0
2192,3268,"Mission 5571 @ Stater Bros",,33.996763,-117.405908,,,,,,0
2193,3269,"Mission + Rubidoux",,33.997581,-117.407525,,,,,,0
2194,3270,"Mission + Avalon",,33.998346,-117.409371,,,,,,0
2195,3271,"Mission + La Rue",,34.001376,-117.415343,,,,,,0
2196,3272,"Mission 5961 @ DPSS",,34.003056,-117.418716,,,,,,0
2197,3273,"Mission + Pacific",,34.004465,-117.421554,,,,,,0
2198,3274,"Mission + Opal",,34.006264,-117.425118,,,,,,0
2199,3275,"Mission + Canal",,34.008346,-117.429271,,,,,,0
22,1407,"Lincoln + Irving",,33.914054,-117.425442,,,,,,0
220,1093,"Third 1825 @ RTA",,33.983131,-117.352095,,,,,,0
2202,3276,"Mission + Valley Way",,34.011498,-117.434984,,,,,,0
2203,3756,"Mission + Byrne",,34.012083,-117.442913,,,,,,0
2204,3277,"Mission + Sheriff Station",,34.012111,-117.445504,,,,,,0
2205,3278,"Mission + Camino Real",,34.011997,-117.449523,,,,,,0
2206,3279,"Mission 7721 @ Santa Fe MHP",,34.011878,-117.452144,,,,,,0
2207,3280,"Mission + Pyrite",,34.011907,-117.462880,,,,,,0
2208,3281,"Mission + Vernon",,34.011890,-117.466168,,,,,,0
2209,3282,"Mission + Agate",,34.011902,-117.471416,,,,,,0
221,1094,"Third + Kansas",,33.983077,-117.356901,,,,,,0
2210,3283,"Mission + Pedley",,34.011914,-117.474885,,,,,,0
2212,3284,"Mission + Glen",,34.011930,-117.481554,,,,,,0
2213,3285,"Brockton Ave 4854 @ United Methodist Church",,33.973483,-117.390442,,,,,,0
2214,3286,"Terracina + Magnolia",,33.972771,-117.384576,,,,,,0
2215,3781,"Brockton Ave 4725 @ Eden Lutheran Church",,33.975701,-117.388073,,,,,,0
2216,3287,"Main + 11th @ Courthouse",,33.978980,-117.376345,,,,,,0
2217,3288,"Campus + University",,33.975285,-117.332158,,,,,,0
2218,3289,"West Campus Dr at Lot 4",,33.971812,-117.330236,,,,,,0
2219,3730,"Canyon Crest + Via Pueblo",,33.957098,-117.329788,,,,,,0
222,1095,"Eucalyptus + Third",,33.982813,-117.359747,,,,,,0
2220,3290,"Canyon Crest + Central",,33.955794,-117.329264,,,,,,0
2221,3291,"Central + El Cerrito",,33.954656,-117.333414,,,,,,0
2222,3916,"Chicago + Central",,33.956422,-117.346385,,,,,,0
2223,3917,"Chicago + Vassar",,33.966055,-117.348377,,,,,,0
2224,3292,"Watkins + Spruce",,33.989862,-117.332515,,,,,,0
2225,3293,"Canyon Crest + Elgin",,33.986320,-117.331176,,,,,,0
2226,3294,"Canyon Crest + Blaine",,33.982658,-117.331220,,,,,,0
2227,3296,"Village Rd + Harveston Way",,33.537585,-117.154223,,,,,,0
2228,3297,"Harveston Dr + Harveston Park",,33.534045,-117.160011,,,,,,0
2229,3298,"Harveston Dr + Mendocino",,33.536182,-117.161611,,,,,,0
223,1096,"Eucalyptus + Fourth",,33.980992,-117.359722,,,,,,0
2230,3299,"Harveston Dr + Lakeview",,33.540072,-117.157969,,,,,,0
2231,3300,"Harveston Dr + Wellsley",,33.541507,-117.152958,,,,,,0
2232,3301,"Township Dr + Harveston Dr",,33.539492,-117.152792,,,,,,0
2233,3302,"Date + Ynez",,33.536139,-117.164573,,,,,,0
2234,3303,"Jefferson + Overland",,33.515782,-117.160173,,,,,,0
2235,3304,"Margarita + Torrey Pine",,33.549724,-117.157289,,,,,,0
2236,3431,"Hancock + Hancock Medical Center",,33.566248,-117.182350,,,,,,0
2237,3305,"Margarita + Winchester",,33.531434,-117.151628,,,,,,0
2238,3306,"Margarita + Harveston",,33.536585,-117.151204,,,,,,0
2239,3307,"Margarita + Rustin Glen",,33.541920,-117.150943,,,,,,0
224,1097,"Eucalyptus + Sixth",,33.978431,-117.359716,,,,,,0
2240,3308,"Margarita + Date",,33.545587,-117.154922,,,,,,0
2241,3309,"Murrieta Hot Springs + Whitewood",,33.554731,-117.168607,,,,,,0
2242,3310,"Murrieta Hot Springs + Alta Murrieta",,33.556458,-117.175557,,,,,,0
2243,3311,"Murrieta + Cherry Hills",,33.710387,-117.206079,,,,,,0
2244,3312,"McCall + Murrieta",,33.714341,-117.205758,,,,,,0
2245,3313,"McCall + Grosse Point",,33.714267,-117.200736,,,,,,0
2246,3314,"McCall + Sun City",,33.715348,-117.194633,,,,,,0
2247,3315,"McCall + Grosse Pointe",,33.714476,-117.200566,,,,,,0
2248,3316,"Murrieta + McCall",,33.714106,-117.206355,,,,,,0
2249,3317,"Newport + Murrieta",,33.684880,-117.205424,,,,,,0
225,1098,"Magnolia + Arlington",,33.945903,-117.401833,,,,,,0
2250,3318,"Murrieta Hot Springs + Alta Murrieta",,33.556310,-117.176818,,,,,,0
2251,3319,"Newport + Bradley",,33.684897,-117.188142,,,,,,0
2252,3320,"Margarita + Torrey Pines",,33.549015,-117.157451,,,,,,0
2253,3321,"Margarita + Winchester @ WinCo Food",,33.532266,-117.152637,,,,,,0
2254,3322,"Murrieta + Cherry Hill",,33.710320,-117.206285,,,,,,0
2255,3323,"Murrieta Hot Springs + Whitewood",,33.554516,-117.168669,,,,,,0
2256,3324,"Margarita + Murrieta Hot Springs",,33.556048,-117.157373,,,,,,0
2257,3325,"Encanto + McCall",,33.714518,-117.186290,,,,,,0
2258,3326,"Encanto + Coronado",,33.711081,-117.186499,,,,,,0
2259,3327,"Encanto 28377 + Villa La Paz Apts",,33.708401,-117.184962,,,,,,0
226,1099,"Magnolia + El Hijo",,33.944556,-117.404205,,,,,,0
2260,3328,"Encanto 28410 + Hillside Apts",,33.707815,-117.183020,,,,,,0
2261,3329,"La Piedra + Antelope",,33.676890,-117.170040,,,,,,0
2262,3330,"Menifee + Holland",,33.670250,-117.158330,,,,,,0
2263,3331,"Menifee + Legacy",,33.666161,-117.158393,,,,,,0
2264,3332,"Menifee + Craig",,33.663070,-117.158440,,,,,,0
2265,3333,"Menifee + Waterford",,33.658462,-117.155233,,,,,,0
2266,3334,"Encanto + El Pico",,33.708698,-117.185026,,,,,,0
2267,3335,"Antelope + Heritage Market Pl @ Entrance",,33.639920,-117.168570,,,,,,0
2268,3336,"Mapleton Ave + Mapleton St",,33.630657,-117.166969,,,,,,0
2269,3337,"Poinsettia + Daffodi",,33.628410,-117.163190,,,,,,0
2270,3338,"Baxter @ Loma Linda Med Ctr",,33.612755,-117.166805,,,,,,0
2271,3339,"Encanto + Coronado",,33.711159,-117.186384,,,,,,0
2272,3340,"McElwain + Delany @ Super Target",,33.602974,-117.175824,,,,,,0
2273,3341,"McElwain + Loganberry",,33.600492,-117.177357,,,,,,0
2274,3592,"Whitewood + Via Cuena",,33.577520,-117.178660,,,,,,0
2275,3342,"Whitewood + Via Cuena",,33.577830,-117.178770,,,,,,0
2277,3344,"McElwain + Orchard Ctr",,33.600831,-117.176798,,,,,,0
2278,3345,"McElwain + Delany @ Super Target",,33.603687,-117.175632,,,,,,0
2279,3346,"Baxter @ Loma Linda Med Ctr",,33.612989,-117.166989,,,,,,0
228,1101,"Magnolia + Madison",,33.941376,-117.409804,,,,,,0
2280,3347,"Poinsettia + Daffodi",,33.628544,-117.163070,,,,,,0
2281,3348,"Mapleton + Poinsettia",,33.631240,-117.166090,,,,,,0
2282,3349,"Anteplope + Antelope Square @ Entrance",,33.639747,-117.168376,,,,,,0
2283,3350,"Menifee + Waterford",,33.659140,-117.155543,,,,,,0
2284,3351,"Menifee + Craig",,33.663380,-117.158130,,,,,,0
2285,3353,"Menifee + Legacy",,33.666540,-117.158110,,,,,,0
2286,3354,"Menifee + Holland",,33.670690,-117.158020,,,,,,0
2287,3355,"La Piedra + Bayport",,33.675898,-117.159061,,,,,,0
2288,1224,"Lakeshore + Diamond Drive",,33.660250,-117.300638,,,,,,0
2289,1225,"Lakeshore + Elm",,33.660945,-117.303748,,,,,,0
229,1102,"Magnolia @ Ramona HS",,33.939775,-117.412713,,,,,,0
2290,1226,"Lakeshore + Avenue 6",,33.662069,-117.311983,,,,,,0
2291,1227,"Lakeshore + Lucerne",,33.662487,-117.314888,,,,,,0
2292,1228,"Spring + Sulphur",,33.667798,-117.329198,,,,,,0
2293,1229,"Graham + Langstaff",,33.669015,-117.330887,,,,,,0
2294,1230,"Lindsay + Heald",,33.671033,-117.333184,,,,,,0
2295,1231,"Pottery + Kellogg",,33.675504,-117.333136,,,,,,0
2296,1232,"Pottery + Scrivener",,33.676095,-117.335240,,,,,,0
2297,1233,"Pottery + Lewis",,33.676395,-117.336293,,,,,,0
2298,1234,"Pottery + Davis",,33.677637,-117.340763,,,,,,0
2299,1235,"Chaney + Flint",,33.679496,-117.339492,,,,,,0
23,1004,"Smith + 6th",,33.879497,-117.594379,,,,,,0
230,1103,"Magnolia + Jefferson",,33.937196,-117.417179,,,,,,0
2301,1236,"Chaney + Minthorn",,33.684244,-117.334162,,,,,,0
2302,4418,"Collier + Chaney",,33.685473,-117.333403,,,,,,0
2303,1237,"Collier + Third",,33.687580,-117.336168,,,,,,0
2305,1238,"Collier + Hunco Way @ Home Depot",,33.692513,-117.342666,,,,,,0
2306,1239,"Collier + Third St",,33.687461,-117.336390,,,,,,0
2307,1240,"Riverside + Richard",,33.688883,-117.356763,,,,,,0
2308,1241,"Riverside + Lakeshore",,33.685027,-117.366320,,,,,,0
2309,1242,"Collier + Riverside",,33.695433,-117.346471,,,,,,0
2310,1243,"Mission Trail + Malaga",,33.653292,-117.296877,,,,,,0
2313,3356,"Mission Trail + Malaga",,33.653477,-117.296668,,,,,,0
2314,3357,"Mission Trail + Campbell",,33.656530,-117.297986,,,,,,0
2316,1247,"Canyon Estate + Saddle Ridge",,33.666617,-117.299749,,,,,,0
2317,1248,"Riverside + Lakeshore",,33.684725,-117.366287,,,,,,0
2318,1249,"Riverside + Richard",,33.688715,-117.356966,,,,,,0
2319,1250,"Collier + Enterprise",,33.692923,-117.343604,,,,,,0
232,1105,"Magnolia + Crowell",,33.934823,-117.421337,,,,,,0
2320,1251,"Collier + Central",,33.689634,-117.339439,,,,,,0
2321,1252,"Collier + Hunco Way @ Target",,33.691714,-117.342107,,,,,,0
2322,1253,"Chaney + Minthorn",,33.684037,-117.334712,,,,,,0
2324,1254,"Pottery + Davis",,33.677565,-117.340829,,,,,,0
2325,1255,"Pottery + Lewis",,33.676325,-117.336380,,,,,,0
2326,1256,"Pottery + Scrivener",,33.676011,-117.335256,,,,,,0
2327,1257,"Pottery + Kellogg",,33.675376,-117.333021,,,,,,0
2328,1258,"Lindsay + Graham",,33.669979,-117.333735,,,,,,0
2329,1259,"Graham + Langstaff",,33.668917,-117.330973,,,,,,0
233,1106,"Magnolia + Adams",,33.932976,-117.424551,,,,,,0
2330,1260,"Spring + Graham",,33.668038,-117.329230,,,,,,0
2331,1261,"Lakeshore 420 Senior Center",,33.662985,-117.326015,,,,,,0
2332,1262,"Lakepoint Park",,33.661850,-117.326054,,,,,,0
2333,1263,"Lakeshore + Lucerne",,33.662454,-117.315602,,,,,,0
2334,1264,"Lakeshore + Marian",,33.661955,-117.312146,,,,,,0
2336,1265,"Lakeshore + Elm",,33.660775,-117.304118,,,,,,0
2337,1266,"Lakeshore + Diamond",,33.660384,-117.301590,,,,,,0
2338,1268,"Chaney + Education",,33.682700,-117.335970,,,,,,0
2339,3718,"Lake Elsinore Walmart",,33.660150,-117.295160,,,,,,0
2340,1269,"Lake Elsinore Walmart",,33.659970,-117.295160,,,,,,0
2341,1270,"Mission Trail + Diamond",,33.659545,-117.299908,,,,,,0
2342,1271,"Mission Trail + Campbell",,33.656518,-117.298235,,,,,,0
2343,3358,"Menifee + Rockprot",,33.683550,-117.153775,,,,,,0
2344,3359,"Lyon + Oakland",,33.754418,-116.989082,,,,,,0
2345,3360,"Oakland + Hamilton",,33.754704,-116.982438,,,,,,0
2346,3361,"Oakland + State",,33.754760,-116.972255,,,,,,0
2347,3362,"San Jacinto + Seventh Street",,33.780565,-116.958771,,,,,,0
2348,3363,"Ramona + Second Street @ Asm Of God",,33.786650,-116.962065,,,,,,0
2349,3364,"Ramona + Tahquitz",,33.788701,-116.964532,,,,,,0
235,1108,"Cal Baptist University",,33.930309,-117.429284,,,,,,0
2350,3365,"Ramona + Tiger",,33.790912,-116.967225,,,,,,0
2351,3366,"Ramona + State",,33.793646,-116.970547,,,,,,0
2352,3367,"San Jacinto + Esplande",,33.773230,-116.958670,,,,,,0
2353,3368,"Case Rd @ Perris Crossing",,33.744291,-117.190867,,,,,,0
2354,3642,"Perris Crossing Shopping Center",,33.746280,-117.190592,,,,,,0
2356,3371,"Chambers + Grosse Point",,33.721645,-117.193349,,,,,,0
2357,3372,"Sun City + McCall",,33.714760,-117.194123,,,,,,0
2358,3373,"Sun City + Chambers",,33.721173,-117.192917,,,,,,0
2359,3374,"Chambers + Grosse Point",,33.721517,-117.202299,,,,,,0
236,1109,"Magnolia + Monroe",,33.928721,-117.432121,,,,,,0
2360,3375,"Murrieta + Chambers",,33.721727,-117.206168,,,,,,0
2361,3376,"La Piedra + Bayport",,33.675692,-117.158257,,,,,,0
2362,3377,"Simpson + Winchester",,33.707102,-117.084520,,,,,,0
2363,3378,"Mustang + Creekside",,33.717588,-117.017805,,,,,,0
2364,3379,"Mustang + Cawston",,33.717600,-117.014897,,,,,,0
2365,3380,"Mustang + Rexford",,33.719897,-117.011870,,,,,,0
2366,3381,"Mustang + Sanderson @ HS",,33.720696,-117.007591,,,,,,0
2367,3382,"Sanderson + Stetson",,33.730357,-117.006561,,,,,,0
2368,3383,"Sanderson + Florida",,33.745544,-117.006557,,,,,,0
2369,3385,"Ramona + Tiger",,33.790543,-116.967096,,,,,,0
237,1110,"Magnolia + Overland",,33.927078,-117.434970,,,,,,0
2370,3386,"Ramona + Tahquitz",,33.788509,-116.964640,,,,,,0
2372,3387,"San Jacinto + Esplanade",,33.774035,-116.958939,,,,,,0
2373,3388,"Oakland + State",,33.754851,-116.971001,,,,,,0
2374,3389,"Oakland + Hamilton",,33.754767,-116.982810,,,,,,0
2375,3390,"Lyon + Oakland",,33.754400,-116.989280,,,,,,0
2376,3392,"Antelope + La Piedra",,33.677482,-117.170224,,,,,,0
2377,3882,"Bradley + Pinehurst",,33.697660,-117.188514,,,,,,0
2379,3393,"Sanderson + Florida @ See's Candy",,33.745653,-117.006783,,,,,,0
2380,3394,"Sanderson + Stetson @ Walmart",,33.727100,-117.006822,,,,,,0
2381,3395,"Mustang + Sanderson @ HS",,33.720876,-117.007250,,,,,,0
2382,3396,"Mustang + Rexford",,33.719610,-117.012356,,,,,,0
2383,3397,"Mustang + Cawston",,33.717780,-117.015622,,,,,,0
2384,3398,"Mustang + Creekside",,33.717768,-117.018417,,,,,,0
2385,3399,"Mustang + Fischer",,33.717723,-117.023409,,,,,,0
2386,3400,"Simpson + Winchester",,33.707302,-117.084267,,,,,,0
2387,3401,"Main + Mercedes @ City Hall",,33.494309,-117.148149,,,,,,0
2388,3402,"Pujol + First",,33.489721,-117.148556,,,,,,0
2389,3403,"Main + Mercedes @ City Hall",,33.494005,-117.147742,,,,,,0
239,1112,"Magnolia + Jackson",,33.924511,-117.439486,,,,,,0
2390,3404,"Ynez + Overland",,33.520312,-117.156407,,,,,,0
2391,3613,"Overland + Ynez",,33.519973,-117.157072,,,,,,0
2392,3405,"Winchester + Technology Dr",,33.561540,-117.138230,,,,,,0
2393,3406,"Murrieta Hot Springs + Winchester",,33.552450,-117.140000,,,,,,0
2394,3407,"Technology Dr + Sky Canyon Dr",,33.560418,-117.136613,,,,,,0
2395,3408,"Technology Dr + Winchester",,33.560560,-117.138200,,,,,,0
2396,3409,"Murrieta Hot Springs + Sky Canyon Dr",,33.552590,-117.137840,,,,,,0
2397,3411,"Southwest Justice Center",,33.582537,-117.120649,,,,,,0
2398,3412,"Temeku + Benton",,33.590337,-117.123407,,,,,,0
2399,3413,"Magdas Coloradas + Temeku",,33.590320,-117.123959,,,,,,0
24,1408,"Lincoln + Monroe",,33.916473,-117.421218,,,,,,0
240,1113,"Magnolia + Donald",,33.923435,-117.441386,,,,,,0
2400,3414,"Thompson + Leon Rd",,33.597262,-117.116251,,,,,,0
2401,3415,"Algarve + Cloche",,33.602460,-117.108143,,,,,,0
2402,3416,"Pourroy + Winchester Rd",,33.614889,-117.103339,,,,,,0
2403,3417,"Winchester + Pourroy Rd",,33.615519,-117.103334,,,,,,0
2404,3418,"Cloche + Algarve Ave",,33.601964,-117.108914,,,,,,0
2405,3419,"Thompson + Breitner",,33.598062,-117.113903,,,,,,0
2406,3420,"Winchester + Hunter",,33.568710,-117.136831,,,,,,0
2407,3421,"Promenade Mall @ Parking Structure",,33.523720,-117.151933,,,,,,0
2408,1272,"Mission Trail + Hidden Trail",,33.648268,-117.294764,,,,,,0
2409,1273,"Mission Trail + Sedco",,33.644945,-117.293224,,,,,,0
2410,1274,"Mission Trail + Olive",,33.641834,-117.291458,,,,,,0
2411,1275,"Mission Trail + Vine",,33.639405,-117.291055,,,,,,0
2412,1276,"Mission Trail + Lewis",,33.636789,-117.290919,,,,,,0
2413,1277,"Mission Trail + Corydon",,33.631980,-117.290700,,,,,,0
2414,1278,"Mission Trail + Bundy Canyon",,33.627303,-117.290433,,,,,,0
2415,1279,"Mission Trail + Canyon @ Library",,33.623473,-117.290249,,,,,,0
2416,1280,"Mission Trail + Como",,33.617384,-117.289892,,,,,,0
2417,1281,"Palomar + Mission Trail",,33.613566,-117.288773,,,,,,0
2418,1282,"Palomar + Wesley",,33.610510,-117.283817,,,,,,0
2419,1283,"Palomar + Gruwell",,33.606150,-117.276801,,,,,,0
242,1115,"Magnolia + Castleman",,33.921577,-117.444640,,,,,,0
2420,1284,"Palomar + Central",,33.604111,-117.273549,,,,,,0
2421,1285,"Wildomar Assisted Living",,33.603088,-117.268005,,,,,,0
2422,1286,"Palomar + South Pasadena",,33.601234,-117.269170,,,,,,0
2423,1287,"Palomar + Arnold",,33.597549,-117.263856,,,,,,0
2424,1288,"Catt + Palomar",,33.595590,-117.260800,,,,,,0
2425,1289,"Catt + Hidden Springs",,33.597733,-117.248447,,,,,,0
2426,1290,"Palomar + Catt Rd",,33.595720,-117.260950,,,,,,0
2427,1291,"Hidden Springs + Catt",,33.596875,-117.248384,,,,,,0
2428,1292,"Central + Palomar",,33.603214,-117.273431,,,,,,0
2429,1293,"Central + Dunn",,33.599467,-117.276729,,,,,,0
243,1116,"Magnolia + Skofstad",,33.904412,-117.474921,,,,,,0
2430,1294,"Grand + Central",,33.597870,-117.278160,,,,,,0
2431,1295,"Grand + Gruwell",,33.600064,-117.281686,,,,,,0
2432,1296,"Grand + Celeste",,33.602779,-117.286018,,,,,,0
2433,1297,"Grand + Wesley",,33.604335,-117.288526,,,,,,0
2434,1299,"Grand + Sheila",,33.608930,-117.295948,,,,,,0
2435,1300,"Grand + Bryant",,33.611279,-117.299729,,,,,,0
2436,1301,"Grand + Corydon",,33.615782,-117.306956,,,,,,0
2437,1302,"Grand + First Assembly Church",,33.618429,-117.311223,,,,,,0
2438,1303,"Grand + Ontario",,33.622259,-117.317408,,,,,,0
2439,1304,"Grand + Stoneman",,33.624250,-117.320700,,,,,,0
244,1117,"Magnolia + La Sierra",,33.903327,-117.476880,,,,,,0
2440,1305,"Grand + Lakeland Middle School",,33.626661,-117.324486,,,,,,0
2441,1306,"Grand + Moose Lodge",,33.628014,-117.326729,,,,,,0
2442,1307,"Grand + Vail",,33.632466,-117.333908,,,,,,0
2443,1308,"Grand + Wood",,33.634842,-117.337772,,,,,,0
2444,1309,"Grand + Case",,33.636728,-117.340820,,,,,,0
2445,1310,"Grand + Baldwin",,33.638653,-117.343932,,,,,,0
2446,1311,"Grand + Blackwell",,33.640047,-117.346212,,,,,,0
2447,1312,"Grand + Adelfa",,33.643619,-117.351957,,,,,,0
2448,1313,"Grand + Lea Mini Mart",,33.645072,-117.354296,,,,,,0
2449,1314,"Grand + Garner",,33.648654,-117.360099,,,,,,0
245,1118,"Magnolia + Golden",,33.901073,-117.480809,,,,,,0
2450,1315,"Grand + Ethlene",,33.654362,-117.369304,,,,,,0
2451,1316,"Grand + Morro",,33.657071,-117.373728,,,,,,0
2452,1317,"Grand + Ortega Hwy",,33.658420,-117.375900,,,,,,0
2453,1318,"Grand + Macy",,33.660926,-117.379930,,,,,,0
2454,1319,"Grand + Riverside",,33.662825,-117.382984,,,,,,0
2455,1320,"Riverside + Lakeside High School",,33.667595,-117.381728,,,,,,0
2456,1321,"Riverside + Eisenhower",,33.672342,-117.377490,,,,,,0
2457,1322,"Lincoln + Riverside",,33.676692,-117.374607,,,,,,0
2458,1323,"Lincoln + Via Cordova",,33.679392,-117.378800,,,,,,0
2459,1324,"Machado + Joy",,33.684222,-117.377892,,,,,,0
246,1119,"Magnolia + Fillmore",,33.899185,-117.484140,,,,,,0
2460,1325,"Lakeshore + Viscaya",,33.685795,-117.368954,,,,,,0
2461,1326,"Lakeshore + Viscaya",,33.686317,-117.369320,,,,,,0
2462,1327,"Machado + Parkview",,33.685519,-117.376959,,,,,,0
2463,1328,"Lincoln + Lake Meadow",,33.679119,-117.378589,,,,,,0
2464,1329,"Lincoln + Flannery",,33.677135,-117.375510,,,,,,0
2467,1332,"Machado + Lincoln",,33.680937,-117.380838,,,,,,0
2468,1333,"Lakeshore + Machado",,33.688626,-117.373451,,,,,,0
247,1120,"Magnolia + Pierce",,33.894961,-117.491584,,,,,,0
2472,1337,"Clinton Keith + George",,33.597710,-117.240720,,,,,,0
2473,1338,"Inland Valley Dr + 36485 Hospital",,33.593037,-117.236713,,,,,,0
2474,1339,"Clinton Keith + George",,33.597840,-117.241060,,,,,,0
2475,1340,"Palomar + Arnold",,33.597784,-117.263987,,,,,,0
2476,1341,"Palomar + South Pasadena",,33.601438,-117.269127,,,,,,0
2477,1342,"Inland Valley Dr @ 36485 Hospital",,33.590700,-117.236840,,,,,,0
2478,1343,"Riverside + Eisenhower",,33.671723,-117.378275,,,,,,0
2479,1344,"Riverside + Lakeside High",,33.667973,-117.381671,,,,,,0
2480,1345,"Grand + Riverside",,33.662878,-117.383405,,,,,,0
2481,4493,"Grand + Jamieson",,33.662467,-117.382650,,,,,,0
2482,1346,"Grand + Macy",,33.660787,-117.380021,,,,,,0
2483,1347,"Grand + Ortega Hwy",,33.657790,-117.375219,,,,,,0
2484,1348,"Grand + Shoreline",,33.656435,-117.372998,,,,,,0
2485,1349,"Grand + Sangston",,33.653946,-117.368983,,,,,,0
2486,1350,"Grand + Garner",,33.648326,-117.359841,,,,,,0
2487,1351,"Grand + Buena Vista",,33.646530,-117.356966,,,,,,0
2488,1352,"Grand + Leas Mini Mart",,33.644943,-117.354463,,,,,,0
2489,1353,"Grand + Adelfa",,33.643260,-117.351620,,,,,,0
2490,1354,"Grand + Maiden Lane",,33.641340,-117.348550,,,,,,0
2491,1355,"Grand + Blackwell",,33.639720,-117.346070,,,,,,0
2492,1356,"Grand + Baldwin",,33.638492,-117.344002,,,,,,0
2493,1357,"Grand + Case",,33.636457,-117.340677,,,,,,0
2494,1358,"Grand + Wood",,33.634759,-117.337971,,,,,,0
2495,1359,"Grand + Vail",,33.632052,-117.333623,,,,,,0
2496,1360,"Grand + Moose Lodge",,33.627795,-117.326715,,,,,,0
2497,1361,"Grand + American Legion",,33.625445,-117.322911,,,,,,0
2498,1362,"Grand + Stoneman",,33.623915,-117.320437,,,,,,0
2499,1363,"Grand + Ontario",,33.622091,-117.317517,,,,,,0
25,1409,"Lincoln + Gratton",,33.918563,-117.417560,,,,,,0
2500,1364,"Grand + Borchard",,33.620913,-117.315645,,,,,,0
2501,1365,"Grand + Arbolado",,33.618338,-117.311433,,,,,,0
2502,1366,"Grand + Danny",,33.617052,-117.309322,,,,,,0
2503,1367,"Grand + Corydon",,33.615710,-117.307166,,,,,,0
2504,1368,"Grand + Batson",,33.612128,-117.301406,,,,,,0
2505,4494,"Grand + Verde Mesa",,33.610081,-117.298139,,,,,,0
2506,1369,"Grand + Hixon",,33.606699,-117.292622,,,,,,0
2507,1370,"Grand + Wesley",,33.604255,-117.288691,,,,,,0
2508,1371,"Grand + Celeste",,33.602750,-117.286234,,,,,,0
2509,1372,"Grand + Gruwell",,33.600047,-117.281913,,,,,,0
251,1123,"Magnolia + Wildwood",,33.883628,-117.511466,,,,,,0
2510,1373,"Grand + Central",,33.598067,-117.278794,,,,,,0
2511,1374,"Central + Dunn",,33.599323,-117.276707,,,,,,0
2512,1375,"Central + Palomar",,33.602513,-117.273855,,,,,,0
2513,1376,"Palomar + Central",,33.604151,-117.273268,,,,,,0
2514,1377,"Palomar 21392 + Post Office",,33.605469,-117.275405,,,,,,0
2515,1378,"Palomar + Wesley",,33.610345,-117.283333,,,,,,0
2516,1379,"Palomar + Mission Trail",,33.613664,-117.288662,,,,,,0
2517,1380,"Mission Trail + Como",,33.618050,-117.289730,,,,,,0
2518,1381,"Mission Trail + Canyon",,33.623505,-117.290018,,,,,,0
2519,1382,"Mission Trail + Bundy Canyon",,33.627225,-117.290196,,,,,,0
252,1124,"Magnolia + McKinley",,33.881792,-117.514697,,,,,,0
2520,1383,"Mission Trail + Waite",,33.631328,-117.290401,,,,,,0
2521,1384,"Mission Trail + Lewis",,33.637198,-117.290745,,,,,,0
2522,1385,"Mission Trail + Vine",,33.639450,-117.290865,,,,,,0
2523,1386,"Mission Trail + Olive",,33.641858,-117.291224,,,,,,0
2524,1387,"Mission Trail + Sedco",,33.645315,-117.293197,,,,,,0
2525,1388,"Mission Trail + Elberta",,33.648700,-117.294660,,,,,,0
2526,3432,"Gentian + Fronterra",,33.895455,-117.214626,,,,,,0
2527,3433,"Gentian + La Cresta",,33.895443,-117.209943,,,,,,0
2528,3434,"JFK + Lasselle",,33.902920,-117.211633,,,,,,0
2529,3435,"JFK + Rio Grande",,33.902951,-117.214210,,,,,,0
253,1125,"Magnolia + Corona Palms",,33.879841,-117.518112,,,,,,0
2530,3436,"Lasselle + Margaret",,33.899869,-117.208745,,,,,,0
2531,3437,"Perris + JFK",,33.903506,-117.226151,,,,,,0
2532,3438,"Perris + Delphinium",,33.906945,-117.226174,,,,,,0
2533,3439,"Perris + Cactus",,33.910442,-117.226193,,,,,,0
2534,3440,"Perris + Brodiaea",,33.913999,-117.226194,,,,,,0
2536,3442,"Cottonwood + Moreno Way",,33.924649,-117.230194,,,,,,0
2537,3443,"Cottonwood + Jo Ann",,33.924673,-117.232202,,,,,,0
2538,3444,"Cottonwood + Indian",,33.924649,-117.234147,,,,,,0
2539,3445,"Cottonwood + Bion",,33.924637,-117.237107,,,,,,0
254,1126,"Magnolia + Grant",,33.878115,-117.521110,,,,,,0
2540,3446,"Cottonwood + Dilbeck",,33.924631,-117.240077,,,,,,0
2541,3447,"Cottonwood + Heacock",,33.924656,-117.242850,,,,,,0
2542,3448,"Cottonwood + Running Deer",,33.924624,-117.245940,,,,,,0
2543,3449,"Cottonwood + Festival",,33.924613,-117.249031,,,,,,0
2544,3450,"Cottonwood + Graham",,33.924600,-117.252878,,,,,,0
2545,3451,"Towngate + Frederick",,33.935399,-117.261876,,,,,,0
2546,3452,"Heritage + Towngate",,33.935652,-117.265912,,,,,,0
2547,3453,"Pigeon Pass + Climbing Rose",,33.948431,-117.261397,,,,,,0
2548,3454,"Pigeon Pass + Sonnet",,33.955456,-117.260470,,,,,,0
2549,3455,"Pigeon Pass + Cougar Canyon",,33.961698,-117.261394,,,,,,0
255,1127,"Magnolia + Ellis",,33.876273,-117.524374,,,,,,0
2550,3456,"Pigeon Pass + Old Lake",,33.966886,-117.261416,,,,,,0
2551,3457,"Sunnymead Ranch + Old Lake",,33.969506,-117.253137,,,,,,0
2552,3458,"Sunnymead Ranch + Village Rd N",,33.967197,-117.250645,,,,,,0
2553,3459,"Sunnymead Ranch + Village Rd S",,33.965286,-117.248347,,,,,,0
2554,3460,"Sunnymead Ranch + Perris",,33.967744,-117.233850,,,,,,0
2555,3461,"Perris + Manzanita",,33.964249,-117.230553,,,,,,0
2556,3462,"Manzanita + Indian",,33.961309,-117.236211,,,,,,0
2557,3463,"Manzanita + Heacock",,33.961296,-117.242134,,,,,,0
2558,3464,"Sunnymead Ranch + Village",,33.967067,-117.250185,,,,,,0
2559,3465,"Pigeon Pass + Cougar Canyon",,33.960609,-117.261619,,,,,,0
256,1128,"Sixth + Temescal",,33.874239,-117.528823,,,,,,0
2560,3466,"Pigeon Pass + Western Ridge",,33.955614,-117.260805,,,,,,0
2561,3467,"JFK + Rio Grande",,33.902722,-117.213022,,,,,,0
2562,3468,"JFK + Thyme",,33.902732,-117.210555,,,,,,0
2563,3469,"Gentian + Lasselle",,33.895601,-117.209503,,,,,,0
2564,3470,"Gentian + Hugo",,33.895626,-117.211606,,,,,,0
2565,3471,"Gentian + Casa Grande",,33.895604,-117.214135,,,,,,0
2567,3472,"Frederick + Towngate",,33.934411,-117.261558,,,,,,0
2568,3473,"Frederick + Eucalyptus",,33.931324,-117.261513,,,,,,0
2569,3474,"Frederick + Dracaea",,33.927686,-117.261305,,,,,,0
257,1129,"Sixth + Promenade",,33.873818,-117.532688,,,,,,0
2570,3475,"Cottonwood + Graham",,33.924447,-117.252036,,,,,,0
2571,3476,"Cottonwood + Rundell",,33.924452,-117.248525,,,,,,0
2572,3477,"Cottonwood + Rockcrest",,33.924460,-117.246079,,,,,,0
2573,3478,"Cottonwood + Heacock",,33.924447,-117.241159,,,,,,0
2574,4038,"Cottonwood + Dilbeck",,33.924492,-117.238924,,,,,,0
2575,3479,"Cottonwood + Bion",,33.924493,-117.237387,,,,,,0
2576,3480,"Cottonwood + Indian",,33.924503,-117.234568,,,,,,0
2577,3481,"Cottonwood + Jo Ann",,33.924473,-117.232445,,,,,,0
2578,3482,"Cottonwood + Moreno Way",,33.924479,-117.228752,,,,,,0
2579,3483,"Perris + Alessandro",,33.916061,-117.226483,,,,,,0
258,1130,"Sixth + Radio",,33.874336,-117.542288,,,,,,0
2580,3484,"Perris + Brodiaea",,33.913399,-117.226473,,,,,,0
2581,3485,"Perris + Cactus",,33.909362,-117.226443,,,,,,0
2582,3486,"Perris + Delphinium",,33.905981,-117.226446,,,,,,0
2583,3487,"Lasselle + JFK",,33.902501,-117.209021,,,,,,0
2585,3369,"Murrieta + Chambers",,33.722053,-117.206344,,,,,,0
2587,3515,"Hunter Park Metrolink Station",,33.998726,-117.335045,,,,,,0
2588,3516,"Rustin + Marlborough",,33.993660,-117.335536,,,,,,0
2589,3533,"Sunnymead Ranch + Via Del Norte",,33.975654,-117.258246,,,,,,0
259,1131,"Sixth + El Sobrante",,33.874469,-117.545665,,,,,,0
2590,3534,"Sunnymead Ranch + Pigeon Pass",,33.975561,-117.261035,,,,,,0
2591,3519,"Sunnymead Ranch + Old Lake",,33.969930,-117.253270,,,,,,0
2592,3633,"Moreno Valley March Field Sta",,33.912758,-117.288587,,,,,,0
2593,3634,"N. Temescal Cyn. + Fashion",,33.810031,-117.504569,,,,,,0
2594,3635,"S. Temescal Cyn. + Fashion",,33.809145,-117.504761,,,,,,0
2595,2362,"Chicago + Ransom",,33.947880,-117.347730,,,,,,0
2596,2365,"Chicago + Central",,33.956130,-117.346310,,,,,,0
2597,3528,"Tenth + Belle",,33.871610,-117.569667,,,,,,0
2598,3529,"Tenth + Merrill",,33.871843,-117.571745,,,,,,0
2599,3530,"Grand + Eighth",,33.874277,-117.573845,,,,,,0
26,1410,"Lincoln + Adams",,33.921175,-117.412940,,,,,,0
260,1132,"Sixth + Rimpau",,33.874646,-117.552913,,,,,,0
2600,3531,"Grand + Belle",,33.881611,-117.567776,,,,,,0
2601,3532,"Scholar Way + Savannah",,33.984547,-117.567087,,,,,,0
261,1133,"Sixth at City Park",,33.874641,-117.556674,,,,,,0
262,1134,"Sixth + Victoria",,33.875160,-117.563385,,,,,,0
263,1135,"Sixth + Belle",,33.875780,-117.569161,,,,,,0
264,1136,"Sixth + Vicentia",,33.876516,-117.575640,,,,,,0
2647,9994,"Test Stop 1",,33.733658,-117.012902,,,,,,0
2648,9995,"Test Stop 5",,33.734793,-117.009897,,,,,,0
2649,3538,"Spruce + Rustin",,33.990240,-117.335675,,,,,,0
265,1137,"Sixth + Buena Vista",,33.876760,-117.578224,,,,,,0
2650,3547,"Pigeon Pass + Climbing Rose",,33.949534,-117.261525,,,,,,0
2651,3544,"Third St F\S Hamner at Norco",,33.916974,-117.562367,,,,,,0
266,1138,"Sixth + Lincoln",,33.877359,-117.583657,,,,,,0
267,1139,"Sixth + Sherman",,33.877935,-117.589218,,,,,,0
268,1140,"Sixth + Smith",,33.878258,-117.592269,,,,,,0
269,1141,"Smith + Sixth",,33.879679,-117.594152,,,,,,0
2692,3527,"South Perris Station",,33.763510,-117.203406,,,,,,0
27,1411,"Lincoln + Saint Lawrence",,33.922792,-117.410097,,,,,,0
270,1142,"Pomona + Maple",,33.882912,-117.603681,,,,,,0
271,1143,"Mission Inn + Comer",,33.977303,-117.361220,,,,,,0
272,1144,"University + Eucalyptus",,33.975677,-117.360135,,,,,,0
273,1145,"University + Victoria",,33.976425,-117.362445,,,,,,0
2736,1020,"Magnolia + Lincoln",,33.886182,-117.506301,,,,,,0
2737,1021,"Magnolia + Buchanan",,33.890842,-117.498109,,,,,,0
2738,1121,"Magnolia + Buchanan",,33.890648,-117.499122,,,,,,0
2739,4566,"Magnolia + Lincoln",,33.886517,-117.506409,,,,,,0
274,1146,"University + Park",,33.977704,-117.365196,,,,,,0
2740,1871,"Perris + Eucalyptus",,33.931383,-117.226445,,,,,,0
2741,4375,"Clay + Linares",,33.971379,-117.462107,,,,,,0
2742,4376,"Clay + Haven View",,33.975605,-117.462113,,,,,,0
2743,4384,"Clay + Limonite",,33.975808,-117.462303,,,,,,0
2744,4385,"Clay Opp. Douglas Burger",,33.971221,-117.462294,,,,,,0
2745,3549,"Limonite + Pedley",,33.975452,-117.469317,,,,,,0
2746,777,"Training Code 1",,33.959993,-117.274515,,,,,,0
2747,7777,"Training Code 2",,33.984365,-117.288666,,,,,,0
2748,888,"Bus exchange and specials 1",,33.959062,-117.282402,,,,,,0
2749,8888,"Bus exchange and specials 2",,33.983296,-117.305403,,,,,,0
275,1147,"Market + Tenth",,33.980783,-117.377020,,,,,,0
2750,1643,"14th + Victoria",,33.970462,-117.365457,,,,,,0
2751,1535,"Grand + Mountain View",,33.960920,-117.417808,,,,,,0
276,1148,"Orange + Tenth",,33.979616,-117.374535,,,,,,0
277,1149,"Market + 12th",,33.978905,-117.378280,,,,,,0
278,1150,"Orange + 12th",,33.977386,-117.376022,,,,,,0
2795,3553,"Horace + Belhaven",,33.942041,-117.377338,,,,,,0
2796,3554,"Lincoln + S Cary",,33.924320,-117.407540,,,,,,0
2797,4012,"Lincoln + Saint Lawrence",,33.922604,-117.410760,,,,,,0
2798,3555,"Frederick + Resource",,33.912299,-117.261210,,,,,,0
2799,3522,"Nason + Brodiaea",,33.913410,-117.191620,,,,,,0
28,1412,"Lincoln + Jefferson",,33.924880,-117.406387,,,,,,0
280,1152,"Magnolia + Larchwood",,33.969636,-117.386115,,,,,,0
2800,3557,"Perris + Rider",,33.829840,-117.225950,,,,,,0
2801,3556,"Sunnymead Ranch + Old Country Road",,33.964552,-117.241260,,,,,,0
2802,3561,"Sunnymead Ranch + Old Country Road",,33.965597,-117.238283,,,,,,0
2804,3491,"University + Market",,33.982169,-117.374781,,,,,,0
2805,3496,"Vine St Layover",,33.975961,-117.371010,,,,,,0
2806,3501,"University + Lemon",,33.981062,-117.372406,,,,,,0
2813,3514,"Galleria @ Tyler WB",,33.913070,-117.459706,,,,,,0
282,1154,"Magnolia + Bandini",,33.965960,-117.388539,,,,,,0
2822,3490,"Orange + University",,33.981072,-117.373579,,,,,,0
2824,3503,"Market + Tenth",,33.980384,-117.376985,,,,,,0
2825,3574,"University + Market",,33.982222,-117.375379,,,,,,0
2826,3489,"Lemon + University",,33.981070,-117.371917,,,,,,0
2827,3498,"Vine St Layover",,33.976060,-117.370962,,,,,,0
2828,3499,"Vine St Layover",,33.976061,-117.370962,,,,,,0
2830,3502,"Market + 10th",,33.980368,-117.376996,,,,,,0
2831,3504,"Market + Sixth",,33.984830,-117.374338,,,,,,0
2832,3506,"Brockton + University",,33.983903,-117.379469,,,,,,0
2833,3513,"Galleria at Tyler EB",,33.912851,-117.459393,,,,,,0
2834,3575,"Market + University",,33.982704,-117.375441,,,,,,0
2835,3576,"University + Market",,33.982816,-117.376190,,,,,,0
2836,3577,"Vine St Layover",,33.976248,-117.370783,,,,,,0
2837,3824,"Market + Fourth",,33.986647,-117.373090,,,,,,0
2838,4603,"Evans + Anira Court",,33.854369,-117.208550,,,,,,0
2839,1267,"Chaney + Education",,33.682660,-117.336020,,,,,,0
284,1156,"Magnolia + Rosewood",,33.962816,-117.390637,,,,,,0
2840,1298,"Grand + Hixon",,33.606803,-117.292547,,,,,,0
2841,1978,"Nason + Dracaea",,33.927775,-117.191774,,,,,,0
2842,1979,"Nason + Cottonwood",,33.924336,-117.191609,,,,,,0
2843,2958,"State + Idyllwild",,33.800364,-116.972161,,,,,,0
2844,3391,"San Jacinto + Sixth",,33.781890,-116.958930,,,,,,0
2845,3493,"Vine St Layover",,33.976111,-117.370910,,,,,,0
2846,3494,"Vine St Layover",,33.976162,-117.370883,,,,,,0
2847,3517,"Meridian + Cactus",,33.907960,-117.287340,,,,,,0
2848,3518,"Meridian + Opportunity Way",,33.893580,-117.280470,,,,,,0
2849,3521,"Nason + Dracaea",,33.929374,-117.191402,,,,,,0
285,1157,"Magnolia at Brockton Arcade",,33.950914,-117.398217,,,,,,0
2850,3535,"Corporate Centre + Campus",,33.938280,-117.284470,,,,,,0
2851,3540,"Perris + Fourth",,33.782510,-117.225980,,,,,,0
2853,3545,"Sanderson + Wentworth",,33.736459,-117.006734,,,,,,0
2854,3548,"Sanderson + Wentworth",,33.735879,-117.006605,,,,,,0
2855,3550,"Eastridge + Sycamore Canyon",,33.931129,-117.294881,,,,,,0
2856,3551,"Eastridge + Box Springs",,33.931463,-117.292704,,,,,,0
2857,3552,"Sanderson + Thornton",,33.725801,-117.006512,,,,,,0
2858,3559,"Redlands + Jarvis",,33.791780,-117.217515,,,,,,0
2859,3560,"Redlands + Jarvis",,33.792340,-117.217304,,,,,,0
286,1158,"Magnolia + Jurupa",,33.960290,-117.392338,,,,,,0
2860,3562,"Perris + Orange",,33.815370,-117.225982,,,,,,0
2861,3563,"Orange + Redlands",,33.815552,-117.216824,,,,,,0
2862,3564,"Orange Vista High School",,33.815674,-117.197139,,,,,,0
2863,3565,"Sherman + Walnut",,33.828474,-117.182496,,,,,,0
2864,3566,"Rider + Sherman",,33.830380,-117.183517,,,,,,0
2865,3567,"Rider + Bradley",,33.830343,-117.190540,,,,,,0
2866,3568,"Morgan + Bradley",,33.837563,-117.192195,,,,,,0
2867,3569,"May Ranch + Morgan",,33.837454,-117.197577,,,,,,0
2868,3570,"Evans + Old Evans",,33.825127,-117.200592,,,,,,0
2869,3571,"Evans + Citrus",,33.809627,-117.199814,,,,,,0
287,1159,"Magnolia + Elizabeth",,33.959154,-117.393060,,,,,,0
2870,3572,"Orange + Redlands",,33.815770,-117.217955,,,,,,0
2871,3573,"Orange + Perris",,33.815745,-117.224403,,,,,,0
2872,3636,"Corporate Centre + Valley Springs Pkwy",,33.936710,-117.286630,,,,,,0
2873,3637,"Campus Pkwy + Corporate Centre",,33.938290,-117.283670,,,,,,0
2874,3638,"Campus Pkwy + Day",,33.937670,-117.279890,,,,,,0
2875,3639,"Valley Springs Pkwy + Corporate Centre",,33.936270,-117.287090,,,,,,0
2876,3919,"10th + Main City Hall",,33.979905,-117.375477,,,,,,0
2877,4089,"Nason + Alessandro",,33.917830,-117.191419,,,,,,0
288,1160,"Magnolia + Beatty",,33.955291,-117.395476,,,,,,0
29,1413,"Lincoln + Grace",,33.926990,-117.402729,,,,,,0
291,1163,"Magnolia + Van Buren",,33.920290,-117.446954,,,,,,0
2912,3370,"Murrieta + Chambers",,33.721371,-117.201534,,,,,,0
2913,3520,"UCR Lot 30 + Canyoncrest",,33.970182,-117.332085,,,,,,0
2914,3536,"Newport + Berea",,33.683771,-117.214369,,,,,,0
2915,3537,"Newport + Murphy Ranch",,33.683506,-117.214291,,,,,,0
2916,3543,"Newport + Goetz",,33.677359,-117.234182,,,,,,0
2917,3558,"Sky Canyon + Technology",,33.560050,-117.136350,,,,,,0
2918,4308,"Devonshire Senior Apartments",,33.751086,-117.000347,,,,,,0
2919,Empire Test 1,"Empire Test 1",,33.773371,-117.223729,,,,,,0
292,1164,"Magnolia + Roosevelt",,33.919288,-117.448673,,,,,,0
2920,Empire Test 2,"Empire Test 2",,33.767712,-117.223783,,,,,,0
2921,Empire Test 3,"Empire Test 3",,33.764909,-117.225419,,,,,,0
2922,Empire Test 4,"Empire Test 4",,33.764869,-117.229794,,,,,,0
2923,Empire Test 5,"Empire Test 5",,33.765293,-117.230867,,,,,,0
2925,1208,"Main + Sixth",,33.874838,-117.567435,,,,,,0
2926,4498,"Pierce + La Sierra",,33.919041,-117.489111,,,,,,0
2927,4604,"Grand + Lakeland Village Community Center",,33.651115,-117.364433,,,,,,0
2928,4605,"UCR at Bannockburn Village",,33.978283,-117.331254,,,,,,0
2929,4606,"Magnolia + McKinley",,33.882020,-117.513542,,,,,,0
293,1165,"Magnolia + Harrison",,33.916621,-117.453449,,,,,,0
2930,4608,"Market + 12th",,33.978710,-117.378159,,,,,,0
2931,4609,"Market + 11th",,33.979386,-117.377979,,,,,,0
2932,4610,"RCC Riverside Campus",,33.972274,-117.384292,,,,,,0
2934,4617,"Kaiser Medical Center",,33.905343,-117.473379,,,,,,0
2935,4622,"Magnolia + La Sierra",,33.903780,-117.475338,,,,,,0
294,1166,"Magnolia + Tyler",,33.911587,-117.462302,,,,,,0
2942,4614,"68th + Pats Ranch",,33.964674,-117.546989,,,,,,0
2943,4613,"Pats Ranch + 68th",,33.965049,-117.546061,,,,,,0
2944,4615,"JFK + Heacock",,33.902894,-117.242351,,,,,,0
2945,4616,"Sanderson + Devonshire",,33.750663,-117.006706,,,,,,0
2946,4618,"Barton + Sanderson",,34.048494,-117.261680,,,,,,0
2947,4619,"Center + Mt Vernon",,34.015753,-117.314400,,,,,,0
2948,4620,"Center + Mt Vernon",,34.015550,-117.314919,,,,,,0
2949,4621,"Barton + Campus",,34.048131,-117.264955,,,,,,0
295,1167,"Magnolia + Banbury",,33.909803,-117.465492,,,,,,0
2950,4626,"Sanderson + Thornton",,33.724657,-117.006782,,,,,,0
2951,4611,"Riverside Plaza",,33.955416,-117.395331,,,,,,0
2952,4623,"Magnolia + La Sierra",,33.903452,-117.476655,,,,,,0
2953,4624,"4624",,33.793764,-116.971018,,,,,,0
2954,4625,"4625",,33.786694,-116.962435,,,,,,0
296,1168,"Magnolia + Polk",,33.907984,-117.468652,,,,,,0
298,1170,"Magnolia + Burge",,33.905357,-117.473316,,,,,,0
299,1514,"Indiana + Sayward Circle",,33.891625,-117.481045,,,,,,0
3,1391,"Sierra Vista + Riverwalk",,33.912962,-117.496221,,,,,,0
30,1414,"Lincoln + Beloit",,33.928240,-117.400535,,,,,,0
300,1515,"Indiana + Churchill",,33.893937,-117.476744,,,,,,0
301,1516,"Indiana + La Sierra",,33.896360,-117.472413,,,,,,0
302,1517,"Harrison + Magnolia",,33.918264,-117.452792,,,,,,0
303,1518,"Harrison + County Farm Road",,33.920517,-117.454056,,,,,,0
304,1519,"California + Van Buren",,33.926799,-117.451160,,,,,,0
305,1520,"California + MacArthur",,33.927682,-117.449599,,,,,,0
306,1521,"California + Kingsbury",,33.928997,-117.447261,,,,,,0
307,1522,"California + Jackson",,33.930929,-117.443922,,,,,,0
308,1523,"California + Goodman",,33.932085,-117.441923,,,,,,0
309,1524,"California + Overland",,33.933213,-117.439979,,,,,,0
31,1415,"Lincoln + Madison",,33.930050,-117.397368,,,,,,0
310,1525,"California + Monroe",,33.935157,-117.436439,,,,,,0
311,1526,"California + Shelby",,33.936348,-117.434353,,,,,,0
312,1527,"California + Madrona",,33.937983,-117.431471,,,,,,0
313,1528,"California + Adams",,33.939499,-117.428822,,,,,,0
314,1529,"California + Canterbury",,33.941154,-117.425894,,,,,,0
315,1530,"California + St George",,33.941935,-117.424526,,,,,,0
316,1531,"California + Jefferson",,33.944134,-117.420660,,,,,,0
317,1532,"Streeter + Arlington",,33.946682,-117.418526,,,,,,0
318,1533,"Streeter + Sierra",,33.949952,-117.418507,,,,,,0
319,1534,"Streeter + Central",,33.953073,-117.418547,,,,,,0
32,1416,"Lincoln + Dorlen",,33.931213,-117.395319,,,,,,0
320,4526,"Streeter + Beatty",,33.955617,-117.418531,,,,,,0
323,1536,"Jurupa + Grand",,33.961766,-117.415410,,,,,,0
324,1537,"Jurupa + Meadowbrook",,33.961509,-117.410733,,,,,,0
325,1538,"Jurupa + Tower",,33.961208,-117.405527,,,,,,0
326,1539,"Jurupa + Palm",,33.961086,-117.403243,,,,,,0
327,1540,"Jurupa + Palm",,33.960897,-117.400232,,,,,,0
328,1541,"Jurupa + Magnolia",,33.960850,-117.392986,,,,,,0
329,1542,"Jurupa + Colonial",,33.960898,-117.385670,,,,,,0
33,1417,"Lincoln + Washington",,33.933060,-117.392058,,,,,,0
330,1543,"Olivewood + Bandini",,33.963409,-117.382571,,,,,,0
331,1544,"Olivewood + Panorama",,33.964541,-117.381619,,,,,,0
332,1545,"Olivewood + Brooks @ RCC",,33.967569,-117.378512,,,,,,0
333,4593,"Olivewood + Cridge",,33.969486,-117.376569,,,,,,0
334,1546,"Olivewood + Prospect",,33.971343,-117.376184,,,,,,0
335,1547,"Main + Oakley",,33.997409,-117.364440,,,,,,0
336,1548,"Main + Strong",,34.000339,-117.364149,,,,,,0
337,1549,"Main + Lofton",,34.002285,-117.363983,,,,,,0
338,1550,"Main + Kirkwood",,34.004898,-117.363747,,,,,,0
339,4422,"Main + Columbia",,34.006071,-117.363622,,,,,,0
34,1005,"Sixth + Sherman",,33.877736,-117.589085,,,,,,0
340,1551,"Columbia + Turley",,34.005581,-117.361498,,,,,,0
341,1552,"Orange + Columbia",,34.004447,-117.357671,,,,,,0
342,1553,"Orange + Nash",,34.006695,-117.356145,,,,,,0
343,1554,"Orange + Chase",,34.011167,-117.352650,,,,,,0
344,1555,"Orange + Placentia",,34.016052,-117.350672,,,,,,0
345,1556,"Main + Garner",,34.013940,-117.363200,,,,,,0
346,1557,"Riverwalk + Collett",,33.905478,-117.493790,,,,,,0
347,1558,"Riverwalk + Collett",,33.905785,-117.493627,,,,,,0
348,1559,"Merced + Magnolia",,33.895060,-117.489270,,,,,,0
349,1560,"County Farm Rd + Reynolds Rd",,33.920138,-117.456898,,,,,,0
35,1418,"Lincoln + Mary",,33.935518,-117.387995,,,,,,0
350,1561,"Center + Stephens",,34.016509,-117.344774,,,,,,0
351,1562,"La Cadena + Stephens",,34.014547,-117.343865,,,,,,0
352,1563,"La Cadena + Tolouse",,34.012787,-117.344726,,,,,,0
353,1564,"La Cadena + Chase",,34.007150,-117.348479,,,,,,0
354,1565,"La Cadena + Bowman",,34.004895,-117.349991,,,,,,0
355,1566,"La Cadena + Interchange",,34.002994,-117.351681,,,,,,0
356,1567,"Primer + Columbia",,34.002343,-117.353469,,,,,,0
357,1568,"Columbia + Clark",,34.003346,-117.356240,,,,,,0
358,1569,"Columbia + Orange",,34.004290,-117.358261,,,,,,0
359,1570,"Columbia + Turley",,34.005638,-117.361169,,,,,,0
36,1419,"Lincoln + Ronald",,33.936442,-117.386281,,,,,,0
360,1571,"Main + Kirkwood",,34.005457,-117.363944,,,,,,0
361,1572,"Main + Finly",,34.002515,-117.364215,,,,,,0
362,1573,"Main + Strong",,34.000449,-117.364394,,,,,,0
363,1574,"Main + Stoddard",,33.997536,-117.364652,,,,,,0
364,1575,"Main + Russell",,33.994902,-117.365708,,,,,,0
365,1576,"Olivewood + 14th",,33.974284,-117.374994,,,,,,0
366,1577,"Olivewood + Prospect",,33.971575,-117.376399,,,,,,0
367,1578,"Olivewood + City College Drive",,33.967427,-117.378863,,,,,,0
368,1579,"Olivewood + Ramona",,33.963675,-117.382548,,,,,,0
369,4426,"Jurupa + Brockton",,33.960820,-117.396168,,,,,,0
37,1420,"Lincoln + Jane",,33.937534,-117.384170,,,,,,0
370,1580,"Jurupa + Palm",,33.961010,-117.399501,,,,,,0
371,1581,"Jurupa @ Magnolia Court",,33.961236,-117.402982,,,,,,0
372,1582,"Jurupa + Tower",,33.961404,-117.406069,,,,,,0
373,1583,"Jurupa + Meadowbrook",,33.961663,-117.410696,,,,,,0
374,1584,"Jurupa + Grand",,33.961901,-117.414823,,,,,,0
375,1585,"Grand + Jurupa",,33.961489,-117.417028,,,,,,0
376,4500,"Streeter + Benecia",,33.959380,-117.418725,,,,,,0
377,4502,"Streeter + Walter",,33.954601,-117.418726,,,,,,0
378,1586,"Streeter + Central",,33.953135,-117.418728,,,,,,0
379,1587,"Streeter + Sierra",,33.949908,-117.418728,,,,,,0
38,1421,"Lincoln + Maude",,33.939875,-117.380055,,,,,,0
380,1588,"Streeter + Arlington",,33.946405,-117.418711,,,,,,0
381,1589,"California + Jefferson",,33.943374,-117.422260,,,,,,0
382,1590,"California + St George",,33.942287,-117.424185,,,,,,0
383,1591,"California + Canterbury",,33.941029,-117.426472,,,,,,0
384,1592,"California + Adams",,33.939185,-117.429670,,,,,,0
385,1593,"California + Madrona",,33.938090,-117.431614,,,,,,0
386,1594,"California + Shelby",,33.936720,-117.434073,,,,,,0
387,1595,"California + Monroe",,33.934854,-117.437270,,,,,,0
388,1596,"California + Lido",,33.933316,-117.439992,,,,,,0
389,1597,"California + Wheeler",,33.931860,-117.442539,,,,,,0
39,1422,"Lincoln + Horace",,33.941097,-117.377893,,,,,,0
390,1598,"California + Jackson",,33.930709,-117.444637,,,,,,0
391,1599,"California + Kingsbury",,33.928880,-117.447858,,,,,,0
392,1600,"California + MacArthur",,33.927951,-117.449455,,,,,,0
393,1601,"California + Van Buren",,33.926466,-117.452125,,,,,,0
394,1602,"Harrison + County Farm Road",,33.920572,-117.454206,,,,,,0
395,1603,"Indiana + La Sierra",,33.896540,-117.472547,,,,,,0
397,1604,"Indiana + Fillmore",,33.892938,-117.478814,,,,,,0
398,1605,"Pierce + National Drive",,33.890932,-117.487578,,,,,,0
399,1606,"Market + Fourth",,33.986649,-117.373069,,,,,,0
4,1392,"Pierce + Sierra Vista",,33.915161,-117.497005,,,,,,0
40,1423,"Horace + Westridge",,33.944957,-117.379125,,,,,,0
400,1171,"East Grand + Kress",,33.875404,-117.558632,,,,,,0
401,3422,"Iowa + Blaine @ Stop N Go Store",,33.981502,-117.339996,,,,,,0
402,1607,"Jurupa + Elenor",,33.960862,-117.390542,,,,,,0
403,1608,"Tyler + Hole",,33.915614,-117.464265,,,,,,0
404,1609,"Tyler + Selkirk",,33.918847,-117.466939,,,,,,0
405,1610,"Tyler + California",,33.920878,-117.468618,,,,,,0
406,1611,"Tyler + Cook",,33.924467,-117.471555,,,,,,0
407,1612,"Tyler + Wells",,33.928676,-117.474444,,,,,,0
408,1613,"Tyler + Gramercy",,33.931190,-117.476023,,,,,,0
409,1614,"Tyler + Keller",,33.934112,-117.477683,,,,,,0
41,1424,"Arlington @ 3333 Target",,33.946497,-117.381878,,,,,,0
410,1615,"Tyler + Sinclair",,33.938592,-117.478937,,,,,,0
411,1616,"Tyler + Cypress",,33.942377,-117.478134,,,,,,0
412,4531,"Tyler + Gould",,33.945070,-117.477762,,,,,,0
413,1617,"Crest + Gould",,33.944486,-117.472748,,,,,,0
414,1618,"Crest + Babb",,33.941356,-117.472720,,,,,,0
415,1619,"Crest + Campbell",,33.937750,-117.475144,,,,,,0
416,1620,"Crest + Keller",,33.935100,-117.474338,,,,,,0
417,1621,"Crest + Wells",,33.932172,-117.471487,,,,,,0
418,1622,"Wells + Noble",,33.933210,-117.467114,,,,,,0
419,1623,"Wells + Ivanhoe",,33.934350,-117.464320,,,,,,0
42,1006,"Sixth + Lincoln",,33.877265,-117.584807,,,,,,0
420,1624,"Wells + Corwin Lane",,33.934206,-117.458820,,,,,,0
421,1625,"Colorado + Van Buren",,33.934635,-117.453304,,,,,,0
422,1626,"Colorado + Jackson",,33.936255,-117.450455,,,,,,0
423,1627,"Colorado + Jackson",,33.937717,-117.447901,,,,,,0
424,1628,"Colorado + Dundee",,33.939441,-117.444940,,,,,,0
425,1629,"Colorado + Monroe",,33.941004,-117.442182,,,,,,0
426,1630,"Monroe + Driftwood",,33.943763,-117.443892,,,,,,0
427,1631,"Arlington + Monroe",,33.945765,-117.444412,,,,,,0
428,1632,"Phoenix + Arlington",,33.946452,-117.425132,,,,,,0
429,1633,"Phoenix + Ensenada Way",,33.948075,-117.425155,,,,,,0
43,1007,"Sixth + Harris",,33.876709,-117.579536,,,,,,0
430,1634,"Phoenix + Wayman",,33.950278,-117.425159,,,,,,0
431,1635,"Phoenix + Central",,33.953078,-117.425159,,,,,,0
432,1636,"Central + Rexford",,33.953246,-117.422199,,,,,,0
433,1637,"Central + Streeter",,33.953312,-117.418253,,,,,,0
434,1638,"Central + Capistrano",,33.953337,-117.415496,,,,,,0
435,1639,"Central + Nicollet",,33.953342,-117.409089,,,,,,0
436,1640,"Central + Catalina",,33.953351,-117.406861,,,,,,0
437,1641,"Central + Cumberland",,33.953365,-117.404317,,,,,,0
438,1642,"Central + Palm",,33.953386,-117.400676,,,,,,0
439,1644,"14th + Sedgewick",,33.970410,-117.361808,,,,,,0
44,1425,"Victoria + Central",,33.954148,-117.370206,,,,,,0
440,1645,"14th + Sedgewick",,33.969560,-117.361080,,,,,,0
441,1646,"Martin Luther King + Kansas",,33.968090,-117.356877,,,,,,0
442,1647,"Martin Luther King + Douglas",,33.968039,-117.354709,,,,,,0
443,1648,"Martin Luther King + Kansas",,33.968335,-117.357661,,,,,,0
444,1649,"Chicago + Third St",,33.983351,-117.348333,,,,,,0
445,1650,"Massachusetts + Hulen Pl @ Path of Life Shelter",,33.986730,-117.353627,,,,,,0
446,1651,"Chicago + Spruce",,33.991480,-117.348318,,,,,,0
448,1652,"Chicago + Marlborough",,33.994711,-117.348301,,,,,,0
449,1653,"Arlington + Murray",,33.945805,-117.440579,,,,,,0
45,1426,"Victoria + Arroyo",,33.959461,-117.368694,,,,,,0
450,1654,"Arlington + Adams",,33.945852,-117.435788,,,,,,0
451,1655,"Arlington + Hillside",,33.945907,-117.431329,,,,,,0
452,1656,"Arlington + Malibu",,33.945865,-117.428346,,,,,,0
453,1657,"Chicago + 12th",,33.972662,-117.348368,,,,,,0
454,1658,"Chicago + University",,33.976585,-117.348377,,,,,,0
455,1659,"Chicago + Linden",,33.979905,-117.348366,,,,,,0
457,1661,"Marlborough + Atlanta",,33.997508,-117.343796,,,,,,0
459,1663,"Spruce +  Atlanta",,33.990369,-117.343001,,,,,,0
46,1427,"Victoria + Somerset",,33.963143,-117.370046,,,,,,0
460,1664,"Chicago + Massachusetts",,33.987742,-117.348598,,,,,,0
461,1665,"Martin Luther King + Chicago",,33.968277,-117.348977,,,,,,0
462,1666,"Martin Luther King + Ottawa",,33.968257,-117.353101,,,,,,0
463,1667,"Central + Palm",,33.953553,-117.400732,,,,,,0
464,1668,"Central + Cumberland",,33.953528,-117.404502,,,,,,0
465,1669,"Central + Catalina",,33.953509,-117.407051,,,,,,0
466,1670,"Central + Carlo",,33.953485,-117.410181,,,,,,0
467,1671,"Central + Capistrano",,33.953466,-117.415444,,,,,,0
468,1672,"Central + Streeter",,33.953425,-117.419043,,,,,,0
469,1673,"Central + Rexford",,33.953398,-117.422884,,,,,,0
47,1008,"Sixth + W Grand",,33.876162,-117.574348,,,,,,0
470,1674,"Phoenix + Central",,33.952977,-117.425270,,,,,,0
471,1675,"Phoenix + Wayman",,33.949888,-117.425274,,,,,,0
472,1676,"Phoenix + Ensenada",,33.947966,-117.425276,,,,,,0
473,1677,"Phoenix + Arlington",,33.946569,-117.425278,,,,,,0
474,1678,"Monroe + Pembroke",,33.945292,-117.445292,,,,,,0
475,1679,"Monroe + Driftwood",,33.943596,-117.443904,,,,,,0
476,1680,"Monroe + Colorado",,33.941429,-117.442137,,,,,,0
477,1681,"Colorado + Dundee",,33.939472,-117.445056,,,,,,0
478,1682,"Colorado + Jackson",,33.937304,-117.448878,,,,,,0
479,1683,"Colorado + Jackson @ Church",,33.936363,-117.450525,,,,,,0
48,1428,"Victoria + Cridge",,33.965742,-117.368285,,,,,,0
480,1684,"Colorado + Van Buren",,33.934385,-117.454644,,,,,,0
481,1685,"Wells + Corwin",,33.934373,-117.458808,,,,,,0
482,1686,"Wells + Wohlstetter",,33.935202,-117.461451,,,,,,0
483,1687,"Wells + Challen",,33.934691,-117.464009,,,,,,0
484,1688,"Wells + Kent",,33.934001,-117.465590,,,,,,0
485,1689,"Crest + Wells",,33.932305,-117.471197,,,,,,0
486,1690,"Crest + Keller",,33.935068,-117.474213,,,,,,0
487,1691,"Crest + Campbell",,33.937677,-117.475080,,,,,,0
488,1692,"Crest + Babb",,33.941363,-117.472610,,,,,,0
489,1693,"Crest + Cypress",,33.942542,-117.472643,,,,,,0
49,1429,"Victoria + Regent",,33.969109,-117.366017,,,,,,0
490,1694,"Crest + Beau",,33.944416,-117.472639,,,,,,0
491,1695,"Tyler + Arlington",,33.945931,-117.477865,,,,,,0
492,1696,"Tyler + Cypress",,33.943239,-117.478312,,,,,,0
493,1697,"Tyler + Sinclair",,33.938412,-117.479132,,,,,,0
494,1698,"Tyler + Campbell",,33.936613,-117.479230,,,,,,0
495,1699,"Tyler + Keller",,33.933668,-117.477628,,,,,,0
496,1700,"Tyler 5180 @ Sierra Villa Apts",,33.931103,-117.476199,,,,,,0
497,1701,"Tyler + Wells",,33.927580,-117.473954,,,,,,0
498,1702,"Tyler + Cook",,33.924325,-117.471680,,,,,,0
499,1703,"Tyler + California",,33.920814,-117.468846,,,,,,0
5,1393,"Pierce + Riverwalk",,33.916879,-117.493277,,,,,,0
50,1009,"Sixth + Belle",,33.875491,-117.568316,,,,,,0
500,1704,"Tyler + Selkirk",,33.918605,-117.467010,,,,,,0
501,1705,"Tyler + Kidd",,33.916550,-117.465264,,,,,,0
502,1706,"Iowa + Marlborough",,33.996580,-117.339981,,,,,,0
503,1707,"Iowa at Child Support Services",,33.993237,-117.339980,,,,,,0
504,1708,"Chicago + Third St",,33.982684,-117.348595,,,,,,0
505,1709,"Chicago + Linden",,33.980198,-117.348614,,,,,,0
506,1710,"Chicago + University",,33.975148,-117.348642,,,,,,0
507,1711,"Chicago + 12th",,33.972140,-117.348634,,,,,,0
508,1712,"Chicago + Ohio",,33.969704,-117.348643,,,,,,0
509,1713,"Arlington + Arbor",,33.946051,-117.428971,,,,,,0
510,1714,"Arlington + Hillside",,33.946080,-117.432184,,,,,,0
511,1715,"Arlington + Adams",,33.946053,-117.434321,,,,,,0
512,1716,"Arlington + Weaver",,33.946008,-117.440213,,,,,,0
513,1172,"East Grand + 3rd",,33.877640,-117.559253,,,,,,0
514,1173,"University + Kansas",,33.975527,-117.356873,,,,,,0
516,1717,"Indiana + Tyler",,33.906091,-117.455402,,,,,,0
517,1718,"Indiana + Saratoga",,33.907871,-117.452255,,,,,,0
518,1719,"Indiana + Harrison",,33.910073,-117.448373,,,,,,0
519,1720,"Indiana + Meyers",,33.911858,-117.445229,,,,,,0
52,1010,"Sixth + Victoria",,33.875041,-117.563659,,,,,,0
520,1721,"Indiana + Van Buren",,33.914745,-117.440174,,,,,,0
521,1722,"Indiana + Gibson",,33.916321,-117.437460,,,,,,0
522,1723,"Indiana + Jackson",,33.918164,-117.434228,,,,,,0
523,1724,"Indiana + Arrowhead",,33.919735,-117.431464,,,,,,0
524,1725,"Indiana + Amber",,33.920866,-117.429472,,,,,,0
525,1726,"Indiana + Monroe",,33.922308,-117.426880,,,,,,0
526,1727,"Indiana + Bernard",,33.923851,-117.424168,,,,,,0
527,1728,"Indiana + Doyle",,33.925483,-117.421290,,,,,,0
528,1729,"Indiana + Adams",,33.926388,-117.419688,,,,,,0
529,1730,"Indiana + Motor Circle South",,33.927657,-117.417468,,,,,,0
53,1011,"Sixth + Rimpau",,33.874477,-117.553006,,,,,,0
530,1731,"Indiana + Motor Circle North",,33.928850,-117.415280,,,,,,0
531,1732,"Indiana + Detroit",,33.929990,-117.413200,,,,,,0
532,1733,"Indiana + Jefferson",,33.931181,-117.411262,,,,,,0
533,1734,"Indiana + Winstrom",,33.933617,-117.406964,,,,,,0
534,1735,"Indiana + Madison",,33.934681,-117.405074,,,,,,0
535,1736,"Indiana at Home Depot",,33.937382,-117.400339,,,,,,0
536,1737,"Indiana + Washington",,33.939538,-117.396598,,,,,,0
537,1738,"Brockton + Indiana",,33.942204,-117.393676,,,,,,0
538,1739,"Brockton + Nixon @ Riverside Medical",,33.943975,-117.395147,,,,,,0
539,1740,"Brockton + Nixon @ Riverside Medical",,33.943481,-117.394915,,,,,,0
54,1012,"Sixth + El Sobrante",,33.874269,-117.545730,,,,,,0
540,1741,"Jurupa + Magnolia",,33.961025,-117.390993,,,,,,0
542,1742,"Jurupa + Brockton",,33.961020,-117.396246,,,,,,0
543,1743,"Brockton + Garden Home Ct",,33.964227,-117.394485,,,,,,0
544,1744,"Brockton + Bandini",,33.968051,-117.391892,,,,,,0
545,1745,"Brockton + Ramona",,33.972443,-117.388968,,,,,,0
546,1746,"Brockton + Terracina",,33.974424,-117.387655,,,,,,0
547,1747,"University + Park",,33.977333,-117.364829,,,,,,0
548,1748,"University + Victoria",,33.976508,-117.363068,,,,,,0
549,1749,"University + Iowa",,33.975573,-117.338834,,,,,,0
55,1013,"Sixth + El Camino",,33.873738,-117.538314,,,,,,0
550,1750,"Canyon Crest + University",,33.976821,-117.331032,,,,,,0
551,1751,"Canyon Crest + Linden",,33.979033,-117.331211,,,,,,0
552,1752,"Canyon Crest at Bannockburn Village",,33.977533,-117.331224,,,,,,0
553,1753,"Brockton + Tequesquite",,33.976571,-117.385257,,,,,,0
554,1754,"Brockton + 14th",,33.978340,-117.382980,,,,,,0
555,1755,"University + Eucalyptus",,33.975458,-117.359183,,,,,,0
556,1756,"University + Ottawa",,33.975558,-117.352491,,,,,,0
557,1757,"University + Chicago",,33.975535,-117.349505,,,,,,0
558,1758,"University + Cranford",,33.975557,-117.343788,,,,,,0
559,1759,"University + University Village",,33.975805,-117.336706,,,,,,0
56,1014,"Sixth + Magnolia",,33.873378,-117.531199,,,,,,0
561,1760,"Brockton + Terracina",,33.973999,-117.388157,,,,,,0
562,1761,"Brockton + Ramona",,33.972129,-117.389419,,,,,,0
563,1762,"Brockton + Highland",,33.970551,-117.390456,,,,,,0
564,1763,"Brockton + Bandini",,33.967757,-117.392300,,,,,,0
565,1764,"Brockton + Garden Home",,33.964308,-117.394603,,,,,,0
566,1765,"Jurupa + Brockton",,33.960826,-117.396077,,,,,,0
567,1766,"Indiana + Brockton",,33.941747,-117.393823,,,,,,0
568,1767,"Indiana + Washington",,33.939233,-117.397388,,,,,,0
569,1768,"Indiana at Home Depot",,33.937311,-117.400815,,,,,,0
57,1015,"Sixth + Neece St",,33.874901,-117.525910,,,,,,0
570,1769,"Indiana + Madison",,33.935022,-117.404797,,,,,,0
571,1770,"Indiana + Verde",,33.933499,-117.407499,,,,,,0
572,1771,"Indiana + Jefferson",,33.931199,-117.411552,,,,,,0
573,1772,"Indiana + Susan",,33.929880,-117.413856,,,,,,0
574,1773,"Indiana + Adams",,33.926605,-117.419639,,,,,,0
576,1775,"Indiana + Bernard",,33.923645,-117.424843,,,,,,0
577,1776,"Indiana + Monroe",,33.922747,-117.426436,,,,,,0
578,1777,"Indiana + Amber",,33.920840,-117.429723,,,,,,0
579,1778,"Indiana + Arrowhead",,33.919622,-117.431861,,,,,,0
58,1016,"Magnolia + Grant",,33.878187,-117.520342,,,,,,0
580,1779,"Indiana + Jackson",,33.918606,-117.433639,,,,,,0
581,1780,"Indiana + Donald",,33.917296,-117.435943,,,,,,0
582,1781,"Indiana + Gibson",,33.916210,-117.437852,,,,,,0
583,1782,"Indiana + Myers",,33.911903,-117.445443,,,,,,0
584,1783,"Indiana + Harrison",,33.909830,-117.449136,,,,,,0
585,1784,"Indiana + Tyler",,33.905903,-117.456069,,,,,,0
586,1785,"University + Iowa",,33.975786,-117.340335,,,,,,0
587,1786,"University + Cranford",,33.975772,-117.344689,,,,,,0
588,1787,"University + Chicago",,33.975807,-117.349020,,,,,,0
589,1788,"University + Ottawa",,33.975756,-117.352571,,,,,,0
59,1017,"Magnolia + Byron",,33.876554,-117.523211,,,,,,0
590,1789,"University + Kansas",,33.975699,-117.357617,,,,,,0
591,1790,"Brockton + Tenth",,33.982027,-117.380675,,,,,,0
592,1791,"Brockton + 14th",,33.978575,-117.382985,,,,,,0
593,1792,"Brockton + Tequesquite",,33.976641,-117.385450,,,,,,0
594,3676,"Meats + Tustin",,33.822972,-117.836679,,,,,,0
595,3678,"Village of Orange Zone 5",,33.825257,-117.836215,,,,,,0
596,3973,"Canal + Meats",,33.824150,-117.839627,,,,,,0
597,1793,"Indiana + Tyler",,33.904374,-117.456160,,,,,,0
598,1794,"Indiana 10406 + Tyler Springs",,33.903810,-117.457784,,,,,,0
599,1795,"Indiana 10555 @ Mac Plaza",,33.902721,-117.460865,,,,,,0
6,1394,"Pierce + La Sierra",,33.918763,-117.489393,,,,,,0
600,1796,"Indiana + Vallejo",,33.900616,-117.465377,,,,,,0
601,1797,"Indiana + Metrolink",,33.899290,-117.467750,,,,,,0
602,1798,"La Sierra + Cochran",,33.907070,-117.479040,,,,,,0
603,1799,"La Sierra + Collett",,33.912100,-117.483060,,,,,,0
604,1800,"La Sierra + Minnier",,33.915929,-117.486234,,,,,,0
605,1801,"La Sierra + Hole",,33.918591,-117.488096,,,,,,0
606,3615,"La Sierra + Nabraska",,33.920730,-117.489540,,,,,,0
607,1803,"La Sierra + Norwood",,33.924273,-117.491649,,,,,,0
608,1804,"La Sierra + Gramercy",,33.927225,-117.493151,,,,,,0
609,1805,"La Sierra + Fairfield",,33.933341,-117.495635,,,,,,0
61,1019,"Magnolia + McKinley",,33.882127,-117.513435,,,,,,0
610,1806,"La Sierra + Kings Ranch",,33.936788,-117.496678,,,,,,0
611,1807,"La Sierra + Francisco",,33.941344,-117.499264,,,,,,0
612,1808,"La Sierra + Alhambra",,33.943597,-117.500985,,,,,,0
613,1809,"Indiana + Grande Vista",,33.898457,-117.468783,,,,,,0
614,1810,"Arlington + Valley",,33.944953,-117.496317,,,,,,0
615,1811,"Arlington + Mitchell",,33.944624,-117.492036,,,,,,0
616,1812,"Arlington + Stover",,33.944163,-117.489247,,,,,,0
617,1813,"Arlington + Norwood",,33.944474,-117.486188,,,,,,0
618,1814,"Arlington + Chadbourne",,33.946081,-117.483827,,,,,,0
619,1815,"Arlington + Tyler",,33.946477,-117.478318,,,,,,0
620,1816,"Arlington + Crest",,33.946446,-117.471831,,,,,,0
621,1817,"Arlington + Rutland",,33.946398,-117.469214,,,,,,0
622,1818,"Arlington + Ben Lomond",,33.946393,-117.464246,,,,,,0
623,1819,"Arlington + Copper Lantern",,33.946349,-117.460729,,,,,,0
624,1820,"Arlington + Van Buren",,33.945700,-117.454860,,,,,,0
625,1821,"Arlington + Van Buren Big K-Mart",,33.945699,-117.451990,,,,,,0
626,1822,"Arlington + Phoenix",,33.945928,-117.425550,,,,,,0
627,1823,"Arlington + Streeter",,33.945947,-117.417731,,,,,,0
628,1824,"Arlington + Madison",,33.945994,-117.412871,,,,,,0
629,1825,"Arlington + Aden Way",,33.946044,-117.409662,,,,,,0
630,1826,"Arlington + 4661 Garden Apts",,33.946129,-117.404490,,,,,,0
633,1828,"Indiana 10901 La Sierra Metrolink",,33.899503,-117.471095,,,,,,0
634,1829,"Indiana + Pierce",,33.889980,-117.486560,,,,,,0
635,1830,"University + Brockton",,33.983778,-117.378709,,,,,,0
636,1831,"Arlington + La Sierra",,33.944607,-117.501087,,,,,,0
637,1832,"Arlington + Magnolia",,33.946379,-117.401867,,,,,,0
638,1833,"Arlington Avenue 4661",,33.946351,-117.404261,,,,,,0
639,1834,"Arlington + Aden Way",,33.946247,-117.409467,,,,,,0
64,1022,"Magnolia + Filmore",,33.899372,-117.483147,,,,,,0
640,1835,"Arlington + Palomar",,33.946249,-117.413541,,,,,,0
641,1836,"Arlington + Streeter @ Sears",,33.946146,-117.417089,,,,,,0
642,1837,"Arlington + Streeter",,33.946183,-117.419094,,,,,,0
643,1838,"Arlington + Phoenix",,33.946156,-117.424930,,,,,,0
644,1839,"Arlington + Airport Drive",,33.945941,-117.445836,,,,,,0
645,1840,"Arlington + Van Buren",,33.945924,-117.452345,,,,,,0
646,1841,"Arlington + Van Buren",,33.945971,-117.454883,,,,,,0
647,1842,"Arlington + Copper Lantern",,33.946562,-117.460780,,,,,,0
648,1843,"Arlington + Ben Lomand",,33.946609,-117.464370,,,,,,0
649,1844,"Arlington + Rutland",,33.946610,-117.468420,,,,,,0
65,1023,"Magnolia + Golden",,33.900792,-117.480633,,,,,,0
650,1845,"Arlington + Crest",,33.946676,-117.472358,,,,,,0
651,1846,"Arlington + Jones",,33.946776,-117.481297,,,,,,0
652,1847,"Arlington + Chadbourne",,33.946280,-117.483838,,,,,,0
653,1848,"Arlington + Mitchell",,33.944693,-117.491233,,,,,,0
654,1849,"Arlington + Sandy",,33.945143,-117.493939,,,,,,0
655,1850,"Arlington + Valley",,33.945133,-117.496347,,,,,,0
656,1851,"La Sierra + Alhambra",,33.943028,-117.500838,,,,,,0
657,1852,"La Sierra + Francisco",,33.940873,-117.499196,,,,,,0
658,1853,"La Sierra + Kings Ranch",,33.936529,-117.496826,,,,,,0
659,1854,"La Sierra + Campbell",,33.932187,-117.495526,,,,,,0
66,1024,"Magnolia + McKenzie",,33.921016,-117.445219,,,,,,0
660,1855,"La Sierra + Gramercy",,33.926937,-117.493302,,,,,,0
661,1856,"La Sierra + Norwood",,33.923631,-117.491593,,,,,,0
663,1857,"La Sierra + Hole",,33.918206,-117.488153,,,,,,0
664,1858,"La Sierra + Schuyler",,33.915611,-117.486292,,,,,,0
665,1859,"La Sierra + Collett",,33.911650,-117.483110,,,,,,0
666,1860,"La Sierra + Cochran",,33.906790,-117.479080,,,,,,0
667,1861,"La Sierra + Channing",,33.905083,-117.477747,,,,,,0
668,1862,"Indiana + Vallejo",,33.900436,-117.465351,,,,,,0
669,1863,"Indiana + Racine",,33.903135,-117.459118,,,,,,0
670,1864,"Indiana 10406 @ Tyler Springs Apts",,33.903625,-117.457723,,,,,,0
671,1865,"Indiana + Tyler",,33.904170,-117.456144,,,,,,0
672,1866,"Arlington + Tyler",,33.946705,-117.477205,,,,,,0
673,1867,"Arlington + La Sierra",,33.944964,-117.499533,,,,,,0
675,1868,"Perris + Cottonwood",,33.924957,-117.226175,,,,,,0
676,1869,"Perris + Dracaea",,33.928523,-117.226164,,,,,,0
677,1870,"Perris + Eucalyptus",,33.931380,-117.226430,,,,,,0
678,1872,"Perris + Fir",,33.935840,-117.226156,,,,,,0
679,1873,"Sunnymead + Perris",,33.939231,-117.227603,,,,,,0
68,1026,"Magnolia + Donald",,33.923484,-117.440765,,,,,,0
680,1874,"Sunnymead MB Bowling Alley",,33.939196,-117.231497,,,,,,0
681,1875,"Sunnymead + Indian",,33.939183,-117.235543,,,,,,0
682,1876,"Sunnymead + Back Way",,33.939203,-117.238379,,,,,,0
683,1877,"Sunnymead + Heacock",,33.939183,-117.241697,,,,,,0
684,1878,"Sunnymead + Heacock",,33.939170,-117.244545,,,,,,0
685,1879,"Sunnymead + Moval Plaza",,33.939076,-117.250207,,,,,,0
686,1880,"Sunnymead + Graham",,33.939035,-117.253785,,,,,,0
687,1881,"Sunnymead + Frederick",,33.939364,-117.258612,,,,,,0
688,1882,"Box Springs Rd + Day",,33.946643,-117.281478,,,,,,0
689,1883,"Box Springs Rd + Clark",,33.946675,-117.286288,,,,,,0
69,1027,"Magnolia + Jackson",,33.924601,-117.438853,,,,,,0
690,1884,"Box Springs Rd + Douglasis",,33.946649,-117.290074,,,,,,0
692,1886,"Box Springs Rd + Morton",,33.946652,-117.295802,,,,,,0
693,1887,"Central @ 375 Quail View Apts",,33.955023,-117.319821,,,,,,0
694,1888,"Central + Canyon Crest",,33.955065,-117.328601,,,,,,0
695,1889,"Canyon Crest + Via Pueblo",,33.957037,-117.329461,,,,,,0
696,1890,"Canyon Crest + Pear Blossom",,33.961329,-117.330997,,,,,,0
697,1891,"Canyon Crest @ Saint Andrews",,33.964997,-117.331003,,,,,,0
698,1892,"Sycamore Cyn + Fair Isle",,33.946603,-117.301885,,,,,,0
699,1893,"Lochmoor + Sycamore Canyon",,33.945028,-117.300450,,,,,,0
7,1001,"East University + Lemon",,33.980902,-117.372452,,,,,,0
700,1894,"Lochmoor + Di Renzo Apt",,33.945113,-117.302259,,,,,,0
701,1895,"Alessandro + Elsworth",,33.916905,-117.269457,,,,,,0
702,1896,"Alessandro + Courage",,33.916992,-117.264920,,,,,,0
703,1897,"Alessandro + Frederick",,33.917033,-117.260400,,,,,,0
704,1898,"Alessandro + Chagall",,33.917100,-117.257049,,,,,,0
705,1899,"Alessandro + Graham",,33.917089,-117.251571,,,,,,0
706,1900,"Alessandro + Alessandro Plaza",,33.917112,-117.247407,,,,,,0
707,1901,"Alessandro + Heacock",,33.917099,-117.242393,,,,,,0
708,1902,"Alessandro + Indian",,33.917124,-117.234549,,,,,,0
709,1903,"Alessandro + Perris",,33.917122,-117.228515,,,,,,0
71,1029,"Magnolia + Overland",,33.927263,-117.434190,,,,,,0
710,1904,"Perris + Alessandro",,33.918229,-117.226227,,,,,,0
711,1905,"Perris + Bay",,33.921050,-117.226250,,,,,,0
712,1906,"Centerpoint + Center Plaza",,33.938835,-117.263183,,,,,,0
713,1907,"Centerpoint + Town Circle",,33.939802,-117.265214,,,,,,0
714,1908,"Heritage + Town Circle",,33.936819,-117.266807,,,,,,0
715,1909,"Towngate at Stonegate Apt",,33.935281,-117.268939,,,,,,0
716,1910,"Day + Gateway",,33.935170,-117.278697,,,,,,0
717,1911,"Eucalyptus + Memorial Way",,33.933197,-117.272997,,,,,,0
718,1912,"Day + Campus Parkway",,33.937043,-117.278662,,,,,,0
719,1913,"UCR Lot 30 + Canyon Crest",,33.970207,-117.332067,,,,,,0
72,1030,"Magnolia + Monroe",,33.928814,-117.431429,,,,,,0
720,1914,"West Campus Dr + Canyon Crest",,33.971798,-117.329824,,,,,,0
721,4456,"Canyon Crest + Martin Luther King",,33.967585,-117.331293,,,,,,0
722,1915,"Canyon Crest + University Drive",,33.965756,-117.331262,,,,,,0
723,1916,"Canyon Crest + Monte Vista",,33.960754,-117.331292,,,,,,0
724,1917,"Canyon Crest @ Town Center",,33.957096,-117.329815,,,,,,0
725,1918,"Central + Canyon Crest",,33.954872,-117.328507,,,,,,0
726,1919,"Central + Canyon Creek",,33.954993,-117.325469,,,,,,0
727,1920,"Box Springs + Morton",,33.946475,-117.296191,,,,,,0
729,1922,"Box Springs + Douglasis",,33.946459,-117.289732,,,,,,0
73,1031,"Cal Baptist University",,33.930172,-117.429032,,,,,,0
730,1923,"Box Springs + Pinecone Ln",,33.946479,-117.281410,,,,,,0
731,1924,"Sunnymead + Frederick",,33.939479,-117.260664,,,,,,0
732,1925,"Sunnymead + Graham",,33.938866,-117.255081,,,,,,0
733,1926,"Sunnymead + Moval Plaza",,33.938883,-117.250741,,,,,,0
734,1927,"Sunnymead + Moval Plaza",,33.938947,-117.247179,,,,,,0
735,1928,"Sunnymead + Heacock",,33.939001,-117.242993,,,,,,0
737,1929,"Sunnymead + Back Way",,33.938991,-117.238397,,,,,,0
738,1930,"Sunnymead + Indian",,33.939017,-117.234580,,,,,,0
739,1931,"Sunnymead + Perris Blvd off ramp",,33.939003,-117.230090,,,,,,0
740,1932,"Perris + Fir",,33.935207,-117.226427,,,,,,0
741,1933,"Perris + Dracaea",,33.927589,-117.226411,,,,,,0
742,1934,"Day + Canyon Springs Parkway",,33.939257,-117.279068,,,,,,0
743,1935,"Day + Campus Parkway",,33.937351,-117.279021,,,,,,0
744,1936,"Day + Gateway Dr",,33.934592,-117.278977,,,,,,0
745,1937,"Eucalyptus + Day @ Villes Towngate Apt",,33.931316,-117.277994,,,,,,0
746,1938,"Eucalyptus + Arbor Park Ln",,33.932044,-117.274175,,,,,,0
747,1939,"Towngate + Southgate",,33.935023,-117.269025,,,,,,0
748,1940,"Heritage + Towngate",,33.935642,-117.265913,,,,,,0
749,1941,"Moreno Valley Mall + Hometown Buff",,33.938948,-117.268264,,,,,,0
75,1033,"Magnolia + Adams",,33.933122,-117.423848,,,,,,0
750,1942,"Centerpoint + Town Circle",,33.939508,-117.265391,,,,,,0
751,1943,"Perris + Sunnymead",,33.938178,-117.226498,,,,,,0
752,1944,"Perris + Cottonwood",,33.923949,-117.226474,,,,,,0
753,1945,"Perris + Bay",,33.920670,-117.226546,,,,,,0
754,1946,"Alessandro + Perris",,33.917442,-117.227419,,,,,,0
755,1947,"Alessandro + Indian",,33.917411,-117.235555,,,,,,0
756,1948,"Alessandro + Via Vargas",,33.917409,-117.238052,,,,,,0
757,1949,"Alessandro + Ramsdell",,33.917401,-117.241553,,,,,,0
758,1950,"Alessandro + Heacock",,33.917400,-117.244342,,,,,,0
759,1951,"Alessandro + Alessandro Plaza",,33.917412,-117.248675,,,,,,0
76,1034,"Magnolia + Crowell",,33.934450,-117.421557,,,,,,0
760,1952,"Alessandro + Graham",,33.917384,-117.253243,,,,,,0
761,1953,"Alessandro + Chagall",,33.917385,-117.257246,,,,,,0
762,1954,"Alessandro + Frederick",,33.917342,-117.261893,,,,,,0
763,1955,"Alessandro + Courage",,33.917286,-117.264709,,,,,,0
764,1956,"25105 Fir @ Senior Center",,33.935416,-117.224796,,,,,,0
765,1957,"Fir + Kitching",,33.935519,-117.218313,,,,,,0
766,1958,"Fir + Senior Center",,33.935505,-117.224756,,,,,,0
767,1959,"Eucalyptus + Morrison Mid School",,33.931786,-117.199825,,,,,,0
768,1960,"Eucalyptus + Nason Valley View HS",,33.931980,-117.192269,,,,,,0
769,1961,"Eucalyptus + Morrison Mid School",,33.931959,-117.201175,,,,,,0
770,1962,"Eucalyptus + Lasselle",,33.931774,-117.209581,,,,,,0
771,1963,"Towngate + Heritage",,33.935397,-117.266762,,,,,,0
772,1964,"Eucalyptus + Arbor Park Ln",,33.931668,-117.276030,,,,,,0
773,1965,"Eucalyptus + Nason",,33.931829,-117.190752,,,,,,0
774,1966,"Fir @ Super Target Entrance",,33.935367,-117.189162,,,,,,0
775,1967,"Eucalyptus + Kitching",,33.931753,-117.217278,,,,,,0
776,1968,"Eucalyptus + Ninebark",,33.931747,-117.212016,,,,,,0
777,1969,"Frederick + Cottonwood",,33.924966,-117.261023,,,,,,0
778,1970,"Frederick + Dracaea",,33.928434,-117.261053,,,,,,0
779,1971,"Frederick + Eucalyptus",,33.931251,-117.261237,,,,,,0
78,1036,"Magnolia + Jefferson",,33.937294,-117.416496,,,,,,0
780,1972,"Riverside County Regional Med Ctr",,33.911550,-117.195009,,,,,,0
781,3978,"Nason + Alessandro",,33.916901,-117.191691,,,,,,0
782,4220,"Nason + Cottonwood",,33.923295,-117.191432,,,,,,0
783,1973,"Eucalyptus + Lasselle",,33.931960,-117.209322,,,,,,0
784,1974,"Kitching + Eucalyptus",,33.932190,-117.217574,,,,,,0
785,1975,"Cottonwood + Frederick",,33.924591,-117.259992,,,,,,0
786,1976,"Cottonwood + Dunhill",,33.924434,-117.258311,,,,,,0
787,1977,"Nason + Eucalyptus",,33.931214,-117.191688,,,,,,0
79,1037,"Magnolia + Cortez",,33.939797,-117.412095,,,,,,0
791,1981,"Super Walmart @ Moreno Beach Dr",,33.935444,-117.178524,,,,,,0
792,1982,"Moreno Valley College Campus",,33.887223,-117.203157,,,,,,0
793,1983,"JFK + Indian",,33.902881,-117.235638,,,,,,0
794,1984,"JFK + Pepper",,33.902890,-117.239460,,,,,,0
795,4399,"Meyer + 6th",,33.902873,-117.245831,,,,,,0
796,1986,"JFK + Heacock",,33.902691,-117.243184,,,,,,0
797,1987,"JFK + Paige",,33.902653,-117.238080,,,,,,0
798,1988,"Indian + JFK",,33.903208,-117.234902,,,,,,0
799,1989,"Indian + Delphinium",,33.905706,-117.234921,,,,,,0
8,1395,"Hole + Minnier",,33.918548,-117.485056,,,,,,0
80,1038,"Magnolia + Madison",,33.941482,-117.409132,,,,,,0
800,1990,"Indian + Cactus",,33.910321,-117.234923,,,,,,0
801,1991,"Indian + Brodiaea",,33.913945,-117.234937,,,,,,0
802,1992,"Heacock + Alessandro",,33.917798,-117.243632,,,,,,0
803,1993,"Heacock + Corp Plaza Entrance",,33.921433,-117.243599,,,,,,0
804,1994,"Heacock + Cottonwood",,33.925055,-117.243648,,,,,,0
805,1995,"Heacock + Dracaea",,33.927473,-117.243654,,,,,,0
806,1996,"Heacock + Eucalyptus",,33.931072,-117.243662,,,,,,0
807,1997,"Heacock + Fir",,33.935789,-117.243662,,,,,,0
808,1998,"Heacock + Sunnymead",,33.939489,-117.243687,,,,,,0
809,1999,"Hemlock + Heacock",,33.942627,-117.243241,,,,,,0
810,2000,"Hemlock 24175",,33.941941,-117.240543,,,,,,0
811,2001,"Hemlock + Indian",,33.942479,-117.235973,,,,,,0
812,2002,"Hemlock + Leahy",,33.942645,-117.230919,,,,,,0
813,2003,"Perris + Hemlock",,33.943061,-117.226219,,,,,,0
814,2004,"Ironwood + Hubbard",,33.946733,-117.231099,,,,,,0
815,2005,"Ironwood + Weller",,33.946714,-117.234033,,,,,,0
816,2006,"Ironwood + Davis",,33.946700,-117.240085,,,,,,0
817,2007,"Ironwood + Tabor",,33.946728,-117.241932,,,,,,0
818,2008,"Ironwood + Heacock",,33.946726,-117.244485,,,,,,0
819,2009,"Ironwood + Webb",,33.946713,-117.247102,,,,,,0
82,1040,"Eucalyptus + Sixth",,33.978771,-117.359624,,,,,,0
820,2010,"Ironwood + Bayless",,33.946711,-117.250172,,,,,,0
821,2011,"Ironwood + Graham",,33.946707,-117.253279,,,,,,0
822,2012,"Ironwood + Dream",,33.946689,-117.256687,,,,,,0
823,2013,"Hemlock + Leahy",,33.942765,-117.230914,,,,,,0
824,2014,"Frederick + Cottonwood",,33.923964,-117.261319,,,,,,0
825,2015,"Frederick + Bay",,33.920208,-117.261292,,,,,,0
826,2016,"Riverside Dr + Cactus",,33.908370,-117.252473,,,,,,0
827,2017,"Riverside Dr + Meyer",,33.903629,-117.252194,,,,,,0
828,2018,"Cactus + Graham",,33.910347,-117.253053,,,,,,0
829,2019,"Frederick + Alessandro",,33.917705,-117.261008,,,,,,0
83,1041,"Eucalyptus + Fourth",,33.980941,-117.359636,,,,,,0
830,2020,"Frederick + Bay",,33.921171,-117.261015,,,,,,0
831,2021,"Lasselle + Cahuilla",,33.885209,-117.205308,,,,,,0
832,2022,"Lasselle + College Dr",,33.887464,-117.205151,,,,,,0
833,2023,"Iris + Lasselle",,33.890898,-117.207723,,,,,,0
834,2024,"Iris + Los Cabos",,33.889082,-117.212163,,,,,,0
835,2025,"Iris + Patata",,33.888472,-117.215710,,,,,,0
836,2026,"Kitching + Iris",,33.888705,-117.217262,,,,,,0
837,2027,"Kitching + Campanilla",,33.894437,-117.217236,,,,,,0
838,2028,"JFK + Ely",,33.902919,-117.220174,,,,,,0
839,2029,"Pigeon Pass + Ironwood",,33.946171,-117.261601,,,,,,0
84,1042,"Eucalyptus + Third",,33.982753,-117.359644,,,,,,0
840,2030,"Pigeon Pass + Chambray",,33.944200,-117.261576,,,,,,0
841,2031,"Pigeon Pass + Old Lake",,33.966796,-117.261643,,,,,,0
843,2033,"Ironwood + Chesapeake",,33.946523,-117.258171,,,,,,0
844,2034,"Ironwood + Buckthorn",,33.946532,-117.254146,,,,,,0
845,2035,"Ironwood + Gary Ct",,33.946544,-117.250810,,,,,,0
846,2036,"Ironwood @ Swegles",,33.946550,-117.248650,,,,,,0
847,2037,"Ironwood + Kristen",,33.946551,-117.245775,,,,,,0
848,2038,"Ironwood + Heacock",,33.946560,-117.243460,,,,,,0
849,2039,"Ironwood + Weller",,33.946581,-117.233440,,,,,,0
85,1043,"Third + Kansas",,33.982880,-117.357645,,,,,,0
850,2040,"Ironwood + Harclare",,33.946591,-117.230502,,,,,,0
851,2041,"Perris + Hemlock",,33.943935,-117.226519,,,,,,0
852,2042,"Hemlock + Indian",,33.942659,-117.235941,,,,,,0
853,2043,"Hemlock + 24318 I-Hop Driveway",,33.942163,-117.240648,,,,,,0
854,2044,"Heacock + Sunnymead",,33.938730,-117.243878,,,,,,0
855,2045,"Heacock + Fir",,33.934742,-117.243911,,,,,,0
856,2046,"Heacock + Eucalyptus",,33.931387,-117.243869,,,,,,0
857,2047,"Heacock + Dracaea",,33.927824,-117.243871,,,,,,0
858,2048,"Heacock + Cottonwood",,33.924158,-117.243882,,,,,,0
859,2049,"Heacock + Bay",,33.920650,-117.243879,,,,,,0
86,1044,"Third + Dwight",,33.982909,-117.353333,,,,,,0
860,2050,"Indian + Alessandro",,33.916102,-117.235119,,,,,,0
861,2051,"Indian + Brodiaea",,33.913514,-117.235149,,,,,,0
862,2052,"Indian + Cactus",,33.909802,-117.235136,,,,,,0
863,2053,"Indian + Delphinium",,33.906106,-117.235105,,,,,,0
864,2054,"Pigeon Pass + Chambray",,33.944414,-117.261361,,,,,,0
865,2055,"Pigeon Pass + Ironwood",,33.946117,-117.261396,,,,,,0
866,2056,"JFK + Perris",,33.902710,-117.224945,,,,,,0
867,2057,"JFK + Ely",,33.902701,-117.219531,,,,,,0
868,2058,"Kitching + Campanilla",,33.894017,-117.217412,,,,,,0
869,2059,"Kitching + Iris",,33.887922,-117.217606,,,,,,0
87,1045,"Third + 1825 Third Street @ RTA",,33.982929,-117.351573,,,,,,0
870,2060,"Kitching + Ivory",,33.884788,-117.217670,,,,,,0
871,2061,"Krameria + Kitching",,33.880932,-117.217222,,,,,,0
872,2062,"Krameria + Vista Conejo",,33.882835,-117.210155,,,,,,0
874,2063,"Perris + Orange",,33.816350,-117.225997,,,,,,0
875,4432,"Perris + Gallant Fox",,33.818064,-117.225987,,,,,,0
876,2064,"Perris + Placentia",,33.823839,-117.225975,,,,,,0
878,2067,"Trumble @ Exceed",,33.755407,-117.184851,,,,,,0
879,2068,"Perris + Ramona Expressway",,33.846029,-117.225950,,,,,,0
88,1046,"Blaine + Iowa",,33.982928,-117.338621,,,,,,0
880,2069,"Perris + Markham",,33.852593,-117.225979,,,,,,0
881,2070,"Perris + Harley Knox",,33.855800,-117.225974,,,,,,0
882,2071,"Perris + Globe",,33.860682,-117.225916,,,,,,0
883,2072,"Perris + Nandina",,33.867391,-117.225950,,,,,,0
884,2073,"Perris + San Michelle",,33.870804,-117.226015,,,,,,0
885,2074,"Perris + Slate Creek",,33.874652,-117.226011,,,,,,0
886,2075,"Perris + Northern Dancer",,33.878199,-117.226030,,,,,,0
887,2076,"Krameria + Perris",,33.880995,-117.225797,,,,,,0
888,2077,"Krameria + Saddlebrook",,33.880980,-117.222607,,,,,,0
889,2078,"Iris + Bluechip",,33.888440,-117.218465,,,,,,0
89,1047,"Blaine + Rustin",,33.982921,-117.334546,,,,,,0
890,2079,"Iris + Perris",,33.888509,-117.224949,,,,,,0
891,2080,"Perris + Santiago",,33.892270,-117.226129,,,,,,0
892,2081,"Perris + Gentian",,33.895823,-117.226161,,,,,,0
893,2082,"Perris + Filaree",,33.898992,-117.226196,,,,,,0
894,3675,"Perris Transit Center",,33.784939,-117.229453,,,,,,0
895,2083,"Wilkerson + Fourth Cottonwood Plaza",,33.783470,-117.218927,,,,,,0
896,2084,"San Jacinto 308 Robert Reid Medical",,33.786688,-117.223073,,,,,,0
897,4462,"Perris + San Jacinto",,33.787877,-117.225964,,,,,,0
898,2085,"Perris + Jarvis",,33.792266,-117.226025,,,,,,0
899,2086,"Perris + Nuevo",,33.799946,-117.226026,,,,,,0
9,1396,"Hole + Mitchell",,33.918174,-117.482768,,,,,,0
90,1048,"Blaine + Watkins",,33.982894,-117.327275,,,,,,0
900,2087,"Perris + Crossroad Center",,33.803172,-117.225983,,,,,,0
902,2089,"Perris + Orangetree",,33.806384,-117.225995,,,,,,0
903,2090,"Perris + Citrus",,33.809065,-117.226000,,,,,,0
904,2091,"Perris + Lemon",,33.812003,-117.225990,,,,,,0
906,2093,"Perris + Sinclair",,33.834167,-117.225957,,,,,,0
907,2094,"Perris + Dawes",,33.841291,-117.225920,,,,,,0
908,2095,"Ramona Expressway + Perris",,33.844674,-117.226439,,,,,,0
909,2096,"Indian + Ramona Expressway",,33.841966,-117.231130,,,,,,0
91,1049,"Blaine + Campus View",,33.982903,-117.323943,,,,,,0
910,2097,"Morgan + Indian",,33.837623,-117.235172,,,,,,0
911,2098,"Morgan + Brennan @ Starcrest",,33.837769,-117.238967,,,,,,0
912,2099,"Perris + Filaree",,33.898532,-117.226448,,,,,,0
913,2100,"Perris + Gentian",,33.895069,-117.226343,,,,,,0
914,2101,"Perris + Santiago",,33.891579,-117.226351,,,,,,0
915,2102,"Iris + Perris",,33.888292,-117.225591,,,,,,0
916,2103,"Iris + Wedow",,33.888267,-117.221848,,,,,,0
917,2104,"Krameria + Kitching",,33.881082,-117.217915,,,,,,0
918,2105,"Krameria + Saddlebrook",,33.881132,-117.222078,,,,,,0
919,2106,"Perris + Northern Dancer",,33.877658,-117.226316,,,,,,0
92,1050,"Blaine + Celeste",,33.982892,-117.320382,,,,,,0
921,2107,"Perris + San Michelle",,33.869550,-117.226258,,,,,,0
922,2108,"Perris + Nandina",,33.866080,-117.226236,,,,,,0
923,2109,"Perris + Grove View",,33.862409,-117.226197,,,,,,0
925,2110,"Perris + Markham",,33.850771,-117.226283,,,,,,0
926,2111,"Perris + Rider",,33.830530,-117.226179,,,,,,0
927,2112,"Perris + JFK",,33.904001,-117.226449,,,,,,0
928,2113,"Iris + Lasselle",,33.890446,-117.208001,,,,,,0
929,2114,"Krameria + Lasselle",,33.882747,-117.208180,,,,,,0
93,1051,"Blaine + Valencia Hill",,33.982893,-117.318300,,,,,,0
930,2115,"Iris + Kitching",,33.888158,-117.217049,,,,,,0
931,2116,"Iris + Peninsula",,33.889398,-117.210551,,,,,,0
932,2117,"Iris + Rancho Del Lago",,33.888634,-117.212581,,,,,,0
933,2118,"Lasselle + Iris",,33.890149,-117.206707,,,,,,0
934,2119,"Lasselle + Calle Aqua @ Opp MoVal College",,33.886360,-117.205327,,,,,,0
935,2120,"Krameria + Lasselle",,33.882747,-117.208185,,,,,,0
936,2121,"Krameria + Calle Aurora",,33.882804,-117.211044,,,,,,0
937,2122,"Krameria + Camino Juanito",,33.881080,-117.215081,,,,,,0
938,2123,"Perris + Ramona Expressway",,33.843899,-117.226271,,,,,,0
939,2124,"Perris + Dawes",,33.840297,-117.226283,,,,,,0
94,1052,"Blaine + Mt Vernon",,33.982892,-117.313941,,,,,,0
941,2126,"Perris + Placentia",,33.822321,-117.226238,,,,,,0
943,2128,"Perris + Gallant Fox",,33.818623,-117.226302,,,,,,0
944,2129,"Perris + Orange",,33.816274,-117.226294,,,,,,0
945,2130,"Perris + Arnold",,33.811976,-117.226226,,,,,,0
946,4005,"Perris + Citrus",,33.808011,-117.226258,,,,,,0
947,4006,"Perris + Orangetree",,33.805662,-117.226286,,,,,,0
948,2131,"Perris + Nuevo",,33.803032,-117.226270,,,,,,0
949,2132,"Perris + Nuevo",,33.799191,-117.226253,,,,,,0
95,1053,"Mt Vernon + RR Crossing",,33.980058,-117.313739,,,,,,0
950,4438,"Perris + Jarvis",,33.791809,-117.226233,,,,,,0
951,2133,"Perris + San Jacinto",,33.786194,-117.226227,,,,,,0
952,2134,"Fourth + Perris",,33.782283,-117.225303,,,,,,0
953,2135,"Webster + Morgan @ Continuation School",,33.838031,-117.243742,,,,,,0
954,2136,"Morgan + Nevada",,33.837791,-117.247378,,,,,,0
955,2137,"Perris Fairgrounds",,33.847890,-117.202630,,,,,,0
956,2138,"Alessandro + Communication",,33.920808,-117.333895,,,,,,0
957,2139,"Brockton + Beatty",,33.955284,-117.396704,,,,,,0
958,2140,"Brockton + Gardena @ DMV",,33.957619,-117.396689,,,,,,0
959,2141,"Krameria + Windwood",,33.881152,-117.227969,,,,,,0
960,2142,"Krameria + Emma",,33.881135,-117.230903,,,,,,0
961,2143,"Iris + Indian",,33.888227,-117.234404,,,,,,0
962,2144,"Central + Victoria",,33.953588,-117.368994,,,,,,0
963,2145,"Central + Avondale Way",,33.953658,-117.363312,,,,,,0
964,2146,"Alessandro + Royal Hills",,33.949967,-117.359078,,,,,,0
965,2147,"Alessandro + Mission Grove",,33.916250,-117.322939,,,,,,0
966,2148,"Alessandro + Barton",,33.916369,-117.313468,,,,,,0
967,2149,"Alessandro + Vista Grande",,33.916410,-117.308585,,,,,,0
968,2150,"Alessandro + Old 215",,33.916672,-117.282322,,,,,,0
969,2151,"Alessandro + Day",,33.916691,-117.278184,,,,,,0
97,1054,"Mt Vernon + Big Springs",,33.976020,-117.313708,,,,,,0
970,2152,"Alessandro + Perris",,33.917125,-117.225623,,,,,,0
971,2153,"Alessandro + Appleblossom",,33.917151,-117.221700,,,,,,0
972,2154,"Alessandro + Kitching",,33.917238,-117.216726,,,,,,0
973,2155,"Alessandro @ 25681 NewHorizon MB",,33.917256,-117.214205,,,,,,0
974,2156,"Alessandro + Lasselle",,33.917214,-117.211533,,,,,,0
975,2157,"Alessandro + Morrison",,33.917191,-117.199745,,,,,,0
976,2158,"Alessandro + Country Squire",,33.917270,-117.194007,,,,,,0
977,2159,"Alessandro + Oliver",,33.917360,-117.180580,,,,,,0
978,2160,"Alessandro + Oliver",,33.917600,-117.181580,,,,,,0
979,2161,"Alessandro + Nason",,33.917316,-117.190674,,,,,,0
98,1431,"Sterling + Pierce",,33.894300,-117.489337,,,,,,0
980,2162,"Alessandro + Moreno Beach",,33.917370,-117.175960,,,,,,0
981,2163,"Moreno Beach + Cactus",,33.909500,-117.174198,,,,,,0
982,2164,"Moreno Beach + JFK",,33.904085,-117.174223,,,,,,0
983,2165,"Moreno Beach + Championship",,33.898957,-117.174485,,,,,,0
984,2166,"Iris + Via Del Lago",,33.895285,-117.179630,,,,,,0
985,2167,"Iris + Oliver",,33.895547,-117.183487,,,,,,0
986,2168,"Iris @ Kaiser Hospital",,33.895577,-117.185453,,,,,,0
987,2169,"Iris @ Vista Lomas Park",,33.895502,-117.196776,,,,,,0
988,2170,"Iris + Coachlight @ Avenida De Circo",,33.892643,-117.203400,,,,,,0
989,4112,"Central + Rumsey",,33.953575,-117.373938,,,,,,0
99,1432,"Tyler + Hole @ Best Buy",,33.913951,-117.463258,,,,,,0
990,2171,"Alessandro + Chicago",,33.943739,-117.354142,,,,,,0
991,3980,"Alessandro + Arlington",,33.943735,-117.354151,,,,,,0
992,2172,"Alessandro + Century",,33.935912,-117.350968,,,,,,0
993,2173,"Alessandro + Via Vista",,33.931307,-117.348083,,,,,,0
994,2174,"Alessandro + Overlook",,33.925227,-117.339307,,,,,,0
996,2175,"Alessandro + Mission Grove Parkway",,33.916167,-117.326330,,,,,,0
997,2176,"Kitching + Krameria",,33.881496,-117.217433,,,,,,0
998,2177,"Kitching + Ivory",,33.885368,-117.217457,,,,,,0
999,2178,"Iris + Lasselle",,33.891186,-117.206145,,,,,,0