stop_id,stop_name,stop_desc,stop_lat,stop_lon
10002,CANOGA AV/BURBANK BLVD,0,34.173285684988,-118.59747788537
10003,CANOGA AV/OXNARD ST,0,34.179248577156,-118.59749408185
10004,CANOGA AV/ERWIN ST,0,34.182851111574,-118.59749009093
10005,CANOGA AV/TRILLIUM DRIVEWAY,0,34.184604234866,-118.59749932397
10006,CANOGA AV/VICTORY BLVD,0,34.188335802485,-118.59751940303
10007,BURBANK BLVD/21240 BURBANK BLVD,0,34.17329366615,-118.59474377978
10008,VICTORY BLVD/VARIEL AV,0,34.188350484633,-118.5928603431
10009,BURBANK BLVD/KAISER HOSPITAL,0,34.173287371705,-118.58985728851
10012,DE SOTO AV/VANOWEN ST,0,34.193777031097,-118.58847749381
10013,DE SOTO AV/SHERMAN WY,0,34.200973679654,-118.58850505242
10014,DE SOTO AV/SATICOY ST,0,34.208296792354,-118.58852027701
10016,DE SOTO AV/ROSCOE BLVD,0,34.21993131241,-118.58854935342
10017,DE SOTO AV/NORDHOFF ST,0,34.235454171645,-118.58856945762
10018,PLUMMER ST/DE SOTO AV,0,34.242722294942,-118.58859092416
10019,VENTURA BLVD/KELVIN AV,0,34.166442318972,-118.58590145014
10020,PLUMMER ST/MASON AV,0,34.242726020717,-118.57984891762
10021,VENTURA BLVD/WINNETKA AV,0,34.170954316754,-118.57097993755
10022,PLUMMER ST/WINNETKA AV,0,34.242728459285,-118.5712458783
10023,PLUMMER ST/CORBIN AV,0,34.242737058327,-118.56236824832
10024,MCBEAN REGIONAL TRANS CTR,0,34.413529689617,-118.56008953492
10025,VENTURA BLVD/TAMPA AV,0,34.172676104524,-118.55349587199
10026,PLUMMER ST/TAMPA AV,0,34.242747194142,-118.55361305908
10027,VENTURA BLVD/RESEDA BLVD,0,34.168822143845,-118.53611748633
10029,RESEDA BLVD/PLUMMER ST,0,34.24275447195,-118.53612576533
10031,RESEDA BLVD/DEVONSHIRE ST,0,34.257255129028,-118.53613286771
10032,CSUN TRANS CTR/BUS BAY 1,0,34.240935327076,-118.53177295061
10033,NEWHALL STATION/24300 RAILROAD AV,0,34.379184912844,-118.52672917507
10048,GAYLEY AV/STRATHMORE PL,0,34.06855204123,-118.44899971885
10050,GAYLEY AV/LANDFAIR AV,0,34.065641080473,-118.44777562028
10052,WESTWOOD PZ/WEYBURN AV,0,34.062563948472,-118.44541162651
10053,LE CONTE AV/WESTWOOD PZ,0,34.063685208955,-118.44537797542
10054,WESTWOOD BLVD/WILSHIRE BLVD,0,34.058788308577,-118.44393223021
10057,AVE OF THE STARS/SANTA MONICA,0,34.061406684185,-118.41863880661
10058,SANTA MONICA BLVD/CENTURY PARK E,0,34.063143856377,-118.41610516106
10059,CONSTELLATION BLVD/AVENUE OF TH STARS,0,34.058659825901,-118.41595739902
10060,CENTURY PARK E/CONSTELLATION BLVD,0,34.060343828368,-118.41368764874
10061,WILSHIRE BLVD/SANTA MONICA BLVD,0,34.067084693585,-118.41037286476
10062,WILSHIRE BLVD/RODEO DR,0,34.067072191723,-118.40100533464
10063,WILSHIRE BLVD/EL CAMINO DR,0,34.067071951904,-118.40024920028
10064,WILSHIRE BLVD/CANON DR,0,34.067067035023,-118.39757794667
10065,WILSHIRE BLVD/CRESCENT DR,0,34.067069602002,-118.39596003221
10066,WILSHIRE BLVD/DOHENY DR,0,34.067056882338,-118.3897326072
10067,WILSHIRE BLVD/LA PEER DR,0,34.067052896253,-118.38669815228
10068,WILSHIRE BLVD/ROBERTSON BLVD,0,34.067040454068,-118.38370658377
10069,WILSHIRE BLVD/LA CIENEGA BLVD,0,34.06519537973,-118.37624262226
10070,WILSHIRE BLVD/SAN VICENTE BLVD,0,34.064194468176,-118.37202835767
10071,WILSHIRE BLVD/SAN VICENTE BLVD,0,34.06410561871,-118.37143364375
10072,WILSHIRE BLVD/CRESCENT HEIGHTS BLVD,0,34.06339883976,-118.3653156781
10073,WILSHIRE BLVD/FAIRFAX AV,0,34.062976313827,-118.36144751248
10074,WILSHIRE BLVD/MASSELIN AV,0,34.062411752699,-118.35257339884
10075,LA BREA AV/WILSHIRE BLVD,0,34.062232903901,-118.34408068721
10076,LA BREA AV/6TH ST,0,34.064906646551,-118.34405866679
10077,LA BREA AV/BEVERLY BLVD,0,34.076175589965,-118.34408850999
10078,LA BREA AV/MELROSE AV,0,34.083440959877,-118.34409198078
10079,LA BREA AV/SANTA MONICA BLVD,0,34.090709004414,-118.34412188571
10081,FIGUEROA ST/7TH ST,0,34.049379992815,-118.25992360863
10083,FIGUEROA ST/6TH ST,0,34.05083383166,-118.25854160618
10084,8TH ST/GRAND AV,0,34.04585041924,-118.2579749343
10085,FIGUEROA ST/5TH ST,0,34.052268356596,-118.25718920802
10086,8TH ST/OLIVE ST,0,34.045165710099,-118.25691649944
10087,7TH ST/GRAND AV,0,34.047290412124,-118.25663252705
10088,FLOWER ST/5TH ST,0,34.051578193671,-118.25610757288
10092,OLIVE ST/6TH ST,0,34.048059480035,-118.25419205277
10093,8TH ST/SPRING ST,0,34.04305395419,-118.2536784066
10094,FLOWER ST/3RD ST,0,34.054411265002,-118.25349165105
10095,6TH ST/SPRING ST,0,34.045947589013,-118.25098362589
10097,HOPE ST/1ST ST,0,34.056361533543,-118.24987916761
10100,67TH ST W/AVENUE L 15,0,34.646338280207,-118.24909696717
10102,1ST ST/HILL ST,0,34.054337545835,-118.24662787289
10103,AVENUE L 12/RINGSTEM AV,0,34.64908223427,-118.2482872432
10106,SPRING ST/TEMPLE ST&1ST ST,0,34.053928832094,-118.24356631048
10107,MAIN ST/1ST ST,0,34.052208999381,-118.2434028419
10108,AVENUE L 12/65TH ST W,0,34.649116427122,-118.24497563455
10109,65TH ST W/AVENUE M,0,34.645582845398,-118.24493529018
10110,SPRING ST/TEMPLE ST,0,34.054895154121,-118.24266124019
10111,MAIN ST/TEMPLE ST,0,34.054048009108,-118.24169148431
10112,AVENUE M/63RD ST W,0,34.645581808917,-118.24271094964
10119,60TH ST W/AVENUE J 4,0,34.685843293965,-118.23666799767
10120,60TH ST W/44750 60TH ST W,0,34.695770962658,-118.23669297196
10121,60TH ST W/44900 60TH ST W,0,34.698502235027,-118.23670075918
10123,60TH ST W/AVENUE J,0,34.689313750698,-118.23666125715
10124,60TH ST W/AVENUE J 8,0,34.682059693798,-118.23662062379
10125,60TH ST W/AVENUE K,0,34.674758994883,-118.23653995222
10126,60TH ST W/AVENUE L,0,34.660163063514,-118.23638199271
10127,AVENUE L 8/60TH ST W,0,34.65287343021,-118.23625151752
10128,AVENUE M/60TH ST W,0,34.645578287603,-118.23612437446
10130,PATSAOURAS PLAZA/BUS BAY 2,0,34.055205443468,-118.23300552635
10133,AVENUE M/5711 AVENUE M,0,34.645606749216,-118.23276301234
10134,AVENUE L 8/55TH ST W,0,34.652843482241,-118.22745638698
10135,AVENUE M/55TH ST W,0,34.645584200692,-118.22725031767
10137,AVENUE M/52ND ST W,0,34.645570375983,-118.22284150583
10141,50TH ST W/AVENUE N,0,34.630849416471,-118.21886275382
10142,AVENUE L/50TH ST W,0,34.660217843327,-118.21885368142
10143,50TH ST W/AVENUE L 4,0,34.656555124836,-118.21880745215
10144,50TH ST W/AVENUE M 8,0,34.63819744498,-118.21862944416
10145,AVENUE L 8/50TH ST W,0,34.652906322757,-118.21866150879
10146,RANCHO VISTA BLVD/AVENIDA VISTA VERDE,0,34.621768591029,-118.2184997966
10147,50TH ST W/AVENUE L 12,0,34.649235482719,-118.21854544542
10148,50TH ST W/AVENUE M,0,34.645572842312,-118.21845268793
10149,RANCHO VISTA BLVD/ASTUTO DR,0,34.619277373293,-118.21638262374
10150,RANCHO VISTA BLVD/MAESTRO LN,0,34.618025877734,-118.21241411398
10151,RANCHO VISTA BLVD/PEONZA LN,0,34.617561720287,-118.21070784599
10152,AVENUE L/45TH ST W,0,34.660183780499,-118.21012095598
10153,AVENUE L/42ND ST W,0,34.660163794347,-118.20573796197
10154,AVENUE L/4163 AVENUE L,0,34.660158860757,-118.20540540476
10155,RANCHO VISTA BLVD/CRICKET LN,0,34.615620740922,-118.20487985858
10156,RANCHO VISTA BLVD/RESORT WY,0,34.615154997005,-118.20405776904
10157,AVENUE L/40TH ST W,0,34.660154646881,-118.20135167129
10158,RANCHO VISTA BLVD/TOWN CENTER DR,0,34.612023025072,-118.1987656764
10159,AVENUE L/37TH ST W,0,34.660170162761,-118.1969089078
10160,RANCHO VISTA BLVD/AVENUE O 8,0,34.607845131293,-118.19270385312
10161,AVENUE L/35TH ST W,0,34.660207672168,-118.19235645412
10162,AVENUE L/32ND ST W,0,34.660230974408,-118.1879968408
10163,30TH ST W/AVENUE J,0,34.689366490763,-118.18387459958
10164,LANCASTER BLVD/30TH ST W,0,34.696689341089,-118.18385089564
10165,AVENUE I/30TH ST W,0,34.704017633767,-118.18385714444
10166,30TH ST W/AVENUE J 4,0,34.684643256832,-118.18374771484
10167,30TH ST W/AVENUE J 6,0,34.684324520879,-118.18374368307
10168,30TH ST W/AVENUE J 8,0,34.682145566345,-118.18372222965
10170,30TH ST W/AVENUE J 12,0,34.678474632753,-118.18365756253
10171,30TH ST W/AVENUE K 4,0,34.671168365351,-118.18360481959
10172,AVENUE K/30TH ST W,0,34.674839388116,-118.18361293626
10173,30TH ST W/AVENUE K 8,0,34.667546820698,-118.18358351004
10174,30TH ST W/AVENUE K 12,0,34.663875814268,-118.18356209304
10175,AVENUE L/30TH ST W,0,34.660246097871,-118.18349088741
10176,RANCHO VISTA BLVD/30TH ST W,0,34.601754188204,-118.18320889267
10178,RANCHO VISTA BLVD/MARIE KERR PARK,0,34.601730015739,-118.18100229392
10179,AVENUE J/27TH ST W,0,34.689395332625,-118.17927727548
10180,AVENUE K/27TH ST W,0,34.674870698649,-118.17919935371
10181,AVENUE L/27TH ST W,0,34.660269322223,-118.17896832294
10182,RANCHO VISTA BLVD/MESA LN,0,34.601746399626,-118.17734358424
10183,AVENUE H/25TH ST W,0,34.718706443752,-118.1750410791
10184,AVENUE I/VALLEY CENTRAL WY,0,34.704016999709,-118.17496685074
10185,AVENUE J/25TH ST W,0,34.68937164519,-118.17478296319
10186,AVENUE K/25TH ST W,0,34.674915707359,-118.17470264604
10187,AVENUE L/25TH ST W,0,34.660297649761,-118.17460206334
10188,VALLEY CENTRAL WY/CENTRAL CT,0,34.692120130885,-118.17235691113
10189,VALLEY CENTRAL WY/AVENUE J,0,34.689372535354,-118.17223144907
10190,LANCASTER BLVD/VALLEY CENTRAL WY,0,34.696706661397,-118.1720037999
10191,VALLEY CENTRAL WY/44690 VALLEY CENTRAL WY,0,34.694597275712,-118.17136400565
10192,AVENUE L/22ND ST W,0,34.660323114685,-118.17020586613
10193,AVENUE K/22ND ST W,0,34.674979756359,-118.17022592912
10194,AVENUE H/20TH ST W,0,34.718726952334,-118.1662923509
10195,AVENUE I/20TH ST W,0,34.70401586151,-118.165970087
10196,LANCASTER BLVD/20TH ST W,0,34.696706956571,-118.16585234091
10197,20TH ST W/NEWGROVE ST,0,34.693044278188,-118.16577848878
10198,20TH ST W/AVENUE K,0,34.674999698951,-118.16573248739
10199,20TH ST W/AVENUE K 4,0,34.671331445558,-118.16570853717
10200,AVENUE L/20TH ST W,0,34.660351372391,-118.16566002665
10201,AVENUE K 8/20TH ST W,0,34.66763847842,-118.16567123678
10202,AVENUE J/20TH ST W,0,34.689398079857,-118.16570800267
10203,RANCHO VISTA BLVD/20TH ST W,0,34.601686198776,-118.16547331302
10204,RANCHO VISTA BLVD/DUNBAR ST,0,34.601707990959,-118.16152882636
10205,AVENUE I/17TH ST W,0,34.703999917105,-118.16148165743
10206,LANCASTER BLVD/17TH ST W,0,34.696707472335,-118.16138097308
10207,AVENUE J/17TH ST W,0,34.689398497746,-118.16130688726
10208,AVENUE K 8/17TH ST W,0,34.667638930268,-118.1612446686
10209,AVENUE L/17TH ST W,0,34.660354655343,-118.1611706687
10210,AVENUE I/15TH ST W,0,34.703967230473,-118.15706306948
10211,15TH ST W/LANCASTER BLVD,0,34.696699529052,-118.15694951245
10212,15TH ST W/NEWGROVE ST,0,34.693872105695,-118.15692420653
10213,15TH ST W/NORBERRY ST,0,34.69269607096,-118.15691533017
10214,15TH ST W/43816 15TH ST W,0,34.678676976849,-118.15687553354
10215,15TH ST W/43839 15TH ST W,0,34.679199057525,-118.15687319366
10216,15TH ST W/AVENUE J 8,0,34.682161179073,-118.15685883194
10217,15TH ST W/MEADOW VIEW LN,0,34.680166302641,-118.15685173727
10218,15TH ST W/AVENUE J 5,0,34.684826523256,-118.15685721433
10219,15TH ST W/AVENUE J 3,0,34.686964290827,-118.15685792646
10220,AVENUE J/15TH ST W,0,34.689393320971,-118.15685918889
10221,15TH ST W/AVENUE K 11,0,34.664789799422,-118.15679609192
10222,15TH ST W/43112 15TH ST W,0,34.665968595195,-118.15679831745
10223,AVENUE K 8/15TH ST W,0,34.66760077364,-118.15680139906
10224,15TH ST W/AVENUE L,0,34.660338461064,-118.15674113215
10227,RANCHO VISTA BLVD/15TH ST W,0,34.601725486339,-118.15655748904
10229,15TH ST W/AVENUE K,0,34.674895033547,-118.15551469186
10230,AVENUE J/LOWTREE AV,0,34.689383358207,-118.15390180716
10232,AVENUE I/13TH ST W,0,34.70395816372,-118.15339980347
10233,AVENUE H/SUFFOLK DR,0,34.718581942917,-118.15325711482
10234,ANTELOPE VALLEY MALL,0,34.603607240162,-118.15262306038
10235,AVENUE K/12TH ST W,0,34.674882502893,-118.15238819411
10237,RANCHO VISTA BLVD/ARMFIELD AV,0,34.60171550337,-118.15142326758
10238,AVENUE J/KINGTREE AV,0,34.689375616896,-118.15131035817
10243,LANCASTER CITY PARK (LCP)/10TH ST W&AVENUE K 8,0,34.666711910127,-118.1491173326
10244,10TH ST W/AVENUE H,0,34.718508220917,-118.1484450022
10245,10TH ST W/AVENUE H 4,0,34.71511481605,-118.14837903547
10246,10TH ST W/AVENUE H 6,0,34.713001827769,-118.14834531012
10247,10TH ST W/HOLGUIN ST,0,34.711581241307,-118.14833944373
10248,10TH ST W/AVENUE H 12,0,34.707577878891,-118.14823246914
10249,AVENUE I/10TH ST W,0,34.703906960624,-118.14815271566
10250,10TH ST W/JACKMAN ST,0,34.700766289558,-118.14813047529
10251,10TH ST W/NEWGROVE ST,0,34.693468257873,-118.14809416649
10252,10TH ST W/LANCASTER BLVD,0,34.697139279078,-118.14809406125
10253,AVENUE J/10TH ST W,0,34.689404340495,-118.14806363135
10254,10TH ST W/AVENUE J 4,0,34.685777332036,-118.14802057228
10255,10TH ST W/AVENUE J 8,0,34.682133806723,-118.14800077182
10256,10TH ST W/AVENUE J 10,0,34.680523666155,-118.14795466053
10257,10TH ST W/AVENUE J 12,0,34.678064447784,-118.14792034329
10258,10TH ST W/AVENUE O,0,34.616613044554,-118.14780431024
10259,10TH ST W/COMMERCE CENTER DR,0,34.672461760355,-118.14789373387
10260,AVENUE K/10TH ST W,0,34.674835836133,-118.14789796202
10261,10TH ST W/AVENUE O 4,0,34.612884307968,-118.14778106071
10262,10TH ST W/AVENUE O 8,0,34.609196790656,-118.14775456316
10265,RANCHO VISTA BLVD/10TH ST W,0,34.601733789228,-118.14772800365
10266,10TH ST W/AV MALL&RANCHO VISTA BLVD,0,34.602415243246,-118.14772921487
10267,10TH ST/AV MALL,0,34.603137922257,-118.14772385306
10270,10TH ST W/AMARGOSA COMMONS,0,34.599203090592,-118.1477035677
10271,AVENUE L/10TH ST,0,34.660322164216,-118.14780893382
10272,10TH ST W/MARKETPLACE DR,0,34.598202907703,-118.14768849848
10273,10TH ST W/AVENUE L 4,0,34.656703363964,-118.14778254211
10274,10TH ST W/BEECHDALE DR,0,34.595372693704,-118.14766685554
10275,TECHNOLOGY DR/10TH ST W,0,34.594345020241,-118.14766170707
10276,AVENUE L 8/10TH ST W,0,34.653018603075,-118.14776601086
10277,10TH ST W/AVENUE N,0,34.631170975173,-118.14772050654
10278,10TH ST W/AVENUE L 9,0,34.65212558641,-118.14775444686
10279,10TH ST W/AVENUE M 14,0,34.633012005423,-118.14771380677
10280,10TH ST W/AVENUE L 10,0,34.651246308544,-118.14774290755
10281,10TH ST W/AVENUE M 8,0,34.63851857857,-118.14771694838
10282,10TH ST W/AVENUE M 4,0,34.64218961976,-118.14772347598
10283,10TH ST W/AVENUE M,0,34.645780989617,-118.14771656299
10284,10TH ST W/PALMDALE BLVD,0,34.587121100939,-118.14760568255
10285,10TH ST W/AVENUE L 12,0,34.649408082971,-118.14770638792
10286,10TH ST W/DATE PALM DR,0,34.584118005477,-118.14739103893
10287,TIERRA SUBIDA AV/CACTUS DR,0,34.580274007761,-118.1472347227
10288,AVENUE Q 8/TIERRA SUBIDA AV,0,34.579823617032,-118.14702794661
10289,AVENUE O 8/SAM'S CLUB,0,34.609208873107,-118.14685394112
10290,AVENUE I/FERN AV,0,34.703915559587,-118.14558080589
10291,JACKMAN ST/FERN AV,0,34.701110631542,-118.14512673022
10292,TECHNOLOGY DR/TRADE CENTER DR,0,34.594355207923,-118.14374745045
10293,AVENUE Q 8/WAKEFIELD PL,0,34.579781152967,-118.14347308398
10294,AVENUE K/GADSDEN AV,0,34.674863087641,-118.14349766588
10295,AVENUE L 8/7TH ST,0,34.653015710524,-118.1432936649
10299,AVENUE J/FIG AV,0,34.689419803568,-118.14200588684
10300,6TH ST W/42210 6TH ST W,0,34.649630068382,-118.1412595594
10301,6TH ST W/AVENUE M,0,34.645805204764,-118.14120983197
10303,TECHNOLOGY DR/5TH ST W,0,34.594362031719,-118.1402585076
10304,AVENUE Q 8/CAMPOS DR,0,34.579768749574,-118.13997143144
10305,AVENUE L/5TH ST W,0,34.660285809932,-118.13902302647
10306,PALMDALE BLVD/5TH ST W,0,34.583416712841,-118.13855891879
10307,5TH ST W/AVENUE Q 8,0,34.579770386517,-118.13854287502
10308,SIERRA HWY/AVENUE I,0,34.703910752251,-118.13791160388
10310,AVENUE M/4TH ST W,0,34.645809764052,-118.1372266434
10311,LANCASTER BLVD/SIERRA HWY,0,34.69835306606,-118.13698412586
10312,AVENUE J/BEECH AV,0,34.689436635038,-118.13690953561
10313,PALMDALE BLVD/DEL TACO 405 PALMDALE BLVD,0,34.582432727253,-118.13636785875
10314,RANCHO VISTA BLVD/340 RANCHO VISTA BLVD,0,34.601720067703,-118.13593759169
10316,SIERRA HWY/AVENUE J,0,34.689435406689,-118.1355522732
10317,LANCASTER BLVD/YUCCA AV,0,34.698539245266,-118.13512464935
10319,SIERRA HWY/AVENUE J 7,0,34.68273786962,-118.13416755677
10321,SIERRA HWY/AVENUE K,0,34.674943792859,-118.13292433001
10323,SIERRA HWY/AVENUE L,0,34.660506666548,-118.13065321367
10324,AVENUE I/DIVISION ST,0,34.703951942005,-118.13045874374
10325,LANCASTER BLVD/DIVISION ST,0,34.696662130514,-118.13044396139
10326,DIVISION ST/LANCASTER BLVD,0,34.699055440031,-118.13044106799
10327,AVENUE J/DIVISION ST,0,34.689446550787,-118.1303827256
10329,DIVISION ST/AVENUE K 4,0,34.671300460362,-118.13017796339
10330,AVENUE K 6/DIVISION ST,0,34.669421007286,-118.13015173658
10333,PALMDALE BLVD/DIVISION ST,0,34.579774778544,-118.12957950426
10334,SIERRA HWY/AVENUE L 8,0,34.6531026546,-118.12946778499
10335,AVENUE M/SIERRA HWY,0,34.645849737817,-118.12829610047
10336,BUSINESS CENTER PKWY/AVENUE K 10,0,34.665472295845,-118.12770118945
10337,AVENUE K/STANRIDGE AV,0,34.67496365412,-118.12719692332
10338,AVENUE I/3RD ST E,0,34.704003337312,-118.12601368256
10339,AVENUE J/3RD ST E,0,34.689442939886,-118.12598493019
10340,LANCASTER BLVD/3RD ST E,0,34.696749284166,-118.12596274877
10341,AVENUE K 4/COPELAND CIR,0,34.671316110871,-118.12574789921
10342,RANCHO VISTA BLVD/3RD ST E,0,34.601742276153,-118.12550639044
10343,AVENUE I/3RD ST E,0,34.704009341663,-118.12552126575
10344,PALMDALE BLVD/3RD ST E,0,34.579837373169,-118.12490854253
10345,AVENUE K 6/335 AVENUE K 6,0,34.669470718453,-118.12466421397
10346,AVENUE L/BUSINESS CENTER PKWY,0,34.660321858377,-118.12343669183
10348,AVENUE K 4/GINGHAM AV,0,34.671316855499,-118.12232223128
10351,AVENUE I/5TH ST E,0,34.704040821503,-118.12157857736
10352,LANCASTER BLVD/5TH ST E,0,34.696759262322,-118.12155460611
10353,AVENUE J/5TH ST E,0,34.689433734332,-118.12152724809
10354,RANCHO VISTA BLVD/SIERRA HWY,0,34.601782215243,-118.12135256351
10355,AVENUE K/5TH ST E,0,34.674964164009,-118.12131648825
10358,6TH ST E/AVENUE Q,0,34.587168536135,-118.11943406844
10359,PALMDALE STATION/39000 CLOCK TOWER PLAZA DR,0,34.590716149726,-118.11923648288
10360,PALMDALE BLVD/5TH ST&6TH ST,0,34.579532697737,-118.11910416576
10361,PALMDALE BLVD/6TH ST E,0,34.579489563371,-118.11825361602
10362,AVENUE Q/SIERRA HWY,0,34.587208484766,-118.11791905351
10364,LANCASTER BLVD/ANDALE AV,0,34.696768647665,-118.11759559486
10365,AVENUE I/7TH ST E,0,34.704119392529,-118.11711025432
10366,AVENUE K/7TH ST,0,34.674949295088,-118.11685625014
10367,PALMDALE BLVD/SIERRA HWY,0,34.579499376712,-118.11662906494
10368,AVENUE Q/RAMBLER AV,0,34.58724921036,-118.11557008359
10369,AVENUE J/HANSTEAD AV,0,34.689447851182,-118.11549610966
10370,PALMDALE BLVD/9TH ST E,0,34.579509810917,-118.11432345944
10371,AVENUE J/CHALLENGER WY,0,34.689442237127,-118.1126917629
10372,LANCASTER BLVD/CHALLENGER WY,0,34.69678705379,-118.11266180996
10373,AVENUE I/CHALLENGER WY,0,34.704162060131,-118.11266183757
10374,CHALLENGER WY/AVENUE J 8,0,34.682136032268,-118.11255877303
10375,AVENUE K/CHALLENGER WY,0,34.674953466347,-118.1124293
10376,CHALLENGER WY/AVENUE K 8,0,34.667740606042,-118.11236632338
10378,10TH ST E/AVENUE Q,0,34.587277238446,-118.1120482412
10379,10TH ST E/AVENUE Q 4,0,34.583152831962,-118.11198952447
10380,PALMDALE BLVD/10TH ST E,0,34.579525797999,-118.11190822765
10381,PALMDALE BLVD/10TH ST E,0,34.579525813294,-118.11189161657
10382,10TH ST E/AVENUE Q 11,0,34.576789036969,-118.11184474594
10383,10TH ST E/AVENUE Q 11,0,34.576522502673,-118.11184106528
10384,10TH ST E/IMPRESSIONS APTS 38055 10TH ST E,0,34.57443694687,-118.11180503969
10385,AVENUE R/10TH ST E,0,34.572565719682,-118.11176930402
10386,AVENUE S/10TH ST E,0,34.557966848996,-118.11147733115
10387,AVENUE Q/11TH ST E,0,34.587273846712,-118.10974240127
10388,PALMDALE BLVD/11TH ST E,0,34.579552566545,-118.10967240912
10389,AVENUE J/PALM VISTA AV,0,34.689489788065,-118.10874978303
10390,AVENUE R/PALM VISTA AV,0,34.572596192961,-118.10846401192
10391,AVENUE K/YAFFA ST,0,34.674979112668,-118.10839152405
10392,AVENUE R/12TH ST,0,34.572599882004,-118.10740431697
10393,AVENUE K/CAROL DR,0,34.674985413738,-118.10748352374
10394,LANCASTER BLVD/13TH ST E,0,34.696814490462,-118.10660686514
10395,AVENUE S/SWAN DR,0,34.557957846395,-118.10618971719
10396,AVENUE I/13TH ST E,0,34.7041790288,-118.10600744388
10397,LANCASTER BLVD/15TH ST E,0,34.696781188233,-118.10380888961
10398,AVENUE J/15TH ST E,0,34.689546389464,-118.1037166783
10399,AVENUE I/15TH ST E,0,34.704172757713,-118.1037183168
10400,AVENUE K/15TH ST E,0,34.675030034146,-118.10355885393
10401,AVENUE Q/15TH ST E,0,34.587334553493,-118.10317715897
10402,AVENUE S/SHEFFIELD DR,0,34.557971498076,-118.10310087134
10403,PALMDALE BLVD/15TH ST E,0,34.579605071279,-118.10305461077
10404,AVENUE R/15TH ST E,0,34.572609289539,-118.10288316453
10405,LANCASTER BLVD/16TH ST E,0,34.696830279484,-118.10098107444
10406,AVENUE S/CASA VERDE DR,0,34.558034260763,-118.10034089835
10407,AVENUE I/17TH ST E,0,34.704179163376,-118.09933306453
10408,AVENUE J/17TH ST E,0,34.689550134173,-118.09922574348
10409,AVENUE K/17TH ST E,0,34.675061231834,-118.09909201921
10410,PALMDALE BLVD/17TH ST E,0,34.579644559007,-118.0985131794
10411,AVENUE R/17TH ST E,0,34.572662496502,-118.09835874116
10412,AVENUE K/STANCLIFF AV,0,34.675063506753,-118.09625823466
10413,AVENUE I/20TH ST E,0,34.704190937707,-118.09490789142
10414,20TH ST E/LANCASTER BLVD,0,34.696879192355,-118.09482966734
10415,AVENUE J/20TH ST E,0,34.689592153414,-118.09477144499
10416,20TH ST E/NUGENT ST,0,34.693216458928,-118.09477558218
10417,20TH ST E/AVENUE J 4,0,34.685962373757,-118.09473736361
10418,20TH ST E/AVENUE J 8,0,34.682285877485,-118.09470655826
10419,20TH ST E/AVENUE K,0,34.675064767095,-118.09465175814
10420,AVENUE Q/20TH ST E,0,34.587402204536,-118.09431604463
10421,PALMDALE BLVD/20TH ST E,0,34.579746940316,-118.09414789308
10422,AVENUE R/20TH ST E,0,34.572685180735,-118.09400037503
10423,AVENUE J/21ST ST E,0,34.68962406893,-118.09257590921
10424,AVENUE S/20TH ST E,0,34.558082520657,-118.0914164555
10425,AVENUE Q/2231 E AVENUE Q,0,34.587424588618,-118.09016622414
10426,PALMDALE BLVD/22ND ST E,0,34.580099355045,-118.08959349842
10427,AVENUE Q/2270 E AVENUE Q,0,34.587425104235,-118.08946849242
10428,AVENUE I/25TH ST E,0,34.704285454943,-118.0860443067
10429,AVENUE J/25TH ST E,0,34.689744415758,-118.08583629255
10430,AVENUE Q/25TH ST E,0,34.587425370677,-118.08527545401
10431,PALMDALE BLVD/25TH ST E,0,34.580135503515,-118.08517827605
10432,AVENUE R/25TH ST E,0,34.572694561214,-118.08499458995
10433,AVENUE S/25TH ST E,0,34.558065287388,-118.08487003285
10434,AVENUE I/26TH ST E,0,34.704303501619,-118.08380843856
10435,AVENUE I/27TH ST E,0,34.704321558486,-118.08149604359
10436,AVENUE J/27TH ST E,0,34.689810648116,-118.0814219207
10437,AVENUE R/27TH ST E,0,34.572697246349,-118.08106473064
10438,AVENUE S/27TH ST E,0,34.558067937523,-118.0809873639
10439,PALMDALE BLVD/27TH ST E,0,34.580171524686,-118.08071321621
10440,AVENUE I/30TH ST E,0,34.70438212929,-118.07709419686
10441,30TH ST E/LANCASTER BLVD,0,34.697122548771,-118.07706749379
10442,30TH ST E/NEWGROVE ST,0,34.695358491362,-118.07705254881
10443,30TH ST E/AVENUE J,0,34.689873972573,-118.07700753927
10444,AVENUE S/30TH ST E,0,34.558068206507,-118.07632749405
10445,AVENUE Q/30TH ST E,0,34.587450557939,-118.07632124681
10446,PALMDALE BLVD/30TH ST E,0,34.580201867431,-118.07627804766
10447,AVENUE R/30TH ST E,0,34.572771815553,-118.07623468977
10448,AVENUE R/LEMSFORD AV,0,34.572875973246,-118.07215874911
10449,LANCASTER BLVD/33RD ST E,0,34.69715053893,-118.07173445801
10450,AVENUE I/33RD ST E,0,34.704427083098,-118.07094886837
10451,AVENUE S/POND AV,0,34.558041452488,-118.07058483762
10452,AVENUE R/DEBRA ANN PL,0,34.572944050573,-118.0684780815
10453,AVENUE I/35TH ST E,0,34.704436943953,-118.06811741469
10454,PALMDALE BLVD/35TH ST E,0,34.580171413634,-118.06736443822
10455,AVENUE R/35TH ST E,0,34.572977684961,-118.06729549259
10456,AVENUE Q/LILACVIEW AV,0,34.58740144498,-118.0663668921
10457,AVENUE S/DAWSON DR,0,34.558068782614,-118.06595820463
10458,AVENUE S/37TH ST E,0,34.558089586107,-118.06300220898
10459,AVENUE R/JANUS DR,0,34.573092993959,-118.06232925375
10460,LANCASTER BLVD/40TH ST E,0,34.697242425715,-118.05927518795
10461,AVENUE I/40TH ST E,0,34.704471818523,-118.0592304419
10462,AVENUE S/40TH ST E,0,34.558080848389,-118.05849511474
10463,AVENUE Q/40TH ST E,0,34.587446706771,-118.05849252061
10464,PALMDALE BLVD/40TH ST E,0,34.58021728461,-118.05836783336
10465,AVENUE R/40TH ST E,0,34.573177428263,-118.05829977398
10466,AVENUE S/SPRINGFIELD ST,0,34.558076339074,-118.05640929667
10467,AVENUE R/42ND ST E,0,34.573061361798,-118.05376853932
10468,AVENUE R/43RD ST E,0,34.572971737072,-118.05133348744
10469,AVENUE S/45TH ST E,0,34.558054524857,-118.04973334757
10470,AVENUE S/47TH ST E,0,34.558056263906,-118.04528604713
10471,47TH ST E/AVENUE R 11,0,34.56218901717,-118.04517868749
10472,47TH ST E/AVENUE R 8,0,34.565425958231,-118.04513394304
10473,47TH ST E/AVENUE R 4,0,34.569088811401,-118.04508278247
10474,AVENUE R/47TH ST E,0,34.572737919109,-118.04504489774
10475,AVENUE R 8/50TH ST E,0,34.56533986214,-118.03989233074
10476,AVENUE S/HILLCREST DR,0,34.558180096632,-118.0365941019
10477,AVENUE R/52ND ST E,0,34.572587053188,-118.03601578122
10478,AVENUE R 8/55TH ST E,0,34.565251576647,-118.03178082501
10479,AVENUE R/55TH ST E,0,34.572552540902,-118.03167399171
10480,55TH ST E/AVENUE S,0,34.557975402008,-118.0316385473
10481,PEARBLOSSOM HWY/FORT TEJON RD,0,34.54269785274,-118.0304040596
10482,PEARBLOSSOM HWY/60TH ST E,0,34.53813792047,-118.02392397103
10483,AVENUE R/60TH ST E,0,34.57249132631,-118.02282100705
10484,PALMDALE BLVD/65TH ST E,0,34.579664447216,-118.01398918439
10485,AVENUE R/65TH ST E,0,34.572385502927,-118.01395806231
10487,AVENUE R/WALBERG ST,0,34.572311738161,-118.00955317149
10488,70TH ST E/PETER KNIGHT HS 37423 70TH ST E,0,34.56204612278,-118.0063135108
10490,AVENUE R/70TH ST E,0,34.572262551352,-118.00497222788
10491,PEARBLOSSOM HWY/72ND ST E,0,34.521021333189,-118.00124757834
10492,PEARBLOSSOM HWY/77TH ST E,0,34.521037595553,-117.99250964889
10493,PEARBLOSSOM HWY/82ND ST E,0,34.521072454655,-117.98370199479
10494,87TH ST E/PEARBLOSSOM HWY,0,34.52110667704,-117.97490429303
10495,87TH ST E/AVENUE U,0,34.528369173485,-117.97488882145
10496,87TH ST E/AVENUE T 8,0,34.535637160476,-117.97487334551
10497,87TH ST E/AVENUE T,0,34.542888658078,-117.97487115486
10498,90TH ST E/AVENUE R,0,34.572289128704,-117.96980961572
10499,90TH ST E/AVENUE R 8,0,34.565001894664,-117.96966278783
10500,90TH ST E/AVENUE S,0,34.557783350099,-117.9695159605
10501,PALMDALE BLVD/90TH ST E,0,34.579710885136,-117.96949795365
10502,AVENUE R/95TH ST E,0,34.572355311642,-117.96098654201
10503,PALMDALE BLVD/95TH ST E,0,34.579741330303,-117.9606940423
10504,AVENUE S/96TH ST E,0,34.557876163188,-117.95821668364
10505,96TH ST E/AVENUE S 4,0,34.55379840282,-117.95821209003
10506,96TH ST E/AVENUE S 8,0,34.550190515156,-117.95820061865
10507,96TH ST E/AVENUE S 12,0,34.546566141524,-117.95819579836
10508,96TH ST E/AVENUE T,0,34.542928024027,-117.95818102313
10509,96TH ST E/AVENUE T 8,0,34.535671022064,-117.9581581078
10510,96TH ST E/AVENUE U,0,34.528411271646,-117.95814847856
10512,AVENUE R/100TH ST E,0,34.572415375334,-117.95220664262
10513,AVENUE S/100TH ST E,0,34.557912335258,-117.95199908977
10514,PALMDALE BLVD/100TH ST E,0,34.579779367958,-117.95185689753
10515,AVENUE S/102ND ST E,0,34.557926977987,-117.94753850128
10516,AVENUE R/105TH ST E,0,34.572513163976,-117.94319084691
10517,AVENUE S/105TH ST E,0,34.557924962283,-117.94306131573
10518,PALMDALE BLVD/105TH ST,0,34.579868919911,-117.94291007534
10519,AVENUE R/107TH ST E,0,34.572565991129,-117.93880584983
10520,110TH ST E/AVENUE R 4,0,34.568909007917,-117.93422446534
10521,AVENUE R/110TH ST E,0,34.572618543331,-117.93420492101
10522,110TH ST E/AVENUE R 8,0,34.56526264551,-117.93419745488
10523,110TH ST E/AVENUE R 10,0,34.563468313102,-117.93417894534
10524,110TH ST E/AVENUE R 14,0,34.559857682729,-117.93417516037
10525,AVENUE S/110TH ST E,0,34.557895738,-117.93416674929
10526,PALMDALE BLVD/110TH ST E,0,34.579963373756,-117.93408283003
10527,E AVENUE V 10/121ST ST E,0,34.504619401964,-117.91410433433
10529,126TH ST E/AVENUE V 10,0,34.504637653369,-117.90538801976
10531,AVENUE W/128TH ST E,0,34.499154992607,-117.90101647799
10533,LONGVIEW RD/PEARBLOSSOM HWY,0,34.506424834855,-117.89661639526
10534,PALMDALE BLVD/150TH ST E,0,34.579941598749,-117.86220294792
10536,155TH ST E/AVENUE N 4,0,34.62748245648,-117.85374395205
10538,AVENUE N/158TH ST E,0,34.63116194261,-117.84939595751
10539,AVENUE N 8/158TH ST E,0,34.623797688955,-117.84926637345
10540,PALMDALE BLVD/158TH ST E,0,34.579925759039,-117.84887748123
10541,AVENUE N 8/160TH ST E,0,34.623803030327,-117.84477565083
10542,160TH ST E/AVENUE Q,0,34.587152459759,-117.84448857656
10545,AVENUE N/162ND ST E,0,34.631175290973,-117.84047022311
10546,AVENUE N 8/162ND ST E,0,34.623805506078,-117.84032149675
10547,AVENUE P 8/163RD ST E,0,34.594513629464,-117.84009200413
10548,AVENUE N/165TH ST E,0,34.631188609119,-117.83602230055
10549,AVENUE N 8/165TH ST E,0,34.62380787699,-117.8359105542
10550,AVENUE N/167TH ST E,0,34.631199039807,-117.83159100354
10551,AVENUE P 8/FRONTIER CIRCUS ST,0,34.594551085317,-117.83121334999
10552,170TH ST E/AVENUE K 8,0,34.667714007693,-117.82738637528
10553,170TH ST E/AVENUE M,0,34.645728887784,-117.82732898759
10554,170TH ST E/41725 170TH ST E,0,34.640760806075,-117.8272761449
10555,170TH ST E/AVENUE M 8,0,34.638427908699,-117.82726104766
10556,AVENUE N/170TH ST E,0,34.631209332642,-117.82717632683
10557,170TH ST E/AVENUE N 8,0,34.623770822647,-117.82701895054
10558,170TH ST E/AVENUE N 12,0,34.620132705214,-117.82699660936
10560,170TH ST/AVENUE O,0,34.616469813421,-117.82694440842
10561,170TH ST E/PARKVALLEY AV,0,34.612438767622,-117.82692953788
10562,170TH ST E/TOWN CENTER PLAZA 40340 170TH ST E,0,34.614996963359,-117.82692421009
10563,170TH ST E/RAWHIDE AV,0,34.597941200196,-117.8268234835
10565,170TH ST E/AVENUE P,0,34.600717266004,-117.82544859472
10566,170TH ST E/LONGMEADOW AV,0,34.603330974015,-117.82392109171
