stop_id,stop_name,stop_desc,stop_lat,stop_lon
10002,HARBOR GATEWAY TRANS CTR/BUS BAY 1,0,33.86924579616,-118.28734848084
10003,FIGUEROA ST/SHADWELL ST,0,33.821766430776,-118.28609613328
10004,FIGUEROA ST/223RD ST,0,33.824434552164,-118.28609864767
10005,FIGUEROA ST/22102 FIGUEROA ST,0,33.826701512259,-118.28609320924
10006,FIGUEROA ST/STEPHEN WHITE SCHOOL,0,33.827883071092,-118.28609394635
10007,FIGUEROA ST/213TH ST,0,33.835238932351,-118.28611244942
10008,FIGUEROA ST/CARSON TOWN CENTER,0,33.838920994812,-118.28611842337
10009,FIGUEROA ST/CARSON TOWN CTR,0,33.839918460714,-118.28611524002
10010,FIGUEROA ST/CARSON ST,0,33.83162012545,-118.28608364347
10011,228TH/FIGUEROA ST,0,33.818936432996,-118.28599101153
10012,FIGUEROA ST/234TH ST,0,33.81342271312,-118.28551135196
10013,TORRANCE BLVD/FIGUEROA ST,0,33.842052009572,-118.2855923417
10014,FIGUEROA ST/232ND ST,0,33.815571546513,-118.28549232849
10015,FIGUEROA ST/CARRIAGEDALE DR,0,33.810007571522,-118.28534831005
10016,FIGUEROA ST/SEPULVEDA BLVD,0,33.807847018101,-118.28451475142
10017,228TH ST/CAROLDALE AV,0,33.818919885748,-118.2836930605
10018,ALBERTONI ST/184TH ST,0,33.870299405526,-118.2821934841
10019,228TH ST/MONETA AV,0,33.818918957792,-118.28174741893
10020,MONETA AV/SHADWELL ST,0,33.821636538621,-118.28174996104
10021,MONETA AV/224TH ST,0,33.82304340802,-118.2817546859
10022,MONETA AV/223RD ST,0,33.824384330633,-118.28175918943
10023,CARSON ST/MONETA AV,0,33.831616600437,-118.28175055558
10024,MONETA AV/220TH ST,0,33.828027988925,-118.28173521032
10025,ALBERTONI ST/FIGUEROA ST,0,33.870300654058,-118.28165983928
10026,234TH ST/MONETA AV,0,33.813387346039,-118.28068531296
10027,MAIN ST/FRANCISCO ST,0,33.850274664704,-118.28041356674
10028,MAIN ST/DEL AMO BLVD,0,33.846175475811,-118.28017263194
10029,TORRANCE BLVD/MAIN ST,0,33.842106514072,-118.27993182156
10030,MAIN ST/DOMINGUEZ ST,0,33.839111781777,-118.27976376758
10031,SEPULVEDA BLVD/321 SEPULVEDA BLVD,0,33.807888839626,-118.27956420714
10032,213TH ST/MAIN ST,0,33.835313221122,-118.27904315608
10034,ALBERTONI ST/BROADWAY,0,33.870879350081,-118.278585045
10035,CARSON ST/MAIN ST,0,33.831625193186,-118.27805298251
10036,MAIN ST/218TH ST,0,33.830523988387,-118.27776287904
10037,MAIN ST/220TH ST,0,33.827923412129,-118.27706614307
10038,MAIN ST/192ND ST,0,33.857977553649,-118.27652647351
10039,MAIN ST/223RD ST,0,33.824284816264,-118.276082891
10040,MAIN ST/225TH ST,0,33.822013191353,-118.27572643875
10041,SEPULVEDA BLVD/MAIN ST,0,33.807939087126,-118.27564727399
10042,MAIN ST/GULF AV,0,33.810450580371,-118.27564894116
10043,MAIN ST/234TH ST,0,33.813371555261,-118.27562561856
10044,213TH ST/BOLSA ST,0,33.835337434235,-118.27568791796
10045,MAIN ST/232ND ST,0,33.815536851207,-118.27561627194
10047,MAIN ST/228TH ST,0,33.818883758091,-118.27558446959
10048,MAIN ST/LOMITA BLVD,0,33.798627480656,-118.27533692606
10049,MAIN ST/ALBERTONI ST,0,33.87123814311,-118.27550948594
10050,MAIN ST/GRIFFITH ST,0,33.859922695263,-118.27546572202
10051,MAIN ST/VICTORIA ST,0,33.865553052415,-118.27543810346
10052,MAIN ST/LIFFORD ST,0,33.862002963702,-118.27539350447
10053,CARSON ST/ORRICK AV,0,33.831627719166,-118.27455623845
10054,LOMITA BLVD/1096 LOMITA BLVD,0,33.798651641916,-118.27438252352
10055,DOLORES ST/DOLORES ELEMENTARY,0,33.821918747324,-118.27255241927
10056,SEPULVEDA BLVD/DOLORES ST,0,33.808023225034,-118.27248424194
10057,DOLORES ST/236TH ST,0,33.810905684718,-118.27248043557
10058,229TH PL/DOLORES ST,0,33.817255998242,-118.27242534247
10059,DOLORES ST/228TH ST,0,33.818855257348,-118.27241078278
10060,DOLORES ST/223RD ST,0,33.824199802607,-118.27238862946
10061,CARSON ST/DOLORES ST,0,33.831632615943,-118.27239959459
10062,213TH ST/DOLORES ST,0,33.835358627392,-118.27241169458
10064,BILLINGS AV/SHERMAN DR,0,33.877417794495,-118.27197512624
10065,WALNUT ST/BILLINGS AV,0,33.875527339205,-118.2719525221
10066,CATSKILL AV/233RD ST,0,33.81425510856,-118.27133255432
10067,WALL ST/VICTORIA ST,0,33.866864497975,-118.27148303062
10069,229TH PL/CATSKILL AV,0,33.817428932629,-118.27128685367
10070,236TH ST/CATSKILL AV,0,33.811474671872,-118.27117872289
10071,WALL ST/184TH ST,0,33.863031813612,-118.27124664071
10072,LOMITA BLVD/NEPTUNE AV,0,33.798828333287,-118.27037097813
10073,CARSON ST/NEPTUNE AV,0,33.831639933716,-118.27037137021
10074,AMBLER AV/169TH ST,0,33.878978288653,-118.26965099848
10076,SEPULVEDA BLVD/PANAMA AV,0,33.808122548217,-118.26863658155
10077,228TH ST/GRACE AV,0,33.819120531384,-118.26807592314
10078,GRACE AV/224TH ST,0,33.823319172912,-118.26808275507
10079,CARSON ST/GRACE AV,0,33.831647833211,-118.26806656815
10080,213TH ST/GRACE AV,0,33.835360106113,-118.26807843176
10081,223RD ST/GRACE AV,0,33.824195836212,-118.26803287941
10082,LOMITA BLVD/ISLAND AV,0,33.798944340938,-118.26764284134
10083,WALNUT ST/METTLER DR,0,33.875799168407,-118.26713048321
10084,UNIVERSITY DR/AVALON BLVD,0,33.858198731704,-118.26616536921
10085,AVALON BLVD/184TH ST,0,33.863040370897,-118.26617744347
10086,184TH ST/AVALON BLVD,0,33.863098074811,-118.26617762664
10087,AVALON BLVD/189TH ST,0,33.859036826518,-118.26616144195
10088,VICTORIA ST/AVALON BLVD,0,33.866980731965,-118.26618665793
10089,AVALON BLVD/17701 AVALON BLVD,0,33.869404334037,-118.26617788154
10090,AVALON BLVD/17700 AVALON BLVD,0,33.869407081844,-118.26617789026
10091,AVALON BLVD/ALBERTONI ST,0,33.87189940155,-118.26615944894
10093,AVALON BLVD/ELSMERE DR,0,33.853330961465,-118.26554392298
10094,WALNUT ST/AVALON BLVD,0,33.875844047315,-118.26547357009
10095,ALONDRA BLVD/AVALON BLVD,0,33.886005726335,-118.2653805494
10097,AVALON BLVD/169TH ST,0,33.879120603609,-118.26495353487
10098,DEL AMO BLVD/AVALON BLVD,0,33.847520955477,-118.2648010162
10100,AVALON BLVD/GARDENA BLVD,0,33.882328087445,-118.26460456039
10102,SEPULVEDA BLVD/AVALON BLVD,0,33.808275351777,-118.26415378442
10103,AVALON BLVD/238TH PL,0,33.809550434036,-118.26410842245
10104,AVALON BLVD/248TH ST,0,33.800977510383,-118.26400244701
10105,AVALON BLVD/246TH ST,0,33.802771829286,-118.2640015092
10106,AVALON BLVD/LOMITA BLVD,0,33.799164051194,-118.2639605372
10107,AVALON BLVD/SCOTTSDALE DR,0,33.81265571038,-118.26399310621
10108,AVALON BLVD/BAYPORT ST,0,33.815167407236,-118.26390225028
10110,228TH ST/AVALON BLVD,0,33.819240038036,-118.26373070198
10111,223RD ST/AVALON BLVD,0,33.824202616956,-118.26371667186
10112,AVALON BLVD/220TH ST,0,33.827848983272,-118.26370837997
10113,CARSON ST/AVALON BLVD,0,33.83166017564,-118.26372036116
10115,213TH ST/AVALON BLVD,0,33.83536420558,-118.26373200651
10116,GARDENA BLVD/HEMINGWAY PARK,0,33.882386383108,-118.26307934318
10117,UNIVERSITY DR/WADLEY AV,0,33.858205862187,-118.26291784989
10120,CIVIC CENTER DR/DESFORD ST,0,33.833959542551,-118.26271673098
10122,CARSON ST/CIVIC CENTER DR,0,33.831666781829,-118.26195224986
10123,GALWAY AV/TURMONT ST,0,33.850492476476,-118.26177063641
10124,RAINSBURY AV/HAXBY CT,0,33.872212301699,-118.26129819824
10125,RAINSBURY AV/MEADBROOK ST,0,33.869277764193,-118.26123305374
10129,BRENNER DR/EDDINGTON DR,0,33.8568350187,-118.26023914964
10130,DENWALL DR/WADLEY AV,0,33.847518044441,-118.2598282249
10133,UNIVERSITY DR/CAMPAIGN DR,0,33.858205009445,-118.25950891659
10134,CARSON ST/BONITA ST,0,33.831669620533,-118.25937085182
10135,220TH ST/BONITA ST,0,33.827850219795,-118.25934258055
10136,MCKINLEY AV/ALONDRA BLVD,0,33.88619712607,-118.25950661129
10137,CLAUDE ST/MCKINLEY AV,0,33.883901103212,-118.25896576867
10139,DEL AMO BLVD/LEAPWOOD AV,0,33.846753669129,-118.25877532514
10140,LEAPWOOD AV/DEL AMO BLVD,0,33.846896554789,-118.25877576601
10141,BITTERLAKE ST/LYSANDER DR,0,33.872951284441,-118.25883641575
10142,MEADBROOK ST/LYSANDER DR,0,33.869332682687,-118.25870336388
10143,BRENNER DR/ENSLOW DR,0,33.856989835095,-118.25852695552
10144,TURMONT ST/CAMPAIGN DR,0,33.851950377686,-118.2585048338
10146,TAMCLIFF AV/VICTORIA ST,0,33.86723031776,-118.25755056298
10147,213TH ST/TROYTON LN,0,33.835401438415,-118.25667245192
10148,DEL AMO BLVD/CAMPAIGN DR,0,33.846733482978,-118.25665114758
10149,TURMONT ST/SCOBEY AV,0,33.853253873853,-118.25544593584
10150,CANEY AV/UNIVERSITY DR,0,33.858216889609,-118.25523379186
10152,BITTERLAKE ST/BAUCHARD CT,0,33.873121273565,-118.25514739354
10153,DEL AMO BLVD/TILLMAN AV,0,33.846756622102,-118.25350950303
10154,UNIVERSITY DR/ANNALEE AV,0,33.858155188603,-118.25322118377
10155,213TH ST/PERRY ST,0,33.835412285636,-118.25284300841
10156,CARSON ST/PERRY ST,0,33.831691774774,-118.25282850159
10157,TURMONT ST/ANNALEE AV,0,33.853314380664,-118.25281464551
10158,BITTERLAKE ST/KEENE AV,0,33.873058088042,-118.25253157817
10159,CARSON ST/ACARUS AV,0,33.83170089337,-118.2510966155
10160,223RD ST/LUCERNE ST,0,33.824241546619,-118.25063311843
10161,213TH ST/WEISER AV,0,33.835417697432,-118.25025162479
10162,BITTERLAKE ST/HARWICK CT,0,33.87234552174,-118.2503190188
10163,RADBARD ST/AMANTHA AV,0,33.870977625816,-118.25006787349
10165,CHARLES WILLARD ST/CENTRAL AV,0,33.864676847445,-118.2487479902
10166,UNIVERSITY DR/CENTRAL AV,0,33.857700228934,-118.24869765311
10167,RADBARD ST/CENTRAL AV,0,33.870999628501,-118.24873051243
10168,CENTRAL AV/VICTORIA ST,0,33.867490704339,-118.24870692754
10169,DEL AMO BLVD/CENTRAL AV,0,33.846783409636,-118.24856648571
10170,VERA ST/ABILA ST,0,33.829576752208,-118.24848586788
10171,CARSON ST/VERA ST,0,33.831698051375,-118.24849215163
10172,TURMONT ST/CENTRAL AV,0,33.853424910258,-118.24855652954
10173,213TH ST/VERA ST,0,33.835424078734,-118.24849660419
10174,220TH ST/VERA ST,0,33.827875900297,-118.24846436751
10176,UNIVERSITY DR/NESTOR AV,0,33.857815620636,-118.24467975905
10177,MARTIN ST/215TH PL,0,33.833105562029,-118.24415329466
10178,CARSON ST/MARTIN ST,0,33.831715183068,-118.24414595526
10179,220TH ST/MARTIN ST,0,33.827884760901,-118.24413151493
10180,213TH ST/MARTIN ST,0,33.835441203918,-118.2441535075
10181,DEL AMO BLVD/TAJAUTA AV,0,33.846787772115,-118.24374195599
10182,TURMONT ST/TAJAUTA AV,0,33.853421235427,-118.24362949703
10183,CHARLES WILLARD ST/BISHOP AV,0,33.864851221476,-118.24274041098
10184,WILMINGTON AV/223RD ST,0,33.824261221395,-118.24236287208
10185,220TH ST/WILMINGTON AV,0,33.827888464067,-118.24092796119
10187,TURMONT ST/BROADACRES AV,0,33.853513104666,-118.24030006885
10188,UNIVERSITY DR/GRANDEE AV,0,33.857960411202,-118.23963102893
10189,CARSON ST/WILMINGTON AV,0,33.831738190764,-118.23952978019
10191,HARMON AV/CHARLES WILLARD ST,0,33.864210441058,-118.23888470824
10192,DEL AMO BLVD/ALVO AV,0,33.846789650544,-118.23868689507
10193,GUNLOCK AV/KRAMER DR,0,33.854968873058,-118.23782092323
10195,GLENN CURTISS ST/1800 GLEN CURTISS ST,0,33.860740550925,-118.23718512943
10198,CASHDAN ST/CRAIGJON AV,0,33.855884428971,-118.2361536849
10200,UNIVERSITY DR/WILMINGTON AV,0,33.858093415052,-118.23488197081
10202,WILMINGTON AV/GLADWICK ST,0,33.853285512591,-118.23447987707
10203,WILMINGTON AV/DIAMONDALE DR,0,33.849150669524,-118.23415874703
10204,DEL AMO BLVD/WILMINGTON AV,0,33.846732884318,-118.23400709597
10205,CARSON ST/ARNOLD CENTER RD,0,33.831733585022,-118.23062654609
10206,DEL AMO/RR XING,0,33.84666300994,-118.23034157255
10208,DEL AMO BLVD/FORDYCE AV,0,33.846653349304,-118.22380455112
10209,CARSON ST/BATAAN AV,0,33.83171415376,-118.22344201779
10210,CARSON ST/HARBOR VIEW AV,0,33.831717275413,-118.22175291732
10211,DEL AMO BLVD/RR XING,0,33.846655630384,-118.22108108398
10213,CARSON/EVONDA,0,33.831720944475,-118.2197510203
10214,CARSON ST/PROSPECT AV,0,33.83171810127,-118.21829238684
10215,CARSON ST/SANTA FE AV,0,33.831717745095,-118.21696875694
10216,SANTA FE AV/MADISON AV,0,33.834728538192,-118.21588994456
10217,SANTA FE AV/DOMINGUEZ PARK,0,33.835102351143,-118.21582834456
10218,SANTA FE AV/DOMINGUEZ ST,0,33.839185686629,-118.21424179387
10219,SANTA FE AV/EL PRESIDIO ST,0,33.841630101549,-118.2133358771
10220,DEL AMO BLVD/SANTA FE AV,0,33.846636721418,-118.21172177395
10221,DEL AMO STATION,0,33.847539514538,-118.21086122669
