stop_id,stop_code,stop_name,stop_desc,stop_lat,stop_lon,zone_id
0002, "0002","L.B. BLVD. & EIGHTH NE",,  33.776894,-118.189240,
0004, "0004","L.B. BLVD. & TENTH NE",,  33.779320,-118.189240,
0005, "0005","L.B. BLVD. & ANAHEIM NE",,  33.783123,-118.189278,
0006, "0006","L.B. BLVD. & 15TH NE",,  33.785999,-118.189247,
0007, "0007","L.B. BLVD. & 17TH NE",,  33.788303,-118.189255,
0008, "0008","PCH & LOCUST NE",,  33.789932,-118.190941,
0009, "0009","PCH & PACIFIC NW",,  33.789909,-118.194298,
0010, "0010","PCH & CHESTNUT NW",,  33.789917,-118.196899,
0011, "0011","PCH & MAGNOLIA NW",,  33.789955,-118.198486,
0012, "0012","PCH & MAINE NW",,  33.789948,-118.200996,
0013, "0013","HARBOR & PCH NE",,  33.790253,-118.210403,
0014, "0014","HARBOR & 19TH NE",,  33.791847,-118.210419,
0015, "0015","EASY & 20TH NE",,  33.793659,-118.209946,
0016, "0016","EASY & 21ST NE",,  33.795483,-118.209991,
0017, "0017","EASY & HILL NE",,  33.797215,-118.209938,
0018, "0018","EASY & 23RD NE",,  33.799076,-118.209991,
0019, "0019","EASY & BURNETT NE",,  33.800842,-118.209930,
0020, "0020","EASY & 25TH NE",,  33.802670,-118.209938,
0021, "0021","EASY & WILLOW NE",,  33.804653,-118.209976,
0022, "0022","EASY & 27TH NE",,  33.806290,-118.209938,
0023, "0023","EASY & 28TH NE",,  33.808113,-118.209930,
0024, "0024","EASY & 29TH NE",,  33.809921,-118.209923,
0025, "0025","EASY & SPRING NE",,  33.811852,-118.209991,
0026, "0026","EASY & 32ND NE",,  33.815510,-118.209999,
0027, "0027","EASY & 33RD NE",,  33.817299,-118.209984,
0028, "0028","EASY & 34TH SE",,  33.818684,-118.209999,
0029, "0029","DELTA & TAPER NE",,  33.819832,-118.211075,
0030, "0030","DELTA & CAMERON NE",,  33.823128,-118.211052,
0031, "0031","WARDLOW & SANTA FE NW",,  33.824482,-118.215935,
0032, "0032","DELTA & WARDLOW SW",,  33.823441,-118.211159,
0033, "0033","DELTA & ARLINGTON SW",,  33.821201,-118.211151,
0034, "0034","DELTA & 34TH NW",,  33.819092,-118.211159,
0035, "0035","EASY & 34TH SW",,  33.818714,-118.210075,
0036, "0036","EASY & 33RD SW",,  33.816868,-118.210075,
0037, "0037","EASY & 32ND SW",,  33.815041,-118.210060,
0038, "0038","EASY & SPRING SW",,  33.811428,-118.210075,
0039, "0039","EASY & 29TH SW",,  33.809643,-118.210091,
0040, "0040","EASY & 28TH SW",,  33.807808,-118.210098,
0041, "0041","EASY & 27TH SW",,  33.806000,-118.210075,
0042, "0042","EASY & WILLOW SW",,  33.804024,-118.210052,
0043, "0043","EASY & 25TH SW",,  33.802395,-118.210060,
0044, "0044","EASY & BURNETT SW",,  33.800625,-118.210052,
0045, "0045","EASY & 23RD SW",,  33.798759,-118.210083,
0046, "0046","EASY & HILL SW",,  33.796848,-118.210068,
0047, "0047","EASY & 21ST SW",,  33.795105,-118.210083,
0048, "0048","HARBOR & 20TH SW",,  33.793274,-118.210579,
0049, "0049","HARBOR & 19TH SW",,  33.791428,-118.210579,
0050, "0050","PCH & HARBOR SE",,  33.789787,-118.210350,
0051, "0051","PCH & OREGON SE",,  33.789776,-118.200714,
0052, "0052","PCH & HENDERSON SE",,  33.789764,-118.197426,
0053, "0053","PCH & CHESTNUT SE",,  33.789764,-118.195969,
0054, "0054","PCH & PACIFIC SE",,  33.789757,-118.193352,
0055, "0055","PCH & PINE SE",,  33.789753,-118.192078,
0057, "0057","L.B. BLVD. & PCH SW",,  33.789528,-118.189590,
0058, "0058","L.B. BLVD. & 16TH SW",,  33.786785,-118.189575,
0059, "0059","L.B. BLVD. & 15TH SW",,  33.785034,-118.189552,
0060, "0060","L.B. BLVD. & ANAHEIM SW",,  33.782169,-118.189568,
0062, "0062","L.B. BLVD. & TENTH SW",,  33.778503,-118.189529,
0063, "0063","L.B. BLVD. & EIGHTH SW",,  33.776104,-118.189575,
0065, "0065","THIRD & PACIFIC NW",,  33.770557,-118.193909,
0067, "0067","THIRD & CHESTNUT NW",,  33.770569,-118.196655,
0068, "0068","MAGNOLIA & THIRD NE",,  33.770798,-118.197990,
0070, "0070","MAGNOLIA & FIFTH NE",,  33.773090,-118.197990,
0072, "0072","MAGNOLIA & SEVENTH NE",,  33.775585,-118.198013,
0074, "0074","MAGNOLIA & NINTH NE",,  33.778011,-118.198006,
0076, "0076","MAGNOLIA & 11TH NE",,  33.780422,-118.198013,
0077, "0077","ANAHEIM & CHESTNUT NW",,  33.782722,-118.196732,
0078, "0078","ANAHEIM & OREGON NE",,  33.782684,-118.200829,
0079, "0079","ANAHEIM & CASPIAN NW",,  33.782864,-118.212471,
0081, "0081","SANTA FE & COWLES NE",,  33.784966,-118.215385,
0082, "0082","SANTA FE & 16TH NE",,  33.787567,-118.215378,
0083, "0083","SANTA FE & PCH NE",,  33.790176,-118.215370,
0084, "0084","SANTA FE & 19TH NE",,  33.791939,-118.215355,
0085, "0085","SANTA FE & 20TH NE",,  33.793732,-118.215370,
0086, "0086","SANTA FE & HILL NE",,  33.797672,-118.215347,
0087, "0087","SANTA FE & 23RD NE",,  33.799210,-118.215355,
0088, "0088","SANTA FE & 25TH SE",,  33.802269,-118.215317,
0089, "0089","SANTA FE & 25TH NE",,  33.802471,-118.215317,
0090, "0090","SANTA FE & WILLOW NE",,  33.805031,-118.215393,
0091, "0091","SANTA FE & LA VERE E",,  33.806644,-118.215363,
0093, "0093","SANTA FE & COLUMBIA NE",,  33.809345,-118.215355,
0094, "0094","SANTA FE & 29TH NE",,  33.810684,-118.215355,
0095, "0095","SANTA FE & SPRING NE",,  33.811893,-118.215370,
0096, "0096","SANTA FE & 31ST NE",,  33.814247,-118.215347,
0097, "0097","SANTA FE & 33RD SE",,  33.816990,-118.215370,
0098, "0098","SANTA FE & 34TH NE",,  33.819099,-118.215401,
0099, "0099","SANTA FE & ARLINGTON NE",,  33.821556,-118.215370,
0100, "0100","SANTA FE & WARDLOW NE",,  33.825218,-118.215523,
0103, "0103","VIA ORA & HUGHES WAY NE",,  33.829052,-118.212517,
0104, "0104","SANTA FE @ ANAHEIM NE",,  33.783016,-118.215401,
0105, "0105","WARDLOW & R/R TRACKS NE",,  33.824448,-118.218102,
0106, "0106","WARDLOW & WEBSTER N",,  33.824455,-118.220253,
0107, "0107","MCHELEN & WARDLOW NE",,  33.824654,-118.222221,
0108, "0108","MCHELEN & 221ST NE",,  33.826744,-118.222229,
0109, "0109","MCHELEN & 220TH NE",,  33.828323,-118.222244,
0110, "0110","MCHELEN & 219TH NE",,  33.829521,-118.222145,
0111, "0111","BATTAAN & CARSON SE",,  33.831577,-118.223366,
0112, "0112","CARSON & HARBOR VW. SE",,  33.831699,-118.221420,
0113, "0113","SANTA FE & CARSON NE",,  33.832123,-118.216736,
0114, "0114","SANTA FE & MADISON SE",,  33.834461,-118.215881,
0115, "0115","SANTA FE & VAN BUREN NE",,  33.837135,-118.214874,
0116, "0116","GARFIELD & JEFFERSON NE",,  33.893066,-118.168709,
0117, "0117","GARFIELD & JEFFERSON SW",,  33.892681,-118.168854,
0118, "0118","GARFIELD & SOMERSET NE",,  33.896641,-118.168732,
0119, "0119","GARFIELD & SOMERSET SW",,  33.896202,-118.168877,
0120, "0120","Garfield & Petrol NW",,  33.898636,-118.168900,
0121, "0121","Wardlow & Santa Fe SE",,  33.824257,-118.215126,
0123, "0123","CARSON & HARBOR VW. NW",,  33.831799,-118.221962,
0124, "0124","BATAAN & CARSON SW",,  33.831482,-118.223465,
0125, "0125","MCHELEN & 219TH SW",,  33.829258,-118.222298,
0126, "0126","MCHELEN & 220TH SW",,  33.827972,-118.222389,
0127, "0127","MCHELEN & 221ST SW",,  33.826561,-118.222366,
0129, "0129","WARDLOW & WEBSTER SE",,  33.824234,-118.219879,
0130, "0130","WARDLOW & R/R TRACKS SW",,  33.824242,-118.218529,
0131, "0131","SANTA FE & WARDLOW SW",,  33.824062,-118.215576,
0132, "0132","HUGHES WAY & VIA ORO NW",,  33.828682,-118.213257,
0134, "0134","SANTA FE & WARNOCK SW",,  33.825855,-118.215981,
0135, "0135","SANTA FE & ARLINGTON SW",,  33.821156,-118.215576,
0136, "0136","SANTA FE & 34TH SW",,  33.818443,-118.215561,
0137, "0137","SANTA FE & 33RD W",,  33.816860,-118.215637,
0138, "0138","SANTA FE & 31ST SW",,  33.813839,-118.215569,
0139, "0139","SANTA FE & SPRING SW",,  33.811420,-118.215561,
0140, "0140","SANTA FE & COLUMBIA SW",,  33.808907,-118.215591,
0142, "0142","SANTA FE & LA VERE SW",,  33.806400,-118.215584,
0143, "0143","SANTA FE & WILLOW SW",,  33.804058,-118.215538,
0144, "0144","SANTA FE & 25TH SW",,  33.802284,-118.215546,
0145, "0145","SANTA FE & BURNETT SW",,  33.800571,-118.215546,
0146, "0146","SANTA FE & 23RD SW",,  33.798717,-118.215569,
0147, "0147","SANTA FE & HILL SW",,  33.796913,-118.215538,
0148, "0148","SANTA FE & 21ST NW",,  33.795418,-118.215569,
0149, "0149","COWLES & SANTA FE SW",,  33.784603,-118.215645,
0150, "0150","SANTA FE & 19TH SW",,  33.791630,-118.215569,
0151, "0151","SANTA FE & PCH SW",,  33.789387,-118.215591,
0152, "0152","SANTA FE & 16TH NW",,  33.787144,-118.215622,
0153, "0153","SANTA FE & COWLES SW",,  33.784439,-118.215622,
0154, "0154","ANAHEIM & SANTA FE SE",,  33.782684,-118.215057,
0155, "0155","ANAHEIM & HARBOR SW",,  33.782619,-118.210579,
0156, "0156","ANAHEIM & OREGON SE",,  33.782616,-118.200584,
0157, "0157","MAGNOLIA & ANAHEIM SW",,  33.782494,-118.198143,
0158, "0158","MAGNOLIA & 11TH SW",,  33.779957,-118.198128,
0160, "0160","MAGNOLIA & NINTH SW",,  33.777531,-118.198143,
0162, "0162","MAGNOLIA & SEVENTH SW",,  33.775078,-118.198135,
0164, "0164","MAGNOLIA & FIFTH SW",,  33.772747,-118.198097,
0166, "0166","MAGNOLIA & THIRD SW",,  33.770279,-118.198143,
0167, "0167","BROADWAY & MAGNOLIA SE",,  33.769249,-118.197800,
0168, "0168","BROADWAY & CHESTNUT SE",,  33.769249,-118.196037,
0169, "0169","BROADWAY & MAINE SE",,  33.769222,-118.200348,
0170, "0170","OCEAN & HART PL SE",,  33.766674,-118.188499,
0172, "0172","OCEAN & LINDEN SW",,  33.766396,-118.186256,
0173, "0173","OCEAN & ATLANTIC SE",,  33.766220,-118.184875,
0175, "0175","OCEAN & 1ST PL SE",,  33.766064,-118.181160,
0177, "0177","OCEAN & 5TH PL SE",,  33.765648,-118.177704,
0178, "0178","OCEAN & 7TH PLACE SE",,  33.765415,-118.175858,
0179, "0179","OCEAN & 11TH PL SE",,  33.764900,-118.172188,
0180, "0180","CHERRY & OCEAN NE",,  33.764908,-118.168327,
0181, "0181","CHERRY & BROADWAY NE",,  33.767551,-118.167801,
0182, "0182","CHERRY & THIRD NE",,  33.769241,-118.167633,
0183, "0183","CHERRY & FOURTH NE",,  33.771935,-118.167648,
0184, "0184","CHERRY & SEVENTH NE",,  33.775646,-118.167618,
0185, "0185","CHERRY & TENTH NE",,  33.779289,-118.167625,
0186, "0186","CHERRY & ANAHEIM NE",,  33.783012,-118.167625,
0187, "0187","CHERRY & 14TH NE",,  33.784637,-118.167587,
0188, "0188","CHERRY & 15TH NE",,  33.786423,-118.167603,
0189, "0189","CHERRY & PCH NE",,  33.790241,-118.167564,
0191, "0191","CHERRY & 21TH NE",,  33.795616,-118.167595,
0192, "0192","CHERRY & HILL NE",,  33.797630,-118.167503,
0193, "0193","CHERRY & BURNETT NE",,  33.801044,-118.167465,
0194, "0194","CHERRY & WILLOW NE",,  33.804726,-118.167542,
0195, "0195","CHERRY & 27TH SE",,  33.806042,-118.167488,
0196, "0196","CHERRY & 28TH NE",,  33.808342,-118.167488,
0198, "0198","CHERRY & SPRING NE",,  33.812283,-118.167488,
0199, "0199","CHERRY & 33RD SE",,  33.816765,-118.167519,
0200, "0200","CHERRY & WARDLOW NE",,  33.819218,-118.167503,
0201, "0201","CHERRY & 36TH NE",,  33.822441,-118.167412,
0202, "0202","CHERRY & 37TH E",,  33.824741,-118.167404,
0203, "0203","CHERRY & BIXBY NE",,  33.826977,-118.167435,
0205, "0205","CHERRY & CARSON NE",,  33.832767,-118.167412,
0206, "0206","CARSON & CHERRY SE",,  33.832359,-118.167091,
0207, "0207","CARSON & CHERRY NW",,  33.832539,-118.168060,
0208, "0208","CHERRY & TEHACHAPI E",,  33.836838,-118.167404,
0209, "0209","CHERRY & 45TH SE",,  33.838257,-118.167397,
0211, "0211","CHERRY & SAN ANTONIO SE",,  33.845970,-118.167366,
0212, "0212","CHERRY & DEL AMO NE",,  33.847366,-118.167381,
0213, "0213","CHERRY & DENMEAD NE",,  33.851215,-118.167480,
0214, "0214","CHERRY & CANDLEWOOD NE",,  33.854580,-118.167694,
0215, "0215","CHERRY & 55TH NE",,  33.856285,-118.168396,
0216, "0216","CHERRY & SOUTH NE",,  33.860535,-118.168465,
0217, "0217","CHERRY & HUNGARFORD NE",,  33.863121,-118.168480,
0218, "0218","CHERRY & 61ST NE",,  33.865860,-118.168488,
0219, "0219","CHERRY & HARDING NE",,  33.867680,-118.168495,
0220, "0220","CHERRY & 63RD NE",,  33.869846,-118.168518,
0222, "0222","CHERRY & 65TH NE",,  33.872700,-118.168518,
0223, "0223","CHERRY & ARTESIA SE",,  33.874317,-118.168564,
0224, "0224","CHERRY & 68TH NE",,  33.878647,-118.168610,
0225, "0225","GARFIELD & MOBILE HOME E",,  33.883415,-118.168625,
0226, "0226","GARFIELD & JACKSON NE",,  33.885708,-118.168640,
0227, "0227","GARFIELD & ALONDRA SE",,  33.888805,-118.168671,
0228, "0228","GARFIELD & ALONDRA SW",,  33.888336,-118.168938,
0229, "0229","GARFIELD & JACKSON SW",,  33.884998,-118.168854,
0230, "0230","GARFIELD & MOBILE HOMES W",,  33.883007,-118.168846,
0231, "0231","CHERRY & 68TH SW",,  33.878040,-118.168816,
0232, "0232","CHERRY & ARTESIA SW",,  33.874180,-118.168785,
0233, "0233","CHERRY & 65TH NW",,  33.873020,-118.168793,
0235, "0235","CHERRY & 63RD SW",,  33.869057,-118.168755,
0236, "0236","CHERRY & HARDING SW",,  33.867142,-118.168747,
0237, "0237","CHERRY & 61ST SW",,  33.865456,-118.168739,
0238, "0238","CHERRY & HUNGERFORD SW",,  33.862694,-118.168709,
0239, "0239","CHERRY & SOUTH SW",,  33.859859,-118.168663,
0240, "0240","CHERRY & 56TH SW",,  33.857685,-118.168655,
0241, "0241","CHERRY & 55TH SW",,  33.855770,-118.168488,
0242, "0242","CHERRY & MARKET SW",,  33.854099,-118.167831,
0243, "0243","CHERRY & 52ND NW",,  33.851120,-118.167770,
0245, "0245","CHERRY & SAN ANTONIO SW",,  33.845741,-118.167702,
0247, "0247","CHERRY & CHERRY PARK SW",,  33.840290,-118.167717,
0248, "0248","CHERRY & 45TH SW",,  33.838188,-118.167740,
0249, "0249","CHERRY & TEHACHAPI SW",,  33.836319,-118.167755,
0250, "0250","CHERRY & CARSON SW",,  33.831821,-118.167725,
0252, "0252","CHERRY & BIXBY SW",,  33.826454,-118.167656,
0253, "0253","CHERRY & 37TH SW",,  33.824097,-118.167656,
0254, "0254","CHERRY & 36TH SW",,  33.822041,-118.167656,
0255, "0255","CHERRY & WARDLOW SW",,  33.818703,-118.167763,
0256, "0256","CHERRY & 33RD SW",,  33.816898,-118.167770,
0257, "0257","CHERRY & SPRING SW",,  33.811455,-118.167755,
0258, "0258","CHERRY & 29TH SW",,  33.809616,-118.167740,
0259, "0259","CHERRY & 28TH SW",,  33.807758,-118.167732,
0260, "0260","CHERRY & 27TH SW",,  33.806011,-118.167732,
0261, "0261","CHERRY & WILLOW SW",,  33.803112,-118.167732,
0262, "0262","CHERRY & BURNETT SW",,  33.800461,-118.167717,
0263, "0263","CHERRY & HILL SW",,  33.796852,-118.167770,
0264, "0264","CHERRY & 21TH SW",,  33.795033,-118.167839,
0265, "0265","CHERRY & 19TH NW",,  33.792027,-118.167854,
0266, "0266","CHERRY & PCH SW",,  33.789650,-118.167702,
0267, "0267","CHERRY & 15TH SW",,  33.786060,-118.167732,
0268, "0268","CHERRY & 14TH SW",,  33.784260,-118.167740,
0269, "0269","CHERRY & ANAHEIM SW",,  33.782291,-118.167709,
0270, "0270","CHERRY & 10TH SW",,  33.778725,-118.167694,
0271, "0271","CHERRY & SEVENTH SW",,  33.775059,-118.167702,
0272, "0272","CHERRY & FOURTH SW",,  33.770885,-118.167717,
0273, "0273","CHERRY & THIRD SW",,  33.768536,-118.167770,
0274, "0274","CHERRY & BROADWAY SW",,  33.766788,-118.168098,
0275, "0275","OCEAN & CHERRY NW",,  33.764637,-118.168732,
0276, "0276","OCEAN & GAVIOTA NW",,  33.765076,-118.172218,
0277, "0277","OCEAN & ESPERANZA NW",,  33.765533,-118.175819,
0278, "0278","OCEAN & ORANGE NW",,  33.765774,-118.177597,
0280, "0280","OCEAN & BONITO NW",,  33.766243,-118.181274,
0281, "0281","OCEAN & ALAMITOS NW",,  33.766373,-118.183464,
0282, "0282","OCEAN & ATLANTIC NW",,  33.766506,-118.185303,
0284, "0284","OCEAN & ELM NW",,  33.766861,-118.188225,
0285, "0285","CARSON & R/R TRACKS SW",,  33.832344,-118.164474,
0286, "0286","PARAMOUNT & CARSON NE",,  33.832928,-118.159851,
0287, "0287","PARAMOUNT & VILLAGE RD NE",,  33.835045,-118.159874,
0288, "0288","PARAMOUNT & WARWOOD NE",,  33.836449,-118.159874,
0289, "0289","PARAMOUNT & BOMBERRY NE",,  33.838558,-118.159851,
0290, "0290","PARAMOUNT & GREENTOP NE",,  33.840004,-118.159843,
0291, "0291","PARAMOUNT & FAIRMAN NE",,  33.842094,-118.159843,
0292, "0292","PARAMOUNT & ARBOR RD NE",,  33.843304,-118.159836,
0293, "0293","PARAMOUNT & DEL AMO NE",,  33.847519,-118.159775,
0294, "0294","PARAMOUNT & HARDWICK NE",,  33.850449,-118.159782,
0295, "0295","CANDLEWOOD & PARAMOUNT SE",,  33.853752,-118.159523,
0296, "0296","CANDLEWOOD & OBISPO SE",,  33.853802,-118.154533,
0297, "0297","DOWNEY & CANDLEWOOD NE",,  33.854343,-118.151123,
0298, "0298","DOWNEY & MICHELSON NE",,  33.857845,-118.151093,
0299, "0299","DOWNEY & ST. PANCRATIUS NE",,  33.858799,-118.151146,
0300, "0300","DOWNEY & SOUTH NE",,  33.860634,-118.151108,
0301, "0301","DOWNEY & 59TH NE",,  33.863033,-118.151138,
0302, "0302","DOWNEY & LA JARA NE",,  33.865631,-118.151138,
0303, "0303","DOWNEY & ASHWORTH NE",,  33.868233,-118.151176,
0304, "0304","DOWNEY & 64TH NE",,  33.871246,-118.151192,
0305, "0305","DOWNEY & ARTESIA NE",,  33.875019,-118.151207,
0306, "0306","DOWNEY & 68TH NE",,  33.879410,-118.151245,
0307, "0307","DOWNEY & 70TH SE",,  33.882366,-118.151260,
0308, "0308","DOWNEY & HARRISON NE",,  33.884010,-118.151260,
0309, "0309","INDIANA & MONROE NE",,  33.887627,-118.153389,
0310, "0310","ALONDRA & INDIANA SE",,  33.889126,-118.153168,
0312, "0312","Atlantic at 1st SE",,  33.767860,-118.184982,
0313, "0313","Atlantic at 4th St NW",,  33.771935,-118.185127,
0314, "0314","Atlantic at 4th St NE",,  33.771935,-118.184982,
0315, "0315","DOWNEY & 70TH SW",,  33.881748,-118.151436,
0316, "0316","DOWNEY & 68TH NW",,  33.878529,-118.151451,
0317, "0317","DOWNEY & ARTESIA SW",,  33.874332,-118.151390,
0318, "0318","DOWNEY & 64TH SW",,  33.870861,-118.151367,
0319, "0319","DOWNEY & POPPY SW",,  33.868847,-118.151306,
0320, "0320","DOWNEY & LA JARA SW",,  33.865063,-118.151276,
0321, "0321","DOWNEY & 59TH NW",,  33.863438,-118.151260,
0322, "0322","DOWNEY & SOUTH SW",,  33.859783,-118.151276,
0323, "0323","DOWNEY & WOLFE NW",,  33.858028,-118.151230,
0324, "0324","CANDLEWOOD & DOWNEY NW",,  33.853889,-118.151581,
0325, "0325","CANDLEWOOD & OBISPO NW",,  33.853882,-118.155609,
0326, "0326","PARAMOUNT & CANDLEWOOD SW",,  33.853474,-118.159973,
0327, "0327","PARAMOUNT & HARDWICK NW",,  33.850288,-118.159943,
0328, "0328","PARAMOUNT & DEL AMO SW",,  33.846676,-118.160027,
0329, "0329","PARAMOUNT & ARBOR RD W",,  33.843483,-118.159973,
0330, "0330","PARAMOUNT & GREENTOP NW",,  33.840004,-118.159988,
0331, "0331","PARAMOUNT & BOMBERRY SW",,  33.838558,-118.159988,
0332, "0332","PARAMOUNT & WARWOOD SW",,  33.836445,-118.160019,
0333, "0333","PARAMOUNT & VILLAGE RD W",,  33.834866,-118.160019,
0334, "0334","PARAMOUNT & CARSON NW",,  33.832813,-118.160110,
0335, "0335","CARSON & R/R TRACKS NE",,  33.832539,-118.163933,
0337, "0337","Atlantic at Broadway SW",,  33.769073,-118.185120,
0338, "0338","ALAMITOS & SEVENTH NE",,  33.775562,-118.180038,
0339, "0339","Atlantic at 6th St SW",,  33.773918,-118.185104,
0340, "0340","FOURTH & ORANGE NW",,  33.771790,-118.176697,
0342, "0342","ALAMITOS & NEW YORK SW",,  33.784653,-118.177391,
0344, "0344","ALAMITOS & SIXTH SE",,  33.773937,-118.180550,
0345, "0345","ALAMITOS &  BROADWAY SE",,  33.768986,-118.182060,
0346, "0346","ALAMITOS & ANAHEIM SW",,  33.782368,-118.178093,
0347, "0347","ALAMITOS & 10TH NE",,  33.779083,-118.178955,
0348, "0348","ALAMITOS & 10TH NW",,  33.779072,-118.179108,
0349, "0349","ALAMITOS & 4TH NE",,  33.771946,-118.181152,
0350, "0350","ALAMITOS AT 5TH SW",,  33.772766,-118.181046,
0351, "0351","ATLANTIC & ANAHEIM SW",,  33.782257,-118.185135,
0352, "0352","ATLANTIC & 11TH SW",,  33.780746,-118.185112,
0353, "0353","TENTH & ATLANTIC NW",,  33.779057,-118.185211,
0354, "0354","TENTH & LINDEN NW",,  33.779037,-118.187012,
0355, "0355","TENTH & L.B. BLVD. NW",,  33.779022,-118.189850,
0356, "0356","TENTH & PINE NW",,  33.779064,-118.192665,
0358, "0358","ALAMITOS & 7TH SW",,  33.775005,-118.180359,
0360, "0360","PACIFIC & SEVENTH SW",,  33.775257,-118.193794,
0362, "0362","PACIFIC & FIFTH SW",,  33.772839,-118.193794,
0364, "0364","PACIFIC & THIRD SW",,  33.770206,-118.193802,
0366, "0366","PACIFIC & OCEAN NW",,  33.767464,-118.193863,
0367, "0367","OCEAN & CHESTNUT NW",,  33.767361,-118.196518,
0369, "0369","THIRD & MAGNOLIA NW",,  33.770554,-118.198334,
0378, "0378","LONG BEACH & 4TH SW",,  33.771423,-118.189514,
0379, "0379","PACIFIC & 1ST NW",,  33.768398,-118.193794,
0382, "0382","MAGNOLIA & ANAHEIM NE",,  33.782875,-118.197998,
0383, "0383","MAGNOLIA & 14TH SE",,  33.783867,-118.198029,
0384, "0384","MAGNOLIA & 15TH NE",,  33.786427,-118.198029,
0385, "0385","MAGNOLIA & 17TH NE",,  33.788319,-118.198044,
0386, "0386","MAGNOLIA & PCH NE",,  33.790352,-118.198051,
0387, "0387","MAGNOLIA & 19TH NE",,  33.791790,-118.198044,
0388, "0388","MAGNOLIA & 20TH NE",,  33.793583,-118.198006,
0389, "0389","MAGNOLIA & 21ST NE",,  33.795559,-118.198059,
0390, "0390","MAGNOLIA & HILL NE",,  33.797382,-118.198044,
0391, "0391","MAGNOLIA & 23RD NE",,  33.799213,-118.198059,
0392, "0392","MAGNOLIA & BURNETT NE",,  33.800995,-118.198059,
0393, "0393","MAGNOLIA & 25TH NE",,  33.802795,-118.198029,
0394, "0394","MAGNOLIA & WILLOW NE",,  33.804710,-118.198074,
0395, "0395","MAGNOLIA & 27TH NE",,  33.806412,-118.198044,
0396, "0396","MAGNOLIA & 28TH NE",,  33.808170,-118.198029,
0397, "0397","MAGNOLIA & 29TH NE",,  33.810047,-118.198036,
0398, "0398","MAGNOLIA & SPRING NE",,  33.811932,-118.198036,
0399, "0399","MAGNOLIA & 31ST NE",,  33.813641,-118.198051,
0400, "0400","MAGNOLIA & 32ND NE",,  33.815556,-118.198021,
0401, "0401","WARDLOW & MAGNOLIA SE",,  33.818886,-118.197563,
0402, "0402","PACIFIC PL & WARDLOW SW",,  33.818684,-118.195900,
0403, "0403","PACIFIC & BRETHREN MANOR W",,  33.817894,-118.195396,
0404, "0404","PACIFIC PL & CEDAR NW",,  33.817013,-118.194931,
0405, "0405","32ND & CHESTNUT NW",,  33.815319,-118.196144,
0406, "0406","MAGNOLIA & 32ND SW",,  33.815075,-118.198166,
0407, "0407","MAGNOLIA & 31ST SW",,  33.813236,-118.198189,
0408, "0408","MAGNOLIA & SPRING SW",,  33.811417,-118.198212,
0409, "0409","MAGNOLIA & 29TH SW",,  33.809605,-118.198227,
0410, "0410","MAGNOLIA & 28TH SW",,  33.807858,-118.198212,
0411, "0411","MAGNOLIA & 27TH SW",,  33.806042,-118.198174,
0412, "0412","MAGNOLIA & WILLOW SW",,  33.804089,-118.198135,
0413, "0413","MAGNOLIA & 25TH SW",,  33.802357,-118.198151,
0414, "0414","MAGNOLIA & BURNETT SW",,  33.800560,-118.198174,
0415, "0415","MAGNOLIA & 23RD SW",,  33.798740,-118.198181,
0416, "0416","MAGNOLIA & HILL SW",,  33.796902,-118.198151,
0417, "0417","MAGNOLIA & 21ST SW",,  33.795135,-118.198227,
0418, "0418","MAGNOLIA & 20TH SW",,  33.793243,-118.198181,
0419, "0419","MAGNOLIA & 19TH SW",,  33.791500,-118.198189,
0420, "0420","MAGNOLIA & PCH SW",,  33.789536,-118.198181,
0421, "0421","MAGNOLIA & 17TH SW",,  33.787655,-118.198204,
0422, "0422","MAGNOLIA & 15TH SW",,  33.785568,-118.198196,
0423, "0423","MAGNOLIA & 14TH SW",,  33.783833,-118.198158,
0424, "0424","PACIFIC & SEVENTH NE",,  33.775700,-118.193604,
0425, "0425","PACIFIC & NINTH NE",,  33.777889,-118.193665,
0426, "0426","PACIFIC & TENTH NE",,  33.779228,-118.193665,
0427, "0427","PACIFIC & ANAHEIM SE",,  33.782333,-118.193657,
0429, "0429","PACIFIC & 14TH NE",,  33.784149,-118.193642,
0430, "0430","PACIFIC & 15TH NE",,  33.785534,-118.193642,
0431, "0431","PACIFIC & 16TH NE",,  33.787308,-118.193642,
0432, "0432","PACIFIC & PCH NE",,  33.790203,-118.193626,
0433, "0433","PACIFIC & 19TH NE",,  33.791924,-118.193604,
0434, "0434","PACIFIC & 20TH NE",,  33.793716,-118.193634,
0435, "0435","PACIFIC & 21ST NE",,  33.795509,-118.193634,
0436, "0436","PACIFIC & HILL NE",,  33.797356,-118.193642,
0437, "0437","PACIFIC & 23RD NE",,  33.799198,-118.193672,
0438, "0438","PACIFIC & BURNETT NE",,  33.801029,-118.193657,
0439, "0439","PACIFIC & 25TH NE",,  33.802826,-118.193634,
0440, "0440","PACIFIC & WILLOW NE",,  33.804684,-118.193611,
0441, "0441","PACIFIC & 27TH NE",,  33.806423,-118.193657,
0442, "0442","PACIFIC & 28TH NE",,  33.808239,-118.193611,
0443, "0443","PACIFIC & SPRING NE",,  33.811768,-118.193634,
0445, "0445","PACIFIC & SPRING SW",,  33.811375,-118.193855,
0446, "0446","PACIFIC & 29TH SW",,  33.809624,-118.193848,
0447, "0447","PACIFIC & 28TH SW",,  33.807770,-118.193848,
0448, "0448","PACIFIC & 27TH SW",,  33.805984,-118.193848,
0449, "0449","PACIFIC & WILLOW NW",,  33.804588,-118.193848,
0450, "0450","PACIFIC & 25TH SW",,  33.802399,-118.193863,
0451, "0451","PACIFIC & BURNETT SW",,  33.800579,-118.193855,
0452, "0452","PACIFIC & 23RD SW",,  33.798622,-118.193848,
0453, "0453","PACIFIC & HILL SW",,  33.796947,-118.193840,
0454, "0454","PACIFIC & 21ST SW",,  33.795151,-118.193855,
0455, "0455","PACIFIC & 20TH SW",,  33.793324,-118.193840,
0456, "0456","PACIFIC & 19TH SW",,  33.791538,-118.193832,
0457, "0457","PACIFIC & PCH SW",,  33.789490,-118.193817,
0458, "0458","PACIFIC & 16TH SW",,  33.786911,-118.193825,
0459, "0459","PACIFIC & 15TH SW",,  33.785118,-118.193840,
0460, "0460","PACIFIC & ANAHEIM SW",,  33.782486,-118.193848,
0461, "0461","PACIFIC & TENTH SW",,  33.778801,-118.193855,
0462, "0462","PACIFIC & NINTH SW",,  33.777561,-118.193840,
0463, "0463","ANAHEIM & L.B. BLVD. SE",,  33.782547,-118.188301,
0464, "0464","ANAHEIM & LINDEN SE",,  33.782555,-118.186440,
0465, "0465","ANAHEIM & ATLANTIC SE",,  33.782558,-118.184723,
0466, "0466","ANAHEIM & OLIVE SE",,  33.782555,-118.182648,
0467, "0467","ANAHEIM & M.L. KING SE",,  33.782555,-118.180466,
0468, "0468","ANAHEIM & ALAMITOS SE",,  33.782547,-118.177704,
0469, "0469","ANAHEIM & ORANGE SE",,  33.782600,-118.176170,
0470, "0470","ANAHEIM & GUNDRY SE",,  33.782585,-118.173454,
0471, "0471","ANAHEIM & WALNUT SE",,  33.782558,-118.171730,
0472, "0472","ANAHEIM & ROSE SE",,  33.782551,-118.169632,
0473, "0473","ANAHEIM & CHERRY SE",,  33.782562,-118.167427,
0474, "0474","ANAHEIM & DAWSON SE",,  33.782600,-118.165260,
0475, "0475","ANAHEIM & JUNIPERO SE",,  33.782570,-118.163071,
0476, "0476","ANAHEIM & MOLINO SE",,  33.782578,-118.160805,
0477, "0477","ANAHEIM & TEMPLE SE",,  33.782539,-118.157951,
0478, "0478","ANAHEIM & ORIZABA SE",,  33.782581,-118.156509,
0479, "0479","ANAHEIM & OBISPO SE",,  33.782539,-118.154297,
0480, "0480","ANAHEIM & REDONDO SE",,  33.782532,-118.152000,
0481, "0481","ANAHEIM & LOMA SE",,  33.782528,-118.149979,
0482, "0482","ANAHEIM & MIRA MAR SE",,  33.782536,-118.147308,
0483, "0483","ANAHEIM & TERMINO SE",,  33.782551,-118.145668,
0484, "0484","ANAHEIM & ROSWELL SE",,  33.782532,-118.143509,
0485, "0485","ANAHEIM & XIMENO SE",,  33.782547,-118.141159,
0486, "0486","ANAHEIM & QUINCY SW",,  33.782520,-118.139664,
0488, "0488","ANAHEIM & ARGONNE S",,  33.782520,-118.135994,
0489, "0489","ANAHEIM & PCH NW",,  33.782616,-118.133255,
0491, "0491","ANAHEIM & PARK NW",,  33.782661,-118.137398,
0492, "0492","ANAHEIM & LEE NW",,  33.782650,-118.140182,
0493, "0493","ANAHEIM & XIMENO NW",,  33.782677,-118.141876,
0494, "0494","ANAHEIM & ROSWELL NW",,  33.782665,-118.144447,
0495, "0495","ANAHEIM & TERMINO NW",,  33.782669,-118.146187,
0496, "0496","ANAHEIM & MIRA MAR NW",,  33.782658,-118.148499,
0497, "0497","ANAHEIM & LOMA NW",,  33.782684,-118.150848,
0498, "0498","ANAHEIM & REDONDO NW",,  33.782669,-118.152794,
0499, "0499","ANAHEIM & OBISPO NE",,  33.782658,-118.154510,
0500, "0500","ANAHEIM & ORIZABA NW",,  33.782681,-118.157021,
0501, "0501","ANAHEIM & TEMPLE NW",,  33.782658,-118.159363,
0502, "0502","ANAHEIM & MOLINO NW",,  33.782677,-118.161392,
0503, "0503","ANAHEIM & JUNIPERO NW",,  33.782658,-118.163765,
0504, "0504","ANAHEIM & DAWSON NW",,  33.782703,-118.165749,
0505, "0505","ANAHEIM & CHERRY NW",,  33.782715,-118.168182,
0507, "0507","ANAHEIM & WALNUT NW",,  33.782703,-118.172417,
0508, "0508","ANAHEIM & GUNDRY NW",,  33.782684,-118.174446,
0509, "0509","ANAHEIM & ORANGE NW",,  33.782669,-118.176674,
0510, "0510","ANAHEIM & ALAMITOS NW",,  33.782692,-118.178268,
0511, "0511","ANAHEIM & M.L. KING NW",,  33.782703,-118.180954,
0512, "0512","ANAHEIM & OLIVE NW",,  33.782711,-118.183044,
0513, "0513","ANAHEIM & ATLANTIC NW",,  33.782700,-118.185471,
0514, "0514","ANAHEIM & LINDEN NW",,  33.782715,-118.186966,
0515, "0515","ANAHEIM RD. & LOS ALTOS SE",,  33.783360,-118.130844,
0516, "0516","ANAHEIM RD. & LA PASADA SE",,  33.781490,-118.128601,
0518, "0518","BELLFLOWER & ANAHEIM RD NE",,  33.779865,-118.122307,
0520, "0520","SEVENTH & CHANNEL SE",,  33.775158,-118.118332,
0521, "0521","SEVENTH & W. CAMPUS SE",,  33.775169,-118.114952,
0522, "0522","ANAHEIM RD & STUDEBAKER NW",,  33.781601,-118.103035,
0523, "0523","ANAHEIM RD & IROQUOIS NE",,  33.781635,-118.106331,
0524, "0524","PALO VERDE & ANAHEIM RD NE",,  33.781849,-118.107918,
0525, "0525","PALO VERDE & DELEON NE",,  33.784111,-118.107895,
0526, "0526","PALO VERDE & RENDINA NE",,  33.787037,-118.107903,
0527, "0527","ATHERTON & PALO VERDE SE",,  33.788597,-118.107407,
0528, "0528","ATHERTON & IROQUOIS SE",,  33.788593,-118.105675,
0529, "0529","ATHERTON & VUELTA GRANDE SE",,  33.788589,-118.102516,
0530, "0530","ATHERTON & STUDEBAKER SW",,  33.788597,-118.099617,
0531, "0531","BEACH DR. & DORMS S",,  33.781967,-118.120094,
0532, "0532","BEACH DR & W. CAMPUS S",,  33.781971,-118.115730,
0533, "0533","STUDEBAKER & DRISCOLL SW",,  33.785671,-118.100418,
0534, "0534","STUDEBAKER & VUELTA GRANDE W",,  33.783558,-118.102333,
0535, "0535","STUDEBAKER & ANAHEIM RD. SW",,  33.781208,-118.102798,
0536, "0536","SEVENTH & CSULB SHELTER N",,  33.775417,-118.113556,
0537, "0537","SEVENTH & V.A. HOSP. NW",,  33.775417,-118.119339,
0538, "0538","PCH & ANAHEIM NW",,  33.782745,-118.132950,
0540, "0540","BELLFLOWER & ANAHEIM RD NW",,  33.779522,-118.122528,
0541, "0541","BELLFLOWER & ANAHEIM RD SW",,  33.779266,-118.122520,
0542, "0542","ANAHEIM RD. & LA PASADA NW",,  33.781879,-118.128876,
0543, "0543","LOS ALTOS & ANAHEIM RD. SW",,  33.783447,-118.131218,
0544, "0544","LOS ALTOS & PCH NE",,  33.782959,-118.132378,
0545, "0545","W. CAMPUS & LIBRARY West Side",,  33.777779,-118.115234,
0546, "0546","L.B. BLVD. & PCH NE",,  33.790600,-118.189255,
0547, "0547","L.B. BLVD. & 20TH NE",,  33.794300,-118.189240,
0548, "0548","L.B. BLVD. & HILL NE",,  33.797722,-118.189270,
0549, "0549","L.B. BLVD. & 23RD NE",,  33.799198,-118.189240,
0550, "0550","L.B. BLVD. & BURNETT NE",,  33.800972,-118.189209,
0551, "0551","L.B. BLVD. & 25TH NE",,  33.802788,-118.189224,
0552, "0552","L.B. BLVD. & WILLOW NE",,  33.804676,-118.189201,
0553, "0553","L.B. BLVD. & MEMORIAL HOSP. E",,  33.807537,-118.189262,
0554, "0554","L.B. BLVD. & COLUMBIA NE",,  33.809151,-118.189331,
0555, "0555","L.B. BLVD. & SPRING NE",,  33.811989,-118.189323,
0556, "0556","L.B. BLVD. & 31ST NE",,  33.813705,-118.189201,
0557, "0557","L.B. BLVD. & 32ND NE",,  33.815453,-118.189194,
0558, "0558","L.B. BLVD. & WARDLOW NE",,  33.819279,-118.189240,
0559, "0559","L.B. BLVD. & 36TH NE",,  33.822453,-118.189285,
0560, "0560","L.B. BLVD. & BIXBY NE",,  33.826954,-118.189270,
0561, "0561","L.B. BLVD. & ROOSEVELT NE",,  33.829220,-118.189278,
0562, "0562","L.B. BLVD. & MARSHALL PL NE",,  33.830849,-118.189270,
0563, "0563","L.B. BLVD. & CARSON SE",,  33.833641,-118.189301,
0564, "0564","L.B. BLVD. & SAN ANTONIO NE",,  33.834942,-118.189430,
0565, "0565","L.B. BLVD. & 44TH NE",,  33.837341,-118.190384,
0566, "0566","L.B. BLVD. & 45TH SE",,  33.839252,-118.191017,
0567, "0567","L.B. BLVD. & 46TH SE",,  33.842194,-118.192101,
0568, "0568","L.B. BLVD. & 47TH SE",,  33.842892,-118.192337,
0570, "0570","L.B. BLVD. & DEL AMO NE",,  33.847126,-118.193863,
0571, "0571","L.B. BLVD. & 51ST SE",,  33.848728,-118.194496,
0572, "0572","L.B. BLVD. & 52ND NE",,  33.850712,-118.195160,
0573, "0573","L.B. BLVD. & 53RD NE",,  33.852646,-118.195869,
0575, "0575","L.B. BLVD. & MARKET NE",,  33.854488,-118.196579,
0577, "0577","L.B. BLVD. & ELLIS NE",,  33.857006,-118.197472,
0582, "0582","ARTESIA & SUZANA SE",,  33.874180,-118.206772,
0584, "0584","L.B. BLVD. & ARTESIA SW",,  33.873348,-118.202538,
0585, "0585","L.B. BLVD. & BORT SW",,  33.870358,-118.201645,
0587, "0587","L.B. BLVD. & HARCOURT SW",,  33.867706,-118.200844,
0588, "0588","L.B. BLVD. & VICTORIA NW",,  33.865391,-118.200195,
0589, "0589","L.B. BLVD. & ELLIS NW",,  33.856979,-118.197655,
0591, "0591","L.B. BLVD. & MARKET SW",,  33.853798,-118.196533,
0592, "0592","L.B. BLVD. & 53RD SW",,  33.852303,-118.195969,
0593, "0593","L.B. BLVD. & 52ND NW",,  33.850330,-118.195259,
0594, "0594","L.B. BLVD. & 51ST SW",,  33.848614,-118.194633,
0595, "0595","L.B. BLVD. & DEL AMO SW",,  33.846336,-118.193817,
0597, "0597","L.B. BLVD. & 47TH NW",,  33.842926,-118.192497,
0598, "0598","L.B. BLVD. & 46TH SW",,  33.840714,-118.191696,
0599, "0599","L.B. BLVD. & 45TH SW",,  33.839218,-118.191147,
0600, "0600","L.B. BLVD. & 44TH NW",,  33.836872,-118.190353,
0601, "0601","L.B. BLVD. & SAN ANTONIO SW",,  33.834221,-118.189438,
0602, "0602","L.B. BLVD. & MARSHALL SW",,  33.830597,-118.189468,
0603, "0603","L.B. BLVD. & ROOSEVELT SW",,  33.828789,-118.189415,
0604, "0604","L.B. BLVD. & BIXBY SW",,  33.826340,-118.189461,
0605, "0605","L.B. BLVD. & CAMERON SW",,  33.822968,-118.189384,
0606, "0606","L.B. BLVD. & WARDLOW SW",,  33.818562,-118.189468,
0607, "0607","L.B. BLVD. & 31ST SW",,  33.813049,-118.189499,
0608, "0608","L.B. BLVD. & SPRING SW",,  33.811283,-118.189545,
0609, "0609","L.B. BLVD. & COLUMBIA SW",,  33.808754,-118.189529,
0610, "0610","L.B. BLVD. & MEMORIAL HOSP. W",,  33.806995,-118.189468,
0611, "0611","L.B. BLVD. & WILLOW SW",,  33.804176,-118.189537,
0612, "0612","L.B. BLVD. & 25TH SW",,  33.802277,-118.189514,
0613, "0613","L.B. BLVD. & EAGLE NW",,  33.800167,-118.189529,
0614, "0614","L.B. BLVD. & 23RD SW",,  33.798634,-118.189522,
0615, "0615","L.B. BLVD. & HILL SW",,  33.796844,-118.189537,
0616, "0616","L.B. BLVD. & 20TH SW",,  33.792965,-118.189529,
0617, "0617","SEVENTH & L.B. BLVD. NW",,  33.775398,-118.189880,
0618, "0618","ELM & 1ST NE",,  33.768234,-118.187592,
0620, "0620","FOURTH & ELM SE",,  33.771687,-118.187431,
0621, "0621","FOURTH & LINDEN SE",,  33.771694,-118.186081,
0622, "0622","FOURTH & ATLANTIC SE",,  33.771645,-118.184731,
0624, "0624","FOURTH & ALAMITOS SE",,  33.771667,-118.181068,
0625, "0625","FOURTH & BONITO SE",,  33.771690,-118.179626,
0626, "0626","GARFIELD & RICHFIELD (LAYOVER) E",,  33.901928,-118.168770,
0627, "0627","FOURTH & ORANGE SE",,  33.771641,-118.176231,
0628, "0628","FOURTH & TILE SE",,  33.771629,-118.174072,
0629, "0629","FOURTH & WALNUT SE",,  33.771645,-118.171883,
0630, "0630","FOURTH & HERMOSA SE",,  33.771706,-118.169083,
0631, "0631","FOURTH & CHERRY SE",,  33.771698,-118.167412,
0632, "0632","FOURTH & JUNIPERO SE",,  33.771706,-118.164177,
0633, "0633","FOURTH & WISCONSIN SE",,  33.771664,-118.161552,
0634, "0634","FOURTH & TEMPLE SE",,  33.771633,-118.158806,
0635, "0635","FOURTH & ORIZABA SE",,  33.771698,-118.156548,
0636, "0636","FOURTH & OBISPO SE",,  33.771656,-118.154449,
0637, "0637","FOURTH & REDONDO SE",,  33.771656,-118.152267,
0638, "0638","FOURTH & LOMA SE",,  33.771648,-118.150085,
0639, "0639","FOURTH & GRAND SE",,  33.771637,-118.147957,
0640, "0640","FOURTH & TERMINO SE",,  33.771683,-118.145660,
0641, "0641","FOURTH & ROSWELL SE",,  33.771648,-118.143562,
0642, "0642","FOURTH & XIMENO SE",,  33.771664,-118.141289,
0643, "0643","FOURTH & TREMONT SE",,  33.771652,-118.139778,
0644, "0644","FOURTH & PARK SW",,  33.771633,-118.137352,
0645, "0645","ROSECRANS & SPANE PARK SE",,  33.903542,-118.176720,
0647, "0647","ROSECRANS & GARFIELD SE",,  33.903538,-118.168602,
0648, "0648","SECOND & PARK SE",,  33.761452,-118.137817,
0649, "0649","GARFIELD / RICHFIELD",,  33.901669,-118.168915,
0650, "0650","SECOND & NIETO SE",,  33.760284,-118.135201,
0652, "0652","SECOND & GLENDORA SE",,  33.759155,-118.132515,
0653, "0653","SECOND & SANTA ANA SE",,  33.758648,-118.131302,
0655, "0655","SECOND & VENETIA NW",,  33.757515,-118.126816,
0657, "0657","SECOND & RAVENNA SE",,  33.756763,-118.122917,
0658, "0658","SECOND & E. CAMPO SW",,  33.756409,-118.121017,
0659, "0659","MARINA & SECOND",,  33.757275,-118.112953,
0660, "0660","MARINA & STUDEBAKER SW",,  33.753014,-118.108276,
0661, "0661","ALAMITOS BAY LANDING W",,  33.747623,-118.113663,
0663, "0663","ALAMITOS BAY E",,  33.747795,-118.113304,
0665, "0665","MAIN & PCH SW",,  33.744186,-118.102913,
0666, "0666","ELECTRIC & MAIN NW",,  33.742935,-118.104179,
0667, "0667","1ST AT PCH SW",,  33.749416,-118.106316,
0668, "0668","NIETO AT APPIAN  NE",,  33.768948,-118.132813,
0669, "0669","ELECTRIC & SEVENTH NW",,  33.744434,-118.105392,
0675, "0675","SECOND & MARINA NW",,  33.757500,-118.113785,
0676, "0676","ROSECRANS & MOBILE HOME PARK NW",,  33.903736,-118.175652,
0677, "0677","SECOND & RAVENNA NW",,  33.757084,-118.123589,
0678, "0678","ROSECRANS & GARFIELD NW",,  33.903748,-118.169411,
0679, "0679","SECOND & VENETIA SE",,  33.757732,-118.126907,
0680, "0680","SECOND & SANTA ANA NW",,  33.758923,-118.131577,
0681, "0681","SECOND & GLENDORA NW",,  33.759487,-118.132843,
0682, "0682","GARFIELD & ROSECRANS SW",,  33.903210,-118.168915,
0683, "0683","SECOND & NIETO NW",,  33.760571,-118.135384,
0685, "0685","SECOND & PARK NW",,  33.761753,-118.138077,
0688, "0688","FOURTH & PARK NW",,  33.771751,-118.137436,
0690, "0690","FOURTH & XIMENO NW",,  33.771755,-118.141891,
0691, "0691","FOURTH & ROSWELL NW",,  33.771740,-118.143974,
0692, "0692","FOURTH & TERMINO NW",,  33.771751,-118.146225,
0693, "0693","FOURTH & GRAND NW",,  33.771763,-118.148308,
0694, "0694","FOURTH & LOMA NW",,  33.771732,-118.150627,
0695, "0695","FOURTH & REDONDO NW",,  33.771774,-118.152687,
0696, "0696","FOURTH & OBISPO NW",,  33.771774,-118.154884,
0697, "0697","FOURTH & ORIZABA NW",,  33.771767,-118.157036,
0698, "0698","FOURTH & TEMPLE NW",,  33.771774,-118.159172,
0699, "0699","FOURTH & MOLINO NW",,  33.771782,-118.161400,
0700, "0700","FOURTH & JUNIPERO NW",,  33.771755,-118.164696,
0701, "0701","FOURTH & CHERRY NW",,  33.771770,-118.168022,
0702, "0702","FOURTH & ROSE NW",,  33.771759,-118.170082,
0703, "0703","FOURTH & WALNUT NW",,  33.771786,-118.172241,
0705, "0705","FOURTH & BONITO NW",,  33.771732,-118.179855,
0706, "0706","FOURTH & ALAMITOS NW",,  33.771805,-118.181717,
0708, "0708","FOURTH & ATLANTIC NW",,  33.771774,-118.185318,
0709, "0709","FOURTH & LINDEN NW",,  33.771763,-118.186646,
0710, "0710","FOURTH & ELM",,  33.771736,-118.187920,
0711, "0711","SIXTH & L.B. BLVD. SE",,  33.774109,-118.188896,
0713, "0713","ATLANTIC & SIXTH NE",,  33.774387,-118.184990,
0714, "0714","ATLANTIC & SEVENTH NE",,  33.775734,-118.184998,
0715, "0715","ATLANTIC & EIGHTH NE",,  33.776798,-118.185005,
0717, "0717","ATLANTIC & TENTH NE",,  33.779263,-118.185005,
0718, "0718","ATLANTIC & 11TH NE",,  33.781105,-118.184975,
0719, "0719","ATLANTIC & ANAHEIM NE",,  33.782761,-118.184967,
0720, "0720","ATLANTIC & NEW YORK NE",,  33.784966,-118.184967,
0721, "0721","ATLANTIC & 16TH NE",,  33.787125,-118.184967,
0722, "0722","ATLANTIC & PCH NE",,  33.789993,-118.184952,
0724, "0724","ATLANTIC & 20TH NE",,  33.793732,-118.184975,
0726, "0726","ATLANTIC & HILL NE",,  33.797363,-118.184975,
0728, "0728","ATLANTIC & BURNETT NE",,  33.800945,-118.184967,
0730, "0730","ATLANTIC & WILLOW NE",,  33.804756,-118.184921,
0731, "0731","ATLANTIC & PATTERSON NE",,  33.807198,-118.184914,
0732, "0732","ATLANTIC & COLUMBIA NE",,  33.809013,-118.184937,
0733, "0733","ATLANTIC & 31ST NE",,  33.813553,-118.184921,
0734, "0734","ATLANTIC & 33RD NE",,  33.817181,-118.184929,
0735, "0735","ATLANTIC & WARDLOW NE",,  33.819000,-118.184914,
0736, "0736","ATLANTIC & 36TH NE",,  33.822372,-118.184967,
0737, "0737","ATLANTIC & 37TH NE",,  33.824509,-118.184959,
0738, "0738","ATLANTIC & BIXBY SE",,  33.827393,-118.184937,
0739, "0739","ATLANTIC & ROOSEVELT NE",,  33.829369,-118.184944,
0740, "0740","ATLANTIC & CARSON NE",,  33.832153,-118.184929,
0742, "0742","ATLANTIC & SAN ANTONIO NE",,  33.837723,-118.184875,
0743, "0743","ATLANTIC & 45TH NE",,  33.840153,-118.184875,
0744, "0744","ATLANTIC & 46TH NE",,  33.842991,-118.184868,
0745, "0745","ATLANTIC & DEL AMO NE",,  33.845619,-118.184845,
0746, "0746","ATLANTIC & 51ST NE",,  33.848679,-118.184807,
0747, "0747","ATLANTIC & ATLN PLAZA NE",,  33.850693,-118.184784,
0748, "0748","ATLANTIC & 53RD SE",,  33.852352,-118.184822,
0749, "0749","ATLANTIC & MARKET NE",,  33.854469,-118.184837,
0751, "0751","ATLANTIC & 56TH NE",,  33.858223,-118.184891,
0752, "0752","ATLANTIC & SOUTH NE",,  33.860168,-118.184868,
0753, "0753","ATLANTIC & 60TH NE",,  33.863785,-118.184891,
0754, "0754","ATLANTIC & HARDING NE",,  33.867424,-118.185211,
0755, "0755","ATLANTIC & ADAMS NE",,  33.870132,-118.185570,
0756, "0756","ATLANTIC & JORDAN HS. E",,  33.871311,-118.185745,
0757, "0757","ATLANTIC & ARTESIA NE",,  33.874798,-118.186066,
0758, "0758","ATLANTIC & 68TH SE",,  33.877983,-118.185966,
0759, "0759","ELM & 4TH SW",,  33.771584,-118.187759,
0761, "0761","Atlantic Pl at 71st NE",,  33.883881,-118.185745,
0763, "0763","Hunsaker at 72nd NE",,  33.885593,-118.185516,
0764, "0764","HUNSAKER & ATLANTIC PL NW",,  33.885689,-118.185646,
0765, "0765","ATLANTIC PL. & 71ST SW",,  33.883549,-118.185913,
0766, "0766","ATLANTIC PL. & 70TH SW",,  33.881527,-118.185982,
0767, "0767","ATLANTIC & 68TH NW",,  33.878265,-118.186089,
0768, "0768","ATLANTIC & ARTESIA SW",,  33.874226,-118.186234,
0769, "0769","ATLANTIC & JORDAN HS. W",,  33.871025,-118.185844,
0770, "0770","ATLANTIC & ADAMS SW",,  33.869667,-118.185646,
0771, "0771","ATLANTIC & HARDING SW",,  33.867130,-118.185341,
0772, "0772","ATLANTIC & 60TH NW",,  33.863789,-118.185097,
0773, "0773","ATLANTIC & SOUTH SW",,  33.859818,-118.185081,
0774, "0774","ATLANTIC & 56TH SW",,  33.857857,-118.185074,
0775, "0775","ATLANTIC & SOUTH NW",,  33.860188,-118.185089,
0776, "0776","ATLANTIC & MARKET NW",,  33.854610,-118.185051,
0777, "0777","ATLANTIC & 53RD SW",,  33.852226,-118.185036,
0778, "0778","ATLANTIC & 52ND SW",,  33.850418,-118.185020,
0779, "0779","ATLANTIC & 51ST SW",,  33.848499,-118.185051,
0780, "0780","ATLANTIC & DEL AMO SW",,  33.844913,-118.185112,
0781, "0781","ATLANTIC & 46TH SW",,  33.842438,-118.185089,
0782, "0782","ATLANTIC & 45TH SW",,  33.839661,-118.185127,
0783, "0783","ATLANTIC & SAN ANTONIO SW",,  33.836250,-118.185143,
0784, "0784","ATLANTIC & BURLINGHALL SW",,  33.834095,-118.185165,
0785, "0785","ATLANTIC & CARSON SW",,  33.831448,-118.185204,
0786, "0786","ATLANTIC & ROOSEVELT SW",,  33.828720,-118.185188,
0787, "0787","ATLANTIC & BIXBY SW",,  33.826508,-118.185120,
0788, "0788","ATLANTIC & 37TH SW",,  33.823978,-118.185158,
0789, "0789","ATLANTIC & 36TH SW",,  33.821964,-118.185158,
0790, "0790","ATLANTIC & WARDLOW SW",,  33.818604,-118.185089,
0791, "0791","ATLANTIC & 31ST NW",,  33.813671,-118.185188,
0792, "0792","ATLANTIC & COLUMBIA SW",,  33.808678,-118.185181,
0794, "0794","ATLANTIC & WILLOW SW",,  33.804073,-118.185127,
0796, "0796","ATLANTIC & BURNETT SW",,  33.800545,-118.185066,
0798, "0798","ATLANTIC & HILL SW",,  33.796841,-118.185173,
0800, "0800","ATLANTIC & 20TH SW",,  33.793255,-118.185135,
0802, "0802","ATLANTIC & PCH SW",,  33.789604,-118.185089,
0803, "0803","ATLANTIC & 16TH SW",,  33.786755,-118.185135,
0804, "0804","ATLANTIC & NEW YORK SW",,  33.784599,-118.185173,
0805, "0805","ATLANTIC & TENTH SW",,  33.778625,-118.185165,
0807, "0807","ATLANTIC & EIGHTH SW",,  33.776279,-118.185135,
0808, "0808","SEVENTH & ATLANTIC NW",,  33.775402,-118.185539,
0810, "0810","NEW YORK & ATLANTIC SE",,  33.784817,-118.184769,
0811, "0811","NEW YORK & M.L. KING SE",,  33.784817,-118.180603,
0812, "0812","NEW YORK & CERRITOS SW",,  33.784859,-118.178055,
0813, "0813","ALAMITOS & 15TH NE",,  33.786434,-118.176697,
0814, "0814","ORANGE & PCH NE",,  33.790104,-118.176323,
0815, "0815","ORANGE & 19TH NE",,  33.791424,-118.176315,
0816, "0816","ORANGE & 20TH NE",,  33.794739,-118.176254,
0817, "0817","ORANGE & HILL NE",,  33.797440,-118.176277,
0818, "0818","ORANGE & 23RD SE",,  33.798771,-118.176300,
0819, "0819","ORANGE & BURNETT SE",,  33.800663,-118.176292,
0820, "0820","ORANGE & WILLOW SE",,  33.803619,-118.176270,
0822, "0822","ORANGE & 29TH SE",,  33.809669,-118.176239,
0823, "0823","ORANGE & SPRING NE",,  33.812088,-118.176247,
0824, "0824","ORANGE & 32ND NE",,  33.815525,-118.176315,
0825, "0825","ORANGE & 33RD NE",,  33.817295,-118.176308,
0826, "0826","ORANGE & WARDLOW NE",,  33.819130,-118.176315,
0827, "0827","ORANGE & 36TH NE",,  33.822350,-118.176315,
0828, "0828","ORANGE & 37TH NE",,  33.824440,-118.176292,
0829, "0829","ORANGE & BIXBY NE",,  33.826977,-118.176270,
0830, "0830","ORANGE & ROOSEVELT NE",,  33.830170,-118.176270,
0831, "0831","ORANGE & CARSON NE",,  33.832779,-118.176247,
0832, "0832","ORANGE & TEHACHAPI NE",,  33.836090,-118.176239,
0833, "0833","ORANGE & GOLDFIELD NE",,  33.839275,-118.176239,
0834, "0834","ORANGE & SAN ANTONIO NE",,  33.841934,-118.176262,
0835, "0835","ORANGE & E. GOLDFIELD NE",,  33.844196,-118.176521,
0836, "0836","ORANGE & DEL AMO NE",,  33.847282,-118.176819,
0837, "0837","ORANGE & 52ND NE",,  33.850384,-118.177116,
0838, "0838","ORANGE & 53RD NE",,  33.852688,-118.177139,
0839, "0839","ORANGE & MARKET NE",,  33.854671,-118.177200,
0841, "0841","ORANGE & 56TH NE",,  33.857822,-118.177208,
0842, "0842","ORANGE & SOUTH NE",,  33.860432,-118.177216,
0843, "0843","ORANGE & HUNGERFORD NE",,  33.863033,-118.177261,
0844, "0844","ORANGE & 61ST NE",,  33.865738,-118.177292,
0845, "0845","ORANGE & HARDING NE",,  33.867577,-118.177307,
0846, "0846","ORANGE & 63RD NE",,  33.869362,-118.177307,
0847, "0847","ORANGE & 64TH NE",,  33.871181,-118.177315,
0848, "0848","ORANGE & 65TH NE",,  33.873047,-118.177338,
0849, "0849","ORANGE & ARTESIA NE",,  33.874912,-118.177353,
0850, "0850","ORANGE & 67TH NE",,  33.876633,-118.177361,
0851, "0851","ORANGE & 68TH NE",,  33.878448,-118.177361,
0852, "0852","ORANGE & 70TH SE",,  33.881565,-118.177399,
0853, "0853","ORANGE & JACKSON NE",,  33.885807,-118.177399,
0854, "0854","ORANGE & ALONDRA NE",,  33.889347,-118.177406,
0855, "0855","ORANGE & MYRRH NE",,  33.892948,-118.177429,
0856, "0856","ORANGE & SOMERSET BLVD NE",,  33.896694,-118.177475,
0857, "0857","ORANGE & SAN VICENTE NE",,  33.899857,-118.177475,
0858, "0858","ORANGE & SAN CARLOS NE",,  33.902210,-118.177521,
0861, "0861","ORANGE & SAN CARLOS NW",,  33.901939,-118.177643,
0862, "0862","ORANGE & SAN VICENTE NW",,  33.899437,-118.177628,
0863, "0863","ORANGE & SOMERSET BLVD SW",,  33.895977,-118.177612,
0864, "0864","ORANGE & MYRRH W",,  33.892563,-118.177612,
0865, "0865","ORANGE & ALONDRA NW",,  33.889503,-118.177574,
0866, "0866","ORANGE & 72ND SW",,  33.885220,-118.177567,
0867, "0867","ORANGE & 70TH SW",,  33.881592,-118.177521,
0868, "0868","ORANGE & 68TH SW",,  33.878067,-118.177582,
0869, "0869","ORANGE & 67TH SW",,  33.876328,-118.177460,
0870, "0870","ORANGE & ARTESIA SW",,  33.874367,-118.177498,
0871, "0871","ORANGE & 65TH SW",,  33.872627,-118.177437,
0872, "0872","ORANGE & 64TH SW",,  33.870846,-118.177498,
0873, "0873","ORANGE & 63RD SW",,  33.869038,-118.177483,
0874, "0874","ORANGE & HARDING SW",,  33.867058,-118.177460,
0875, "0875","ORANGE & 61ST SW",,  33.865360,-118.177460,
0876, "0876","ORANGE & 60TH SW",,  33.863499,-118.177368,
0877, "0877","ORANGE & SOUTH SW",,  33.859856,-118.177383,
0878, "0878","ORANGE & 56TH SW",,  33.857716,-118.177330,
0880, "0880","ORANGE & MARKET SW",,  33.854115,-118.177383,
0881, "0881","ORANGE & VIA WANDA SW",,  33.849785,-118.177254,
0882, "0882","ORANGE & DEL AMO SW",,  33.846699,-118.176964,
0883, "0883","ORANGE & 45TH WAY SW",,  33.843735,-118.176659,
0884, "0884","ORANGE & SAN ANTONIO SW",,  33.840984,-118.176453,
0885, "0885","ORANGE & CLAIRBORNE SW",,  33.838810,-118.176422,
0886, "0886","ORANGE & TEHACHAPI SW",,  33.835598,-118.176437,
0887, "0887","ORANGE & CARSON SW",,  33.832108,-118.176422,
0888, "0888","ORANGE & ROOSEVELT SW",,  33.829536,-118.176445,
0889, "0889","ORANGE & BIXBY NW",,  33.827469,-118.176437,
0890, "0890","ORANGE & 37TH SW",,  33.823986,-118.176422,
0891, "0891","ORANGE & 36TH SW",,  33.821999,-118.176414,
0892, "0892","ORANGE & WARDLOW SW",,  33.818695,-118.176430,
0893, "0893","ORANGE & 33RD SW",,  33.816940,-118.176422,
0894, "0894","ORANGE & 32ND SW",,  33.815018,-118.176437,
0895, "0895","ORANGE & SPRING NW",,  33.812000,-118.176445,
0896, "0896","ORANGE & 29TH SW",,  33.809593,-118.176445,
0898, "0898","ORANGE & WILLOW SW",,  33.803978,-118.176414,
0899, "0899","ORANGE & BURNETT NW",,  33.801193,-118.176430,
0900, "0900","ORANGE & 23RD SW",,  33.798649,-118.176430,
0901, "0901","ORANGE & HILL NW",,  33.797192,-118.176407,
0902, "0902","ORANGE & 20TH SW",,  33.793224,-118.176430,
0903, "0903","ORANGE & 19TH SW",,  33.791046,-118.176453,
0904, "0904","ORANGE & PCH SW",,  33.789528,-118.176430,
0905, "0905","ALAMITOS & 16TH SW",,  33.786942,-118.176750,
0908, "0908","TENTH & L.B. BLVD. SE",,  33.778919,-118.189011,
0909, "0909","TENTH & LINDEN SE",,  33.778950,-118.186165,
0910, "0910","TENTH & ATLANTIC SE",,  33.778942,-118.184792,
0911, "0911","TENTH & OLIVE SE",,  33.778954,-118.182198,
0912, "0912","TENTH & M.L. KING SE",,  33.778957,-118.180481,
0913, "0913","TENTH & ALAMITOS SE",,  33.778961,-118.178841,
0914, "0914","TENTH & ORANGE SE",,  33.778912,-118.176254,
0915, "0915","TENTH & HOFFMAN SE",,  33.778954,-118.172852,
0916, "0916","TENTH & WALNUT SE",,  33.778904,-118.171562,
0917, "0917","TENTH & ROSE SE",,  33.778965,-118.169640,
0918, "0918","TENTH & CHERRY SE",,  33.778908,-118.166664,
0919, "0919","TENTH & DAWSON SE",,  33.778900,-118.165047,
0920, "0920","TENTH & JUNIPERO SE",,  33.778908,-118.162865,
0921, "0921","TENTH & MOLINO SE",,  33.778908,-118.160187,
0922, "0922","TENTH & TEMPLE SE",,  33.778893,-118.157982,
0923, "0923","TENTH & ORIZABA SE",,  33.778893,-118.155815,
0924, "0924","TENTH & OBISPO SE",,  33.778889,-118.154160,
0925, "0925","TENTH & REDONDO SE",,  33.778889,-118.151978,
0926, "0926","TENTH & LOMA SE",,  33.778900,-118.149254,
0927, "0927","TENTH & GRAND SE",,  33.778900,-118.148285,
0928, "0928","TENTH & TERMINO SE",,  33.778908,-118.145782,
0930, "0930","TENTH & XIMENO SE",,  33.778881,-118.141014,
0977, "0977","PARK & SEVENTH NE",,  33.775604,-118.137581,
0978, "0978","TENTH & XIMENO NW",,  33.779030,-118.142509,
0980, "0980","TENTH & TERMINO NW",,  33.779003,-118.146149,
0981, "0981","TENTH & GRAND NE",,  33.779015,-118.148499,
0982, "0982","TENTH & LOMA NW",,  33.779015,-118.150497,
0983, "0983","TENTH & REDONDO NW",,  33.779053,-118.152824,
0984, "0984","TENTH & OBISPO NW",,  33.779041,-118.154854,
0985, "0985","TENTH & ORIZABA NW",,  33.779057,-118.156952,
0986, "0986","TENTH & TEMPLE NW",,  33.779018,-118.159233,
0987, "0987","TENTH & MOLINO NW",,  33.779041,-118.161324,
0988, "0988","TENTH & JUNIPERO NW",,  33.779003,-118.163551,
0989, "0989","TENTH & DAWSON NW",,  33.779026,-118.165741,
0990, "0990","TENTH & CHERRY NW",,  33.779045,-118.167992,
0991, "0991","TENTH & VINA NW",,  33.779022,-118.169571,
0992, "0992","TENTH & WALNUT NW",,  33.779011,-118.172203,
0993, "0993","TENTH & HOFFMAN NW",,  33.779015,-118.173851,
0994, "0994","TENTH & ORANGE NW",,  33.778999,-118.176567,
0995, "0995","TENTH & ALAMITOS NW",,  33.779026,-118.179390,
0996, "0996","TENTH & M.L. KING NW",,  33.779026,-118.180977,
0997, "0997","TENTH & OLIVE NW",,  33.779041,-118.183105,
0999, "0999","SIXTH & ATLANTIC SE",,  33.774071,-118.184822,
1000, "1000","SIXTH & OLIVE SE",,  33.774109,-118.182060,
1001, "1001","SEVENTH & ALAMITOS SE",,  33.775280,-118.179802,
1003, "1003","SEVENTH & ORANGE SE",,  33.775284,-118.176086,
1004, "1004","SEVENTH & NEBRASKA SE",,  33.775269,-118.173462,
1005, "1005","SEVENTH & WALNUT SE",,  33.775272,-118.171761,
1006, "1006","SEVENTH & ROSE SE",,  33.775284,-118.169624,
1007, "1007","SEVENTH & CHERRY SE",,  33.775261,-118.167229,
1008, "1008","SEVENTH & DAWSON SE",,  33.775269,-118.165230,
1009, "1009","SEVENTH & JUNIPERO SE",,  33.775284,-118.163048,
1010, "1010","SEVENTH & MOLINO SE",,  33.775265,-118.160896,
1011, "1011","SEVENTH & TEMPLE SE",,  33.775284,-118.158646,
1012, "1012","SEVENTH & ORIZABA SE",,  33.775284,-118.156548,
1013, "1013","SEVENTH & OBISPO SE",,  33.775311,-118.154289,
1014, "1014","SEVENTH & REDONDO SE",,  33.775272,-118.152161,
1017, "1017","SEVENTH & TERMINO SE",,  33.775253,-118.145592,
1019, "1019","SEVENTH & XIMENO SE",,  33.775249,-118.141350,
1020, "1020","SEVENTH & PARK SE",,  33.775291,-118.136887,
1021, "1021","SEVENTH & FEDERATION SW",,  33.775280,-118.134918,
1022, "1022","SEVENTH & TERRAINE SE",,  33.775242,-118.127251,
1023, "1023","SEVENTH & LOS ALTOS SE",,  33.775253,-118.125015,
1024, "1024","SEVENTH & BELLFLOWER SW",,  33.775204,-118.121460,
1025, "1025","W. CAMPUS & LIBRARY East Side",,  33.777782,-118.115120,
1026, "1026","BEACH DR & W. CAMPUS N",,  33.781925,-118.114716,
1027, "1027","BEACH DR. & DORMS N",,  33.782124,-118.120277,
1029, "1029","BELLFLOWER & ATHERTON NE",,  33.788982,-118.124512,
1030, "1030","BELLFLOWER & GARFORD NE",,  33.792057,-118.125259,
1031, "1031","BELLFLOWER & BRITTON NE",,  33.794094,-118.125214,
1032, "1032","BELLFLOWER & STEARNS NE",,  33.796154,-118.125183,
1033, "1033","BELLFLOWER & 23RD NE",,  33.799297,-118.125175,
1034, "1034","BELLFLOWER & 28TH NE",,  33.806965,-118.125137,
1035, "1035","BELLFLOWER & SPRING NE",,  33.810745,-118.125114,
1036, "1036","BELLFLOWER & MEZZANINE NE",,  33.815388,-118.125107,
1037, "1037","BELLFLOWER & WARDLOW NE",,  33.819126,-118.125107,
1038, "1038","BELLFLOWER & MONLACO NE",,  33.822506,-118.125092,
1039, "1039","BELLFLOWER & CONANT NE",,  33.824917,-118.125084,
1040, "1040","BELLFLOWER & HARCO NE",,  33.827972,-118.125061,
1041, "1041","BELLFLOWER & PARKCREST NE",,  33.830566,-118.125061,
1042, "1042","BELLFLOWER & CARSON NE",,  33.832634,-118.125053,
1043, "1043","BELLFLOWER & HARVEY WAY NE",,  33.836384,-118.125031,
1044, "1044","BELLFLOWER & CENTRALIA NE",,  33.839729,-118.125023,
1045, "1045","BELLFLOWER & ARBOR WAY NE",,  33.843288,-118.125000,
1046, "1046","BELLFLOWER & DEL AMO NE",,  33.847515,-118.125000,
1047, "1047","BELLFLOWER & HARDWICK NE",,  33.850780,-118.124992,
1048, "1048","BELLFLOWER & CANDLEWOOD NE",,  33.853798,-118.124992,
1049, "1049","BELLFLOWER & MICHELSON NE",,  33.856354,-118.124985,
1050, "1050","BELLFLOWER & SOUTH SE",,  33.860237,-118.124992,
1051, "1051","BELLFLOWER & ANDY NE",,  33.861973,-118.125038,
1052, "1052","BELLFLOWER & HEDDA NE",,  33.864185,-118.125053,
1053, "1053","BELLFLOWER & ALLINGTON NE",,  33.865334,-118.125069,
1054, "1054","BELLFLOWER & ASHWORTH SE",,  33.867733,-118.125076,
1055, "1055","BELLFLOWER & CEDAR NE",,  33.871479,-118.125092,
1056, "1056","BELLFLOWER & RAMONA SE",,  33.872711,-118.125099,
1057, "1057","BELLFLOWER & ARTESIA SE",,  33.874451,-118.125061,
1059, "1059","BELLFLOWER & PARK NE",,  33.878761,-118.125175,
1060, "1060","BELLFLOWER & WALNUT SE",,  33.880119,-118.125175,
1061, "1061","BELLFLOWER & FLOWER NE",,  33.882347,-118.125221,
1062, "1062","BELLFLOWER & FLORA VISTA NE",,  33.886166,-118.125191,
1065, "1065","BELLFLOWER & FLORA VISTA SW",,  33.886227,-118.125343,
1066, "1066","BELLFLOWER & OAK SW",,  33.884449,-118.125389,
1067, "1067","BELLFLOWER & FLOWER SW",,  33.881901,-118.125359,
1068, "1068","BELLFLOWER & WALNUT SW",,  33.880138,-118.125343,
1069, "1069","BELLFLOWER & PARK SW",,  33.878185,-118.125336,
1071, "1071","BELLFLOWER & ARTESIA SW",,  33.874382,-118.125351,
1072, "1072","BELLFLOWER & RAMONA NW",,  33.873173,-118.125343,
1073, "1073","BELLFLOWER & ASHWORTH NW",,  33.868122,-118.125313,
1074, "1074","BELLFLOWER & ALLINGTON SW",,  33.865555,-118.125259,
1075, "1075","BELLFLOWER & HEDDA SW",,  33.864044,-118.125267,
1076, "1076","BELLFLOWER & ANDY NW",,  33.862247,-118.125252,
1077, "1077","BELLFLOWER & SOUTH SW",,  33.859768,-118.125259,
1078, "1078","BELLFLOWER & MICHELSON SW",,  33.856010,-118.125214,
1079, "1079","BELLFLOWER & CANDLEWOOD SW",,  33.853470,-118.125206,
1080, "1080","BELLFLOWER & HARDWICK SW",,  33.850613,-118.125229,
1081, "1081","BELLFLOWER & DEL AMO SW",,  33.846653,-118.125229,
1082, "1082","BELLFLOWER & ARBOR SW",,  33.842770,-118.125252,
1083, "1083","BELLFLOWER & CENTRALIA SW",,  33.839355,-118.125252,
1084, "1084","BELLFLOWER & HARVEY WAY SW",,  33.835865,-118.125290,
1085, "1085","BELLFLOWER & CARSON SW",,  33.831848,-118.125313,
1086, "1086","BELLFLOWER & PARKCREST NW",,  33.830509,-118.125328,
1087, "1087","BELLFLOWER & HARCO SW",,  33.827412,-118.125313,
1088, "1088","BELLFLOWER & CONANT SW",,  33.824913,-118.125320,
1089, "1089","BELLFLOWER & MONLACO SW",,  33.822071,-118.125320,
1090, "1090","BELLFLOWER & WARDLOW SW",,  33.818150,-118.125351,
1091, "1091","BELLFLOWER & KILLDEE SW",,  33.816078,-118.125381,
1092, "1092","BELLFLOWER & MEZZANINE SW",,  33.815105,-118.125359,
1093, "1093","BELLFLOWER & PAGENTRY SW",,  33.813053,-118.125374,
1094, "1094","BELLFLOWER & SPRING SW",,  33.810364,-118.125404,
1095, "1095","BELLFLOWER & 28TH NW",,  33.806664,-118.125381,
1096, "1096","BELLFLOWER & LOS COYOTES SW",,  33.802017,-118.125404,
1097, "1097","BELLFLOWER & 23RD SW",,  33.798923,-118.125420,
1098, "1098","BELLFLOWER & STEARNS SW",,  33.795780,-118.125488,
1099, "1099","BELLFLOWER & ABBEYFIELD SW",,  33.793674,-118.125504,
1101, "1101","BELLFLOWER & ATHERTON SW",,  33.788277,-118.124405,
1103, "1103","SEVENTH & PCH NW",,  33.775402,-118.123337,
1104, "1104","SEVENTH & LOS ALTOS NW",,  33.775402,-118.125534,
1106, "1106","SEVENTH & FEDERATION NW",,  33.775417,-118.134361,
1107, "1107","SEVENTH & PARK NW",,  33.775425,-118.137978,
1108, "1108","SEVENTH & XIMENO NW",,  33.775368,-118.141998,
1110, "1110","SEVENTH & TERMINO NW",,  33.775387,-118.146202,
1113, "1113","SEVENTH & REDONDO NW",,  33.775414,-118.152802,
1114, "1114","SEVENTH & OBISPO NW",,  33.775414,-118.154816,
1115, "1115","SEVENTH & ORIZABA NW",,  33.775429,-118.156990,
1116, "1116","SEVENTH & TEMPLE NW",,  33.775429,-118.159378,
1117, "1117","SEVENTH & MOLINO NW",,  33.775425,-118.161400,
1118, "1118","SEVENTH & JUNIPERO NW",,  33.775425,-118.163567,
1119, "1119","SEVENTH & DAWSON NW",,  33.775417,-118.165718,
1120, "1120","SEVENTH & CHERRY NW",,  33.775414,-118.167908,
1121, "1121","SEVENTH & ROSE NW",,  33.775406,-118.170097,
1122, "1122","SEVENTH & WALNUT NW",,  33.775436,-118.172356,
1123, "1123","SEVENTH & NEBRASKA NW",,  33.775410,-118.174049,
1124, "1124","SEVENTH & ORANGE NW",,  33.775429,-118.176712,
1125, "1125","SEVENTH & ALAMITOS NE",,  33.775375,-118.179932,
1126, "1126","SEVENTH & OLIVE NW",,  33.775368,-118.182632,
1127, "1127","SEVENTH & ELM NW",,  33.775398,-118.187996,
1128, "1128","DEL AMO & BELLFLOWER NW",,  33.847164,-118.125565,
1129, "1129","DEL AMO & PEARCE NW",,  33.847149,-118.129112,
1130, "1130","CLARK & DEL AMO NE",,  33.847763,-118.133720,
1131, "1131","CLARK & HARDWICK NE",,  33.850559,-118.133682,
1134, "1134","Clark & Candlewood NW",,  33.853893,-118.133888,
1135, "1135","CLARK & CANDLEWOOD NE",,  33.854046,-118.133705,
1136, "1136","Candlewood & Graywood NW",,  33.853886,-118.138359,
1137, "1137","CLARK & MICHELSON NE",,  33.857468,-118.133690,
1138, "1138","CLARK & SOUTH SE",,  33.860218,-118.133698,
1139, "1139","CLARK & HEDDA SE",,  33.863960,-118.133789,
1140, "1140","CLARK & ASHWORTH SE",,  33.867752,-118.133797,
1141, "1141","CLARK & ROSE SE",,  33.869457,-118.133797,
1142, "1142","CLARK & CEDAR NE",,  33.871391,-118.133842,
1143, "1143","CLARK & RAMONA SE",,  33.872780,-118.133911,
1144, "1144","CLARK & ARTESIA SE",,  33.874481,-118.133858,
1145, "1145","CLARK & PARK SE",,  33.878284,-118.133873,
1146, "1146","CLARK & WALNUT SE",,  33.880123,-118.133888,
1147, "1147","FLOWER & CLARK SE",,  33.882008,-118.133659,
1148, "1148","FLOWER & ARDMORE SE",,  33.882019,-118.128830,
1149, "1149","FLOWER & BELLFLOWER NW",,  33.882164,-118.125961,
1150, "1150","FLOWER & ARDMORE NE",,  33.882156,-118.128906,
1151, "1151","CLARK & FLOWER SW",,  33.881874,-118.134048,
1152, "1152","CLARK & WALNUT NW",,  33.880402,-118.134048,
1153, "1153","CLARK & PARK NW",,  33.878571,-118.134041,
1154, "1154","CLARK & ARTESIA SW",,  33.874443,-118.134018,
1155, "1155","CLARK & RAMONA NW",,  33.873119,-118.134003,
1156, "1156","CLARK & CEDAR NW",,  33.871426,-118.133980,
1157, "1157","CLARK & ROSE SW",,  33.869427,-118.133972,
1158, "1158","CLARK & ASHWORTH NW",,  33.868084,-118.133965,
1159, "1159","CLARK & HEDDA NW",,  33.864368,-118.133957,
1160, "1160","CLARK & SOUTH SW",,  33.859306,-118.133919,
1163, "1163","CLARK & CANDLEWOOD SW",,  33.853302,-118.133865,
1164, "1164","CLARK & HARDWICK SW",,  33.849937,-118.133873,
1165, "1165","DEL AMO & CLARK SE",,  33.847015,-118.133339,
1166, "1166","DEL AMO & PEARCE SE",,  33.846996,-118.129944,
1167, "1167","WILLOW & LOS COYOTES SE",,  33.803154,-118.121399,
1168, "1168","WILLOW & SAN VICENTE SE",,  33.803165,-118.116997,
1169, "1169","WOODRUFF & WILLOW NE",,  33.803455,-118.114471,
1170, "1170","WOODRUFF & OAKBROOK NE",,  33.806187,-118.114487,
1171, "1171","WOODRUFF & SPRING NE",,  33.811047,-118.114449,
1172, "1172","WOODRUFF & LOS COYOTES NE",,  33.813202,-118.115395,
1173, "1173","WOODRUFF & FANWOOD NE",,  33.815453,-118.116440,
1174, "1174","WOODRUFF & WARDLOW NE",,  33.818958,-118.116447,
1175, "1175","WOODRUFF & MONLACO NE",,  33.822456,-118.116425,
1176, "1176","WOODRUFF & CONANT NE",,  33.825150,-118.116463,
1177, "1177","WOODRUFF & HARCO NE",,  33.827522,-118.116501,
1178, "1178","WOODRUFF & MORTUARY E",,  33.829929,-118.116486,
1179, "1179","WOODRUFF & CARSON NE",,  33.832676,-118.116463,
1180, "1180","WOODRUFF & HARVEY WAY NE",,  33.836330,-118.116417,
1181, "1181","WOODRUFF & CENTRALIA NE",,  33.839603,-118.116341,
1182, "1182","WOODRUFF & ARBOR RD NE",,  33.843864,-118.116302,
1183, "1183","WOODRUFF & DEL AMO NE",,  33.847202,-118.116295,
1184, "1184","WOODRUFF & HARDWICK NE",,  33.851398,-118.116631,
1185, "1185","WOODRUFF & CANDLEWOOD NE",,  33.853813,-118.116829,
1186, "1186","WOODRUFF & PAVILIONS SE",,  33.856628,-118.116951,
1187, "1187","WOODRUFF & SOUTH SE",,  33.857956,-118.116966,
1188, "1188","WOODRUFF & ARABELLA SE",,  33.862869,-118.117065,
1189, "1189","WOODRUFF & ASHWORTH NE",,  33.868172,-118.117119,
1190, "1190","WOODRUFF & ROSE NE",,  33.870113,-118.117142,
1191, "1191","WOODRUFF & ARTESIA NE",,  33.873253,-118.117188,
1192, "1192","WOODRUFF & BEACH NE",,  33.877739,-118.117241,
1193, "1193","WOODRUFF & WALNUT NE",,  33.880535,-118.117256,
1194, "1194","WOODRUFF & MIDWAY SE",,  33.883583,-118.117294,
1195, "1195","WOODRUFF & TRABUCO SE",,  33.887211,-118.117287,
1196, "1196","ALONDRA & WOODRUFF SE",,  33.889271,-118.116455,
1198, "1198","WOODRUFF & WALNUT SW",,  33.880096,-118.117447,
1199, "1199","WOODRUFF & FLORA VISTA NW",,  33.882793,-118.117439,
1200, "1200","WOODRUFF & BEACH SW",,  33.877365,-118.117416,
1201, "1201","WOODRUFF & ARTESIA SW",,  33.872433,-118.117409,
1202, "1202","WOODRUFF & ROSE NW",,  33.869869,-118.117371,
1203, "1203","WOODRUFF & ASHWORTH SW",,  33.867676,-118.117348,
1204, "1204","WOODRUFF & ALLINGTON SW",,  33.865173,-118.117317,
1205, "1205","WOODRUFF & ARABELLA SW",,  33.861504,-118.117249,
1206, "1206","WOODRUFF & SOUTH SW",,  33.857929,-118.117203,
1207, "1207","WOODRUFF & PAVILIONS SW",,  33.856186,-118.117073,
1208, "1208","WOODRUFF & CANDLEWOOD SW",,  33.852974,-118.116898,
1209, "1209","WOODRUFF & HARDWICK SW",,  33.850105,-118.116676,
1210, "1210","WOODRUFF & DEL AMO SW",,  33.846889,-118.116425,
1211, "1211","WOODRUFF & ARBOR RD NW",,  33.843109,-118.116463,
1212, "1212","WOODRUFF & CENTRALIA SW",,  33.839424,-118.116486,
1213, "1213","WOODRUFF & HARVEY WAY SW",,  33.835514,-118.116570,
1214, "1214","WOODRUFF & CARSON SW",,  33.831944,-118.116669,
1215, "1215","WOODRUFF & HARCO SW",,  33.827522,-118.116646,
1216, "1216","WOODRUFF & CONANT SW",,  33.824871,-118.116600,
1217, "1217","WOODRUFF & MONLACO SW",,  33.822273,-118.116577,
1218, "1218","WOODRUFF & WARDLOW SW",,  33.818115,-118.116600,
1219, "1219","WOODRUFF & MEZZANINE SW",,  33.814747,-118.116447,
1220, "1220","WOODRUFF & LOS COYOTES NW",,  33.813194,-118.115646,
1221, "1221","WOODRUFF & SPRING NW",,  33.810848,-118.114700,
1222, "1222","WOODRUFF & OAKBRIDGE SW",,  33.805721,-118.114746,
1223, "1223","WOODRUFF & WILLOW SW",,  33.803562,-118.114769,
1224, "1224","WILLOW & SAN VICENTE NW",,  33.803341,-118.117180,
1225, "1225","WILLOW & RADNOR NW",,  33.803391,-118.122452,
1230, "1230","WILLOW & EASY SE",,  33.804295,-118.209694,
1231, "1231","WILLOW & OREGON SE",,  33.804314,-118.201042,
1233, "1233","WILLOW & MAGNOLIA SE",,  33.804302,-118.197899,
1235, "1235","WILLOW & PACIFIC SE",,  33.804287,-118.193375,
1236, "1236","WILLOW & L.B. BLVD. SE",,  33.804306,-118.189041,
1237, "1237","CARSON & ATLANTIC SE",,  33.831676,-118.184624,
1239, "1239","CARSON & CALIFORNIA SE",,  33.832355,-118.180473,
1240, "1240","CARSON & ORANGE NW",,  33.832336,-118.175911,
1241, "1241","CARSON & WALNUT SW",,  33.832375,-118.172256,
1243, "1243","CARSON & PARAMOUNT SE",,  33.832314,-118.159439,
1244, "1244","CARSON & OBISPO SE",,  33.832348,-118.156883,
1245, "1245","CARSON & WATSON SE",,  33.832355,-118.154686,
1246, "1246","CARSON & WORSHAM SE",,  33.832310,-118.147362,
1247, "1247","CARSON & LAKEWOOD SE",,  33.832230,-118.141670,
1249, "1249","CARSON & FACULTY SE",,  33.832226,-118.136673,
1250, "1250","CLARK & CARSON NE",,  33.832546,-118.133774,
1251, "1251","CLARK & HARVEY WAY SE",,  33.836010,-118.133766,
1252, "1252","CLARK & CENTRALIA NE",,  33.839832,-118.133797,
1253, "1253","CLARK & ARBOR RD NE",,  33.843315,-118.133728,
1254, "1254","CLARK & DEL AMO SW",,  33.846172,-118.133926,
1255, "1255","CLARK & ARBOR RD SW",,  33.842857,-118.133888,
1270, "1270","CARSON & LOS COYOTES SE",,  33.832134,-118.098389,
1271, "1271","CARSON AT WORSHAM NW",,  33.832447,-118.145287,
1272, "1272","CARSON & NECTAR NW",,  33.831585,-118.088341,
1274, "1274","Carson and Los Coyotes Diagonal NW",,  33.832306,-118.100792,
1282, "1282","Carson and Woodruff NE",,  33.832375,-118.116440,
1288, "1288","CLARK & CENTRALIA NW",,  33.839783,-118.133896,
1289, "1289","CLARK & HARVEY WAY SW",,  33.835869,-118.133949,
1290, "1290","CLARK & L.B.C.C. NW",,  33.833668,-118.134003,
1291, "1291","CARSON & CLARK NW",,  33.832451,-118.134338,
1292, "1292","CARSON & FACULTY NE",,  33.832455,-118.137032,
1293, "1293","CARSON & NORSE WAY NW",,  33.832481,-118.141273,
1294, "1294","CARSON & LAKEWOOD NW",,  33.832455,-118.142975,
1295, "1295","CARSON & LKWD. DR. NW",,  33.832500,-118.148094,
1296, "1296","CARSON & CLUBHOUSE NE",,  33.832508,-118.154854,
1297, "1297","CARSON & OBISPO NW",,  33.832523,-118.157486,
1298, "1298","CARSON & PARAMOUNT NE",,  33.832520,-118.159561,
1299, "1299","CARSON & WALNUT NE",,  33.832546,-118.172104,
1300, "1300","CARSON & ORANGE SE",,  33.832542,-118.176735,
1301, "1301","CARSON & CALIFORNIA NW",,  33.832561,-118.181046,
1303, "1303","WILLOW & ATLANTIC NW",,  33.804523,-118.185440,
1304, "1304","WILLOW & L.B. BLVD. NW",,  33.804497,-118.189827,
1305, "1305","WILLOW & PACIFIC NW",,  33.804493,-118.194016,
1306, "1306","WILLOW & CHESTNUT NW",,  33.804482,-118.195992,
1307, "1307","WILLOW & MAGNOLIA NW",,  33.804482,-118.198181,
1308, "1308","Carson and Woodruff SE",,  33.832157,-118.116356,
1309, "1309","WILLOW & OREGON NW",,  33.804489,-118.201538,
1310, "1310","WILLOW & EASY NW",,  33.804474,-118.210350,
1311, "1311","WILLOW & CASPIAN NW",,  33.804470,-118.212486,
1312, "1312","ADRIATIC & WILLOW SW",,  33.804226,-118.214417,
1313, "1313","BROADWAY & L.B. BLVD. SE",,  33.769276,-118.188881,
1315, "1315","BROADWAY & LINDEN SE",,  33.769230,-118.186195,
1316, "1316","BROADWAY & ATLANTIC SE",,  33.769245,-118.184731,
1318, "1318","BROADWAY & ALAMITOS SE",,  33.769093,-118.181824,
1319, "1319","BROADWAY & BONITO SE",,  33.768856,-118.180214,
1320, "1320","BROADWAY & CERRITOS SE",,  33.768620,-118.178528,
1321, "1321","BROADWAY & ORANGE SE",,  33.768414,-118.176643,
1323, "1323","BROADWAY & FALCON SE",,  33.767929,-118.173058,
1324, "1324","BROADWAY & GAVIOTA SE",,  33.767696,-118.171242,
1326, "1326","BROADWAY & CHERRY SE",,  33.767235,-118.167648,
1327, "1327","BROADWAY & JUNIPERO SE",,  33.766853,-118.165604,
1329, "1329","BROADWAY & WISCONSIN SE",,  33.766029,-118.161606,
1330, "1330","BROADWAY & TEMPLE SE",,  33.765392,-118.158684,
1332, "1332","BROADWAY & OBISPO SE",,  33.764492,-118.154366,
1333, "1333","BROADWAY & REDONDO SE",,  33.764397,-118.152184,
1335, "1335","BROADWAY & GRAND SE",,  33.764408,-118.147827,
1336, "1336","BROADWAY & TERMINO SE",,  33.764404,-118.145508,
1338, "1338","XIMENO & BROADWAY NE",,  33.764660,-118.141548,
1339, "1339","XIMENO & 3RD NE",,  33.768269,-118.141541,
1341, "1341","XIMENO & 4TH NE",,  33.771790,-118.141472,
1342, "1342","XIMENO & 7TH NE",,  33.775719,-118.141533,
1343, "1343","XIMENO & 10TH SE",,  33.778862,-118.141472,
1344, "1344","XIMENO & ANAHEIM NE",,  33.782917,-118.141449,
1345, "1345","XIMENO & 15TH NE",,  33.785896,-118.141418,
1346, "1346","PCH & XIMENO NW",,  33.787971,-118.139641,
1347, "1347","LAKEWOOD & OUTER CIRCLE NE",,  33.791733,-118.142570,
1348, "1348","LAKEWOOD & DE ORA E",,  33.794296,-118.142578,
1349, "1349","LAKEWOOD & STEARNS NE",,  33.796154,-118.142563,
1350, "1350","LAKEWOOD & 23RD NE",,  33.799786,-118.142548,
1351, "1351","WILLOW & LAKEWOOD NW",,  33.803440,-118.143051,
1352, "1352","Carson and Bellflower SE",,  33.832188,-118.124886,
1353, "1353","WILLOW & GRAND NE",,  33.804195,-118.147957,
1354, "1354","REDONDO & WILLOW NE",,  33.805019,-118.151230,
1356, "1356","KILROY ARPT WAY & REDONDO SE",,  33.807583,-118.151054,
1357, "1357","KILROY ARPT WAY & 3800 BLDG NE",,  33.806801,-118.145004,
1358, "1358","LAKEWOOD & SPRING NE",,  33.813213,-118.139030,
1359, "1359","DOUGLAS & PRIVATE RD N",,  33.818882,-118.141258,
1360, "1360","AIRPORT & TERMINAL W",,  33.817524,-118.142906,
1361, "1361","LAKEWOOD & WARDLOW NE",,  33.819416,-118.139145,
1362, "1362","LAKEWOOD & CONANT NE",,  33.825275,-118.142387,
1363, "1363","LAKEWOOD & COVER E",,  33.828545,-118.142464,
1365, "1365","LAKEWOOD & CARSON NE",,  33.833134,-118.142456,
1366, "1366","LAKEWOOD & HARVEY WAY NE",,  33.836369,-118.142395,
1367, "1367","LAKEWOOD & CENTRALIA NE",,  33.839783,-118.142387,
1368, "1368","LAKEWOOD & ARBOR RD NE",,  33.843258,-118.142380,
1369, "1369","LAKEWOOD & DEL AMO NE",,  33.847607,-118.142372,
1370, "1370","LAKEWOOD & HARDWICK NE",,  33.851154,-118.142349,
1371, "1371","CANDLEWOOD & LAKEWOOD SE",,  33.853767,-118.142075,
1372, "1372","CANDLEWOOD & GRAYWOOD SW",,  33.853779,-118.138390,
1374, "1374","LAKEWOOD & CANDLEWOOD SW",,  33.853661,-118.142654,
1375, "1375","LAKEWOOD & HARDWICK SW",,  33.850281,-118.142746,
1376, "1376","LAKEWOOD & DEL AMO SW",,  33.846958,-118.142677,
1377, "1377","LAKEWOOD & ARBOR RD SW",,  33.842812,-118.142662,
1378, "1378","LAKEWOOD & CENTRALIA SW",,  33.839710,-118.142685,
1379, "1379","LAKEWOOD & HARVEY WAY SW",,  33.835960,-118.142700,
1380, "1380","LAKEWOOD & CARSON SW",,  33.831745,-118.142731,
1381, "1381","LAKEWOOD & COVER W",,  33.827034,-118.142738,
1382, "1382","LAKEWOOD & CONANT SW",,  33.824726,-118.142693,
1384, "1384","LAKEWOOD & SPRING NW",,  33.812820,-118.139328,
1386, "1386","KILROY ARPT WAY & 3800 BLDG NW",,  33.806824,-118.145149,
1387, "1387","REDONDO & 29TH SW",,  33.806286,-118.151474,
1388, "1388","WILLOW & ADULT SCHOOL",,  33.804543,-118.149948,
1390, "1390","LAKEWOOD & WILLOW SW",,  33.802902,-118.142891,
1391, "1391","LAKEWOOD & 23RD SW",,  33.799469,-118.142868,
1392, "1392","LAKEWOOD & STEARNS SW",,  33.795868,-118.142868,
1393, "1393","LAKEWOOD & DE ORA W",,  33.794113,-118.142868,
1394, "1394","OUTER CIRCLE & LAKEWOOD SE",,  33.791485,-118.142395,
1395, "1395","XIMENO & PCH SW",,  33.787636,-118.139786,
1396, "1396","XIMENO & RANSOM SW",,  33.786396,-118.141243,
1397, "1397","XIMENO & ANAHEIM SW",,  33.782276,-118.141602,
1398, "1398","XIMENO & TENTH SW",,  33.778679,-118.141617,
1399, "1399","XIMENO & SEVENTH SW",,  33.774986,-118.141617,
1400, "1400","XIMENO & FOURTH SW",,  33.771507,-118.141609,
1402, "1402","XIMENO & THIRD SW",,  33.767883,-118.141617,
1403, "1403","BROADWAY & XIMENO NW",,  33.764469,-118.141838,
1405, "1405","BROADWAY & TERMINO NE",,  33.764496,-118.145775,
1407, "1407","BROADWAY & LOMA NW",,  33.764503,-118.150352,
1408, "1408","BROADWAY & REDONDO NW",,  33.764496,-118.152817,
1409, "1409","BROADWAY & CORTO NE",,  33.764797,-118.155334,
1410, "1410","CONANT &  LAKEWOOD SE",,  33.825024,-118.142197,
1411, "1411","BROADWAY & TEMPLE NE",,  33.765526,-118.158813,
1412, "1412","BROADWAY & MOLINO NW",,  33.765972,-118.160873,
1414, "1414","BROADWAY & JUNIPERO NW",,  33.767006,-118.166061,
1415, "1415","BROADWAY & CHERRY NW",,  33.767361,-118.168030,
1417, "1417","BROADWAY & GAVIOTA NW",,  33.767868,-118.171707,
1418, "1418","BROADWAY & FALCON NW",,  33.768112,-118.173538,
1420, "1420","BROADWAY & ORANGE NW",,  33.768547,-118.177063,
1421, "1421","BROADWAY & CERRITOS NW",,  33.768784,-118.178925,
1423, "1423","ALAMITOS & BROADWAY SW",,  33.769032,-118.182198,
1425, "1425","FIRST & ALAMITOS NW",,  33.768143,-118.182564,
1427, "1427","FIRST & LINDEN NE",,  33.768147,-118.186272,
1428, "1428","WILLOW & LAKEWOOD SE",,  33.803200,-118.142136,
1429, "1429","CLARK & WILLOW NE",,  33.803730,-118.133858,
1430, "1430","CLARK & 28TH NE",,  33.807030,-118.133896,
1431, "1431","CLARK & SPRING NE",,  33.811085,-118.133904,
1432, "1432","CLARK & PAGENTRY NE",,  33.813381,-118.133904,
1433, "1433","CLARK & MEZZANINE NE",,  33.815613,-118.133888,
1435, "1435","CLARK & WARDLOW NE",,  33.819199,-118.133865,
1436, "1436","CLARK & MONLACO NE",,  33.822544,-118.133850,
1437, "1437","CLARK & CONANT SE",,  33.824928,-118.133842,
1438, "1438","CLARK & HARCO SE",,  33.826832,-118.133812,
1439, "1439","CLARK & HANBURY NE",,  33.829453,-118.133774,
1440, "1440","CLARK & LEW DAVIS SW",,  33.829700,-118.133995,
1441, "1441","CLARK & HARCO NW",,  33.826935,-118.134033,
1442, "1442","CLARK & CONANT SW",,  33.824760,-118.134056,
1443, "1443","CLARK & MONLACO SW",,  33.822025,-118.134048,
1444, "1444","CLARK & WARDLOW SW",,  33.818512,-118.134048,
1446, "1446","CLARK & MEZZANINE SW",,  33.815063,-118.134109,
1447, "1447","CLARK & PAGENTRY SW",,  33.812874,-118.134140,
1448, "1448","CLARK & SPRING NW",,  33.811035,-118.134163,
1449, "1449","CLARK & 28TH SW",,  33.806618,-118.134155,
1450, "1450","CLARK & WILLOW NW",,  33.803734,-118.134171,
1453, "1453","OCEAN & QUEENSWAY SE",,  33.767204,-118.197891,
1454, "1454","OCEAN & CHESTNUT SE",,  33.767136,-118.196281,
1455, "1455","OCEAN & CHERRY SE",,  33.764397,-118.168236,
1456, "1456","OCEAN & 19TH PL SE",,  33.763821,-118.165199,
1457, "1457","OCEAN & LINDERO SE",,  33.763081,-118.163048,
1458, "1458","OCEAN & TEMPLE SE",,  33.762333,-118.159477,
1460, "1460","OCEAN & REDONDO SE",,  33.760899,-118.152382,
1461, "1461","OCEAN & 38TH PL SW",,  33.760433,-118.148918,
1462, "1462","LIVINGSTON & TERMINO SE",,  33.760555,-118.145370,
1464, "1464","LIVINGSTON & XIMENO SE",,  33.761578,-118.141479,
1465, "1465","PCH AND SECOND NE",,  33.758369,-118.111252,
1466, "1466","PCH & GOLDEN SAILS E",,  33.765484,-118.116074,
1467, "1467","LOYNES & PCH SE",,  33.767475,-118.116020,
1468, "1468","BIXBY VILLAGE & LOYNES NE",,  33.768993,-118.114029,
1469, "1469","CHANNEL & SEVENTH SW",,  33.775005,-118.119072,
1470, "1470","BIXBY VILLAGE & S.GREENWAY W",,  33.771679,-118.114517,
1471, "1471","PCH & LOYNES SW",,  33.766937,-118.116966,
1472, "1472","PCH & GOLDEN SAILS SW",,  33.765575,-118.116440,
1473, "1473","PCH & MARINA PACIFICA W",,  33.759392,-118.112640,
1474, "1474","LIVINGSTON & XIMENO NW",,  33.761772,-118.141769,
1477, "1477","OCEAN & GRAND NW",,  33.760586,-118.148399,
1478, "1478","OCEAN & REDONDO NW",,  33.761120,-118.152924,
1479, "1479","OCEAN & PALOMA NW",,  33.761848,-118.156418,
1480, "1480","OCEAN & TEMPLE NW",,  33.762604,-118.160034,
1481, "1481","OCEAN & LINDERO NW",,  33.763325,-118.163460,
1482, "1482","OCEAN & KENNEBEC NW",,  33.763962,-118.165115,
1483, "1483","PCH & LOYNES NE",,  33.767601,-118.116837,
1531, "1531","OCEAN & MAGNOLIA NW",,  33.767429,-118.198395,
1541, "1541","Ximeno & PCH SE",,  33.787579,-118.139656,
1546, "1546","SANTA FE & DOMINGUEZ NE",,  33.839375,-118.214104,
1547, "1547","SANTA FE & EL PRESIDIO NE",,  33.841980,-118.213097,
1549, "1549","DEL AMO & PACIFIC SW",,  33.846550,-118.198257,
1550, "1550","DEL AMO & L.B. BLVD SE",,  33.846638,-118.193069,
1551, "1551","DEL AMO & LOCUST SE",,  33.846325,-118.189468,
1552, "1552","DEL AMO & ATLANTIC SE",,  33.845287,-118.184250,
1553, "1553","DEL AMO & ORANGE SW",,  33.846859,-118.176994,
1554, "1554","DEL AMO & CHERRY SE",,  33.846859,-118.167007,
1555, "1555","DEL AMO & CLAIR DEL SE",,  33.846947,-118.165085,
1556, "1556","DEL AMO & PARAMOUNT SE",,  33.846992,-118.159355,
1557, "1557","DEL AMO & OBISPO SE",,  33.847027,-118.154427,
1558, "1558","DEL AMO & DOWNEY SW",,  33.847069,-118.151512,
1559, "1559","DEL AMO & BELLFLOWER SE",,  33.847000,-118.124619,
1560, "1560","DEL AMO & EASTBROOK SE",,  33.846951,-118.120438,
1561, "1561","DEL AMO & WOODRUFF SE",,  33.846966,-118.115921,
1562, "1562","DEL AMO & SNOWDEN SE",,  33.846928,-118.112083,
1563, "1563","DEL AMO & PALO VERDE SE",,  33.846939,-118.107071,
1564, "1564","DEL AMO & STABLES S",,  33.845833,-118.096100,
1565, "1565","DEL AMO & ROSETON SE",,  33.845921,-118.086540,
1566, "1566","DEL AMO & PIONEER SE",,  33.845951,-118.081573,
1567, "1567","DEL AMO & VIOLETA SE",,  33.845966,-118.078590,
1568, "1568","DEL AMO & ARTESIA H.S. S",,  33.845989,-118.074585,
1569, "1569","DEL AMO & NORWALK SE",,  33.846004,-118.071877,
1570, "1570","DEL AMO & CLARETTA SE",,  33.846024,-118.067574,
1572, "1572","BLOOMFIELD & DEL AMO SW",,  33.845860,-118.063538,
1573, "1573","BLOOMFIELD & LEMMING SW",,  33.840816,-118.063507,
1574, "1574","CENTRALIA & BLOOMFIELD NW",,  33.838799,-118.064659,
1575, "1575","CENTRALIA & CLARETTA NW",,  33.838791,-118.067566,
1576, "1576","CENTRALIA & NORWALK NW",,  33.838840,-118.072533,
1577, "1577","CENTRALIA & ELAINE NW",,  33.838814,-118.076668,
1578, "1578","CENTRALIA & PIONEER NW",,  33.838818,-118.082344,
1579, "1579","CENTRALIA & GRIDLEY NW",,  33.838776,-118.091011,
1580, "1580","STUDEBAKER & LEMMING NE",,  33.841148,-118.093765,
1581, "1581","STUDEBAKER & HORNET NE",,  33.843277,-118.094872,
1582, "1582","DEL AMO & PALO VERDE NE",,  33.847103,-118.107285,
1583, "1583","DEL AMO & MC NAB NW",,  33.847103,-118.111824,
1584, "1584","DEL AMO & WOODRUFF NW",,  33.847137,-118.116737,
1585, "1585","DEL AMO & DUNROBIN NW",,  33.847141,-118.121719,
1586, "1586","DEL AMO & LAKEWOOD NW",,  33.847229,-118.143120,
1587, "1587","DEL AMO & DOWNEY NW",,  33.847225,-118.151619,
1588, "1588","DEL AMO & OBISPO NW",,  33.847179,-118.155060,
1589, "1589","DEL AMO & PARAMOUNT NW",,  33.847164,-118.160385,
1590, "1590","DEL AMO & CLAIR DEL NW",,  33.847103,-118.165756,
1591, "1591","DEL AMO & CHERRY NW",,  33.847069,-118.168121,
1592, "1592","DEL AMO & ORANGE NW",,  33.847095,-118.177299,
1593, "1593","DEL AMO & ATLANTIC NW",,  33.845276,-118.185349,
1594, "1594","DEL AMO & LOCUST NW",,  33.846630,-118.189896,
1595, "1595","DEL AMO & DEL AMO GARDENS N",,  33.846848,-118.192513,
1596, "1596","DEL AMO & L.B. BLVD NW",,  33.846832,-118.194473,
1597, "1597","DEL AMO & DAISY NW",,  33.846752,-118.198959,
1598, "1598","SANTA FE & DEL AMO SW",,  33.846512,-118.211792,
1599, "1599","SANTA FE & EL PRESIDIO SW",,  33.841320,-118.213470,
1600, "1600","SANTA FE & DOMINGUEZ NW",,  33.839005,-118.214409,
1601, "1601","SANTA FE & VAN BUREN SW",,  33.836792,-118.215256,
1602, "1602","SANTA FE & MADISON NW",,  33.834873,-118.215950,
1604, "1604","MARKET & L.B. BLVD SE",,  33.854237,-118.196236,
1605, "1605","MARKET & CEDAR SE",,  33.854240,-118.193558,
1606, "1606","MARKET & PINE SE",,  33.854282,-118.191544,
1607, "1607","MARKET & ELM SE",,  33.854290,-118.188194,
1608, "1608","SOUTH & ATLANTIC SE",,  33.860031,-118.184631,
1609, "1609","SOUTH & MYRTLE SE",,  33.860039,-118.181732,
1610, "1610","SOUTH & LEMON SE",,  33.860050,-118.178856,
1611, "1611","SOUTH & ORANGE SE",,  33.860100,-118.176949,
1612, "1612","SOUTH & GUNDRY SE",,  33.860104,-118.175362,
1613, "1613","SOUTH & WALNUT SE",,  33.860054,-118.173241,
1614, "1614","SOUTH & ROSE SW",,  33.860085,-118.170700,
1615, "1615","SOUTH & CHERRY SE",,  33.860020,-118.168137,
1616, "1616","SOUTH & ACKERFIELD SW",,  33.860065,-118.163834,
1617, "1617","SOUTH & PARAMOUNT SE",,  33.860100,-118.159348,
1618, "1618","SOUTH & OBISPO SW",,  33.860134,-118.155426,
1619, "1619","SOUTH & DOWNEY SE",,  33.860138,-118.151016,
1620, "1620","SOUTH & HAYTER SE",,  33.860195,-118.145752,
1621, "1621","SOUTH & LAKEWOOD SE",,  33.860180,-118.141487,
1622, "1622","SOUTH & GRAYWOOD SE",,  33.860199,-118.137650,
1623, "1623","SOUTH & CLARK SE",,  33.860249,-118.133629,
1624, "1624","SOUTH & PEARCE SE",,  33.860237,-118.129829,
1625, "1625","SOUTH & BELLFLOWER SE",,  33.860233,-118.124626,
1626, "1626","SOUTH & OCANA SE",,  33.859013,-118.119667,
1627, "1627","SOUTH & WOODRUFF SE",,  33.858215,-118.116333,
1628, "1628","SOUTH & GONDAR SW",,  33.858234,-118.113213,
1629, "1629","SOUTH & PALO VERDE SE",,  33.858208,-118.107521,
1630, "1630","STUDEBAKER & SOUTH NE",,  33.858734,-118.099510,
1631, "1631","STUDEBAKER & AUTO SQUARE NE",,  33.862267,-118.099503,
1632, "1632","183RD & STUDEBAKER SE",,  33.865513,-118.099091,
1633, "1633","183RD & SERVICE RD SE",,  33.865517,-118.097321,
1634, "1634","183RD & SEARS SW",,  33.865585,-118.094513,
1637, "1637","SOUTH & STUDEBAKER NW",,  33.858433,-118.100616,
1638, "1638","SOUTH & PALO VERDE NE",,  33.858356,-118.108032,
1639, "1639","SOUTH & SNOWDEN NW",,  33.858353,-118.112190,
1640, "1640","SOUTH & WOODRUFF NE",,  33.858330,-118.116333,
1641, "1641","SOUTH & OCANA NW",,  33.859547,-118.120430,
1642, "1642","SOUTH & BELLFLOWER NW",,  33.860458,-118.125603,
1643, "1643","SOUTH & PEARCE NW",,  33.860359,-118.129829,
1644, "1644","SOUTH & CLARK NW",,  33.860348,-118.134506,
1645, "1645","SOUTH & GRAYWOOD NW",,  33.860317,-118.138016,
1646, "1646","SOUTH & LAKEWOOD NW",,  33.860371,-118.143021,
1647, "1647","SOUTH & HAYTER NW",,  33.860313,-118.146408,
1648, "1648","SOUTH & DOWNEY NW",,  33.860294,-118.151619,
1649, "1649","SOUTH & OBISPO NW",,  33.860283,-118.156059,
1650, "1650","SOUTH & PARAMOUNT NW",,  33.860260,-118.160347,
1651, "1651","SOUTH & ACKERFIELD NW",,  33.860256,-118.163483,
1652, "1652","SOUTH & CHERRY NW",,  33.860233,-118.168900,
1653, "1653","SOUTH & ROSE NW",,  33.860210,-118.170807,
1654, "1654","SOUTH & WALNUT NW",,  33.860195,-118.173782,
1655, "1655","SOUTH & GUNDRY NW",,  33.860172,-118.175598,
1656, "1656","SOUTH & ORANGE NE",,  33.860165,-118.177071,
1657, "1657","SOUTH & LEWIS NW",,  33.860172,-118.180382,
1658, "1658","SOUTH & MYRTLE NW",,  33.860153,-118.182236,
1659, "1659","MARKET & ELM NW",,  33.854385,-118.188614,
1660, "1660","MARKET & PINE NW",,  33.854370,-118.191986,
1661, "1661","MARKET & CEDAR NW",,  33.854366,-118.193855,
1662, "1662","PCH & L.B. BLVD. SE",,  33.789749,-118.188232,
1663, "1663","PCH & ATLANTIC SE",,  33.789780,-118.184212,
1665, "1665","PCH & M.L. KING SW",,  33.789776,-118.180496,
1667, "1667","PCH & ORANGE SE",,  33.789780,-118.175438,
1668, "1668","PCH & WALNUT SE",,  33.789772,-118.171738,
1670, "1670","PCH & CHERRY SE",,  33.789791,-118.167038,
1672, "1672","PCH & JUNIPERO SW",,  33.789787,-118.163422,
1674, "1674","PCH & TEMPLE SE",,  33.789783,-118.158592,
1676, "1676","PCH & OBISPO SE",,  33.789776,-118.154305,
1677, "1677","PCH & REDONDO SE",,  33.789768,-118.151535,
1679, "1679","PCH & GRAND SE",,  33.789745,-118.147842,
1680, "1680","PCH & TERMINO SW",,  33.789753,-118.146194,
1681, "1681","XIMENO & PCH NE",,  33.788021,-118.139206,
1682, "1682","PCH & TERMINO NW",,  33.789921,-118.146172,
1683, "1683","PCH & REDONDO NW",,  33.789921,-118.152122,
1684, "1684","PCH & OBISPO NW",,  33.789944,-118.154945,
1686, "1686","PCH & TEMPLE NW",,  33.789955,-118.159325,
1688, "1688","PCH & JUNIPERO NW",,  33.789959,-118.163597,
1690, "1690","PCH & CHERRY NE",,  33.789925,-118.167526,
1692, "1692","PCH & WALNUT NW",,  33.789963,-118.172218,
1693, "1693","PCH & LBCC NE",,  33.789959,-118.175453,
1695, "1695","PCH & M.L. KING NW",,  33.789959,-118.181053,
1697, "1697","PCH & ATLANTIC NW",,  33.789951,-118.185432,
1698, "1698","PCH & L.B. BLVD NE",,  33.789928,-118.188805,
1699, "1699","XIMENO & ATHERTON NE",,  33.790028,-118.138832,
1700, "1700","LOS COYOTES & XIMENO NE",,  33.792141,-118.139267,
1701, "1701","LOS COYOTES & PARK SE",,  33.793186,-118.137878,
1702, "1702","LOS COYOTES & CLARK SW",,  33.795864,-118.134361,
1703, "1703","STEARNS & FIDLER SE",,  33.796009,-118.131950,
1704, "1704","STEARNS & STANBRIDGE SE",,  33.795940,-118.129417,
1705, "1705","STEARNS & STEARNLEE SE",,  33.795986,-118.127556,
1706, "1706","STEARNS & BELLFLOWER SE",,  33.795940,-118.125031,
1707, "1707","STEARNS & SAN ANSELINE SE",,  33.795944,-118.121124,
1708, "1708","STEARNS & RADNOR SE",,  33.795952,-118.118507,
1709, "1709","STEARNS & FANWOOD SE",,  33.795914,-118.115700,
1710, "1710","STEARNS & SENASAC SE",,  33.795906,-118.114090,
1711, "1711","STEARNS & MC NAB SE",,  33.795898,-118.112106,
1712, "1712","PALO VERDE & STEARNS NE",,  33.795788,-118.107811,
1713, "1713","PALO VERDE & CANTEL NE",,  33.798512,-118.107910,
1714, "1714","PALO VERDE & LOS ARCOS NE",,  33.800503,-118.107925,
1715, "1715","PALO VERDE & WILLOW NE",,  33.803684,-118.107895,
1716, "1716","PALO VERDE & BARBANELL NE",,  33.805527,-118.107887,
1717, "1717","PALO VERDE & BELEN NE",,  33.809525,-118.107811,
1718, "1718","PALO VERDE & SPRING NE",,  33.810860,-118.107811,
1719, "1719","PALO VERDE & METZ NE",,  33.815411,-118.107811,
1720, "1720","PALO VERDE & WARDLOW NE",,  33.819134,-118.107803,
1721, "1721","PALO VERDE & LOS COYOTES NE",,  33.820869,-118.107788,
1722, "1722","PALO VERDE & KEYNOTE NE",,  33.823189,-118.107796,
1723, "1723","PALO VERDE & CONANT NE",,  33.825161,-118.107758,
1724, "1724","PALO VERDE & HARCO NE",,  33.827606,-118.107758,
1725, "1725","PALO VERDE & CARSON SE",,  33.831516,-118.107681,
1726, "1726","PALO VERDE & HARVEY NE",,  33.836250,-118.107727,
1727, "1727","PALO VERDE & CENTRALIA NE",,  33.839760,-118.107704,
1728, "1728","PALO VERDE & ARBOR NE",,  33.843410,-118.107674,
1729, "1729","PALO VERDE & DEL AMO NE",,  33.847397,-118.107681,
1730, "1730","PALO VERDE & DENMEAD NE",,  33.851627,-118.108223,
1731, "1731","PALO VERDE & CANDLEWOOD NE",,  33.853596,-118.108246,
1732, "1732","PALO VERDE & MICHELSON NE",,  33.856106,-118.108269,
1738, "1738","PALO VERDE & SOUTH SW",,  33.857845,-118.108414,
1739, "1739","PALO VERDE & MICHELSON SW",,  33.855648,-118.108414,
1740, "1740","PALO VERDE & CANDLEWOOD SW",,  33.852982,-118.108398,
1741, "1741","PALO VERDE & DENMEAD NW",,  33.851677,-118.108391,
1742, "1742","PALO VERDE & CARFAX SW",,  33.848953,-118.108360,
1743, "1743","PALO VERDE & DEL AMO SW",,  33.846748,-118.107796,
1744, "1744","PALO VERDE & ARBOR ROAD SW",,  33.842987,-118.107826,
1745, "1745","PALO VERDE & CENTRALIA SW",,  33.839336,-118.107834,
1746, "1746","PALO VERDE & HARVEY WAY SW",,  33.835728,-118.107872,
1747, "1747","PALO VERDE & CARSON SW",,  33.831875,-118.107887,
1748, "1748","PALO VERDE & HARCO SW",,  33.827263,-118.107887,
1749, "1749","PALO VERDE & CONANT NW",,  33.825340,-118.107887,
1750, "1750","PALO VERDE & KEYNOTE SW",,  33.822800,-118.107903,
1752, "1752","PALO VERDE & WARDLOW SW",,  33.818371,-118.107933,
1753, "1753","PALO VERDE & METZ SW",,  33.814934,-118.107986,
1754, "1754","PALO VERDE & SPRING NW",,  33.810944,-118.107986,
1755, "1755","PALO VERDE & BARBANELL SW",,  33.805031,-118.108002,
1756, "1756","PALO VERDE & WILLOW NW",,  33.803501,-118.107986,
1757, "1757","PALO VERDE & LOS ARCOS SW",,  33.800079,-118.108009,
1758, "1758","PALO VERDE & WOODRUFF SW",,  33.797855,-118.108055,
1759, "1759","STEARNS & PALO VERDE NW",,  33.795521,-118.108093,
1760, "1760","STEARNS & MC NAB NW",,  33.796043,-118.112976,
1761, "1761","STEARNS & FANWOOD NW",,  33.796055,-118.116943,
1763, "1763","STEARNS & SAN ANSELINE NW",,  33.796066,-118.121101,
1764, "1764","STEARNS & BELLFLOWER NW",,  33.796127,-118.125862,
1765, "1765","STEARNS & STEARNLEE NW",,  33.796120,-118.128006,
1766, "1766","STEARNS & STANBRIDGE NW",,  33.796104,-118.129829,
1767, "1767","STEARNS & FIDLER NW",,  33.796120,-118.132500,
1768, "1768","LOS COYOTES & STEARNS SW",,  33.795898,-118.134682,
1769, "1769","LOS COYOTES & LA CARA NW",,  33.792889,-118.138580,
1770, "1770","XIMENO & LOS COYOTES SE",,  33.791618,-118.139351,
1771, "1771","XIMENO & ATHERTON SW",,  33.789539,-118.139023,
1772, "1772","ATHERTON & XIMENO SE",,  33.789757,-118.138542,
1774, "1774","ATHERTON & CLARK SE",,  33.789673,-118.133690,
1776, "1776","ATHERTON & ASHBROOK SE",,  33.788776,-118.130653,
1777, "1777","ATHERTON & LITCHFIELD SE",,  33.788155,-118.128738,
1778, "1778","ATHERTON & STEARNLEE SE",,  33.788181,-118.126350,
1779, "1779","ATHERTON & BELLFLOWER SE",,  33.788528,-118.123901,
1780, "1780","ATHERTON & CHATWIN SE",,  33.788681,-118.122177,
1781, "1781","ATHERTON & LAVE SE",,  33.788670,-118.120003,
1783, "1783","ATHERTON & FANWOOD SE",,  33.788662,-118.115852,
1784, "1784","ATHERTON & MC NAB SE",,  33.788700,-118.112358,
1785, "1785","ATHERTON & CARFAX SE",,  33.788593,-118.109711,
1786, "1786","STUDEBAKER & ATHERTON NE",,  33.789051,-118.099152,
1787, "1787","STUDEBAKER & LOS SANTOS NE",,  33.792477,-118.099174,
1788, "1788","STUDEBAKER & STEARNS NE",,  33.796368,-118.099121,
1789, "1789","STUDEBAKER & EL SALVADOR E",,  33.798588,-118.099075,
1790, "1790","STUDEBAKER & LOS ARCOS NE",,  33.800213,-118.099075,
1791, "1791","STUDEBAKER & WILLOW NE",,  33.803562,-118.099075,
1792, "1792","STUDEBAKER & BARRIOS NE",,  33.807140,-118.099045,
1793, "1793","STUDEBAKER & SPRING NE",,  33.810871,-118.099075,
1794, "1794","STUDEBAKER & MEZZANINE NE",,  33.814880,-118.099045,
1795, "1795","STUDEBAKER & WARDLOW SE",,  33.818573,-118.099060,
1796, "1796","STUDEBAKER & KEYNOTE NE",,  33.823124,-118.099030,
1797, "1797","STUDEBAKER & HARCO NE",,  33.827858,-118.099014,
1798, "1798","LOS COYOTES & PARKCREST NE",,  33.830544,-118.099365,
1799, "1799","CARSON & LB TOWNE CENTER SE",,  33.831242,-118.087410,
1800, "1800","CARSON & PIONEER SE",,  33.831371,-118.081688,
1801, "1801","CARSON & VIOLETA SE",,  33.831364,-118.078613,
1802, "1802","CARSON & JUAN SE",,  33.831367,-118.074196,
1803, "1803","WARDLOW & CLAREMORE NW",,  33.817730,-118.078415,
1804, "1804","Civic Center and Ibex NE",,  33.829617,-118.072639,
1805, "1805","WARDLOW & VOLK NW",,  33.818928,-118.094818,
1806, "1806","Civic Center and Joliet NE",,  33.829613,-118.074608,
1807, "1807","NORWALK & CIVIC CENTER NW",,  33.830868,-118.072105,
1808, "1808","NORWALK & 221ST SW",,  33.827442,-118.071983,
1809, "1809","CARSON & JUAN SW",,  33.831364,-118.075706,
1810, "1810","NORWALK & 226TH SW",,  33.823402,-118.071945,
1811, "1811","NORWALK & RING SW",,  33.821518,-118.071907,
1812, "1812","NORWALK & WARDLOW NW",,  33.818192,-118.071930,
1813, "1813","STUDEBAKER & LOS SANTOS SW",,  33.791965,-118.099380,
1814, "1814","ATHERTON & STUDEBAKER NW",,  33.788761,-118.099518,
1815, "1815","ATHERTON & VUELTA GRANDE NW",,  33.788815,-118.103127,
1816, "1816","ATHERTON & PALO VERDE NE",,  33.788826,-118.107574,
1818, "1818","ATHERTON & MC NAB NW",,  33.788807,-118.113388,
1820, "1820","ATHERTON & FANWOOD NW",,  33.788826,-118.116585,
1822, "1822","ATHERTON & CHATWIN NE",,  33.788837,-118.122223,
1823, "1823","ATHERTON & BELLFLOWER NW",,  33.788559,-118.125053,
1824, "1824","ATHERTON & STEARNLEE NW",,  33.788300,-118.126953,
1825, "1825","ATHERTON & LITCHFIELD NW",,  33.788403,-118.128998,
1826, "1826","ATHERTON & ASHBROOK NW",,  33.789185,-118.130951,
1828, "1828","ATHERTON & CLARK NE",,  33.789848,-118.133759,
1829, "1829","ATHERTON & PARK NW",,  33.789948,-118.137077,
1830, "1830","Residence Inn (NB Direction)",,  33.758564,-118.201950,
1831, "1831","Clark & Atherton SW",,  33.789574,-118.134102,
1832, "1832","Clark & Clark Terrace",,  33.787285,-118.134140,
1838, "1838","QUEENSWAY & HARBOR PLAZA DR NE",,  33.753929,-118.195328,
1840, "1840","Maya Hotel (NB Direction)",,  33.755600,-118.197830,
1841, "1841","SHORELINE & VILLAGE W",,  33.760521,-118.189430,
1842, "1842","SPRING & STUDEBAKER NW",,  33.810558,-118.099335,
1843, "1843","SPRING & NIPOMO NW",,  33.810577,-118.102249,
1844, "1844","SPRING & PALO VERDE NW",,  33.810616,-118.108185,
1845, "1845","ALONDRA &  RON YARY NW",,  33.889465,-118.116005,
1846, "1846","SPRING & WOODRUFF NW",,  33.810654,-118.115509,
1847, "1847","SPRING & LOS COYOTES NW",,  33.810631,-118.117043,
1848, "1848","SPRING & SAN ANSELINE NW",,  33.810619,-118.121635,
1849, "1849","SPRING & BELLFLOWER NW",,  33.810650,-118.125465,
1850, "1850","SPRING & CHARLEMAGNE NW",,  33.810658,-118.130867,
1851, "1851","SPRING & CLARK NW",,  33.810684,-118.134102,
1852, "1852","SPRING & AIRPORT PL NE",,  33.811459,-118.136551,
1853, "1853","WILLOW & PALM NW",,  33.804554,-118.155449,
1854, "1854","WILLOW & TEMPLE NW",,  33.804554,-118.159645,
1855, "1855","WILLOW & JUNIPERO NW",,  33.804546,-118.163658,
1856, "1856","WILLOW & CHERRY NW",,  33.804523,-118.168053,
1857, "1857","WILLOW & WALNUT NW",,  33.804459,-118.172424,
1858, "1858","WILLOW & ORANGE NW",,  33.804390,-118.176941,
1859, "1859","WILLOW & CALIFORNIA NW",,  33.804443,-118.181404,
1860, "1860","WILLOW & ATLANTIC SE",,  33.804287,-118.184738,
1861, "1861","WILLOW & LEWIS SW",,  33.804218,-118.179962,
1862, "1862","WILLOW & ORANGE SW",,  33.804226,-118.176605,
1863, "1863","WILLOW & WALNUT SE",,  33.804253,-118.170525,
1864, "1864","WILLOW & CHERRY SE",,  33.804302,-118.167290,
1865, "1865","WILLOW & JUNIPERO SE",,  33.804314,-118.162941,
1866, "1866","WILLOW & TEMPLE SE",,  33.804310,-118.158653,
1867, "1867","WILLOW & PALM SE",,  33.804321,-118.154724,
1868, "1868","WILLOW & REDONDO SE",,  33.804310,-118.150734,
1869, "1869","WILLOW & GRAND SE",,  33.803921,-118.147842,
1870, "1870","LAKEWOOD & WILLOW NE",,  33.803799,-118.142525,
1871, "1871","SPRING & LAKEWOOD SE",,  33.812496,-118.138870,
1872, "1872","SPRING & AIRPORT PL SE",,  33.811295,-118.136742,
1873, "1873","SPRING & CLARK SE",,  33.810463,-118.133865,
1875, "1875","SPRING & BELLFLOWER SE",,  33.810417,-118.125053,
1877, "1877","SPRING & LOS COYOTES SE",,  33.810436,-118.116959,
1878, "1878","SPRING & WOODRUFF SE",,  33.810410,-118.113960,
1879, "1879","SPRING & SNOWDEN SE",,  33.810390,-118.111267,
1880, "1880","SPRING & PALO VERDE SE",,  33.810387,-118.107544,
1881, "1881","SPRING & NIPOMO SE",,  33.810352,-118.101585,
1884, "1884","WARDLOW & STEVELY SE",,  33.818741,-118.092400,
1885, "1885","WARDLOW & CLAREMORE AVE SE",,  33.817577,-118.077721,
1886, "1886","NORWALK & WARDLOW NE",,  33.817944,-118.071716,
1887, "1887","NORWALK & TORIN NE",,  33.821087,-118.071701,
1888, "1888","NORWALK & 226TH SE",,  33.823784,-118.071716,
1890, "1890","NORWALK & 221ST SE",,  33.827366,-118.071823,
1892, "1892","CARSON & NORWALK NW",,  33.831554,-118.072472,
1893, "1893","CARSON & JUAN NW",,  33.831566,-118.076271,
1894, "1894","CARSON & VIOLETA NE",,  33.831558,-118.079681,
1896, "1896","NORWALK & CARSON NE",,  33.831818,-118.071960,
1897, "1897","NORWALK & 214TH NE",,  33.835365,-118.071968,
1898, "1898","NORWALK & CENTRALIA NE",,  33.839096,-118.072006,
1899, "1899","NORWALK & 207TH NE",,  33.842625,-118.072037,
1900, "1900","NORWALK & DEL AMO NE",,  33.846596,-118.072052,
1901, "1901","NORWALK & YEARLING NE",,  33.849693,-118.072113,
1902, "1902","NORWALK & FLORA VISTA NE",,  33.854099,-118.072189,
1903, "1903","SOUTH & NORWALK NW",,  33.858620,-118.072815,
1905, "1905","SOUTH @ ELAINE NW",,  33.858578,-118.076958,
1906, "1906","SOUTH & PIONEER NE",,  33.858574,-118.082558,
1907, "1907","SOUTH & JERSEY NE",,  33.858555,-118.085625,
1908, "1908","SOUTH & TARGET (CERRITOS) N",,  33.858547,-118.087852,
1909, "1909","GRIDLEY & SOUTH NE",,  33.858624,-118.090775,
1910, "1910","GRIDLEY & 184TH NE",,  33.864510,-118.090858,
1911, "1911","183RD & GRIDLEY NW",,  33.865803,-118.091713,
1912, "1912","183RD & LOS CERRITOS NW",,  33.865757,-118.095161,
1916, "1916","GRIDLEY & 187TH SW",,  33.860744,-118.091072,
1917, "1917","SOUTH & GRIDLEY SE",,  33.858341,-118.090157,
1918, "1918","SOUTH & JERSEY S",,  33.858368,-118.085815,
1919, "1919","SOUTH & PIONEER SE",,  33.858391,-118.081734,
1920, "1920","SOUTH & ELAINE SW",,  33.858433,-118.076454,
1922, "1922","SOUTH & NORWALK SW",,  33.858452,-118.072693,
1923, "1923","NORWALK & FLORA VISTA NW",,  33.854507,-118.072357,
1924, "1924","NORWALK & YEARLING SW",,  33.849110,-118.072258,
1925, "1925","NORWALK & DEL AMO SW",,  33.845768,-118.072212,
1926, "1926","NORWALK & 207TH NW",,  33.842537,-118.072182,
1927, "1927","NORWALK & CENTRALIA SW",,  33.838455,-118.072166,
1928, "1928","NORWALK & 214TH NW",,  33.835384,-118.072144,
1934, "1934","STUDEBAKER & HARCO NW",,  33.828419,-118.099304,
1972, "1972","CARSON & WALMART TOWNE CENTER NE",,  33.831524,-118.089912,
1996, "1996","Los Cerritos Center Layover",,  33.865566,-118.096321,
1997, "1997","Studebaker at Atherton SW",,  33.788349,-118.099396,
1998, "1998","Santa Fe & Carson NW",,  33.831879,-118.217056,
2000, "2000","CARSON & SANTA FE SE",,  33.831676,-118.216568,
2001, "2001","2727 Del Amo Blvd N",,  33.846760,-118.214531,
2002, "2002","2660 Del Amo Blvd S",,  33.846550,-118.215530,
2003, "2003","Del Amo & Rancho Way NW",,  33.846767,-118.224098,
2004, "2004","Del Amo & Fordyce SW",,  33.846539,-118.223976,
2005, "2005","Del Amo & Wilmington NW",,  33.846905,-118.234657,
2006, "2006","Del Amo & Wilmington SW",,  33.846657,-118.234375,
2007, "2007","Del Amo & Alvo NW",,  33.846920,-118.238937,
2008, "2008","Del Amo & Alvo SE",,  33.846703,-118.238411,
2009, "2009","Del Amo & Tajauta NW",,  33.846916,-118.243988,
2010, "2010","Del Amo & Tajauta SE",,  33.846699,-118.243462,
2011, "2011","Del Amo & Central NW",,  33.846905,-118.248863,
2012, "2012","Del Amo & Central SE",,  33.846706,-118.248253,
2013, "2013","Del Amo & Tillman NW",,  33.846859,-118.253746,
2014, "2014","Del Amo & Tillman SE",,  33.846676,-118.253197,
2015, "2015","Del Amo & Leapwood NW",,  33.846893,-118.259003,
2016, "2016","Del Amo & Leapwood SE",,  33.846664,-118.258484,
2017, "2017","Avalon & Del Amo NE",,  33.847832,-118.264626,
2018, "2018","Del Amo & Avalon SE",,  33.847435,-118.264397,
2019, "2019","Avalon & Elsmere NE",,  33.853565,-118.265343,
2020, "2020","Avalon & Elsmere NW",,  33.853428,-118.265701,
2021, "2021","Avalon & 189th NE",,  33.859261,-118.265945,
2022, "2022","Avalon & 189th SW",,  33.858654,-118.266289,
2023, "2023","Avalon & 186th NE",,  33.862217,-118.265938,
2024, "2024","Avalon & 184th SW",,  33.862827,-118.266319,
2025, "2025","Victoria & Avalon SE",,  33.866879,-118.265709,
2026, "2026","Avalon & Victoria SW",,  33.866699,-118.266350,
2027, "2027","Victoria & Rainsbury SW",,  33.867016,-118.261261,
2028, "2028","Victoria & Rainsbury NW",,  33.867218,-118.261406,
2029, "2029","Cal State Dominguez Hills",,  33.866890,-118.254837,
2030, "2030","Victoria & Tamcliff NW",,  33.867332,-118.257759,
2100, "2100","HARBOR GATEWAY TRANSIT CENTER",,  33.869759,-118.287315,
2101, "2101","STUB HUB CENTER OFFLOAD",,  33.862774,-118.262230,
2102, "2102","STUB HUB CENTER BOARD HGTC",,  33.862225,-118.262405,
2104, "2104","STUB HUB CENTER BOARD DLST",,  33.862938,-118.262695,
2147, "2147","PCH & SANTA FE SE",,  33.789787,-118.215172,
2210, "2210","AIRPORT & TERMINAL E",,  33.817566,-118.144371,
2231, "2231","LEW DAVIS & FACULTY SE",,  33.829906,-118.136871,
2235, "2235","LAKEWOOD & WARLOW SW",,  33.818058,-118.139297,
2310, "2310","OCEAN & PINE SW",,  33.766968,-118.193069,
2384, "2384","Ocean & Loma NW",,  33.760963,-118.151077,
2385, "2385","Artesia & Long Beach NE",,  33.874386,-118.202538,
2386, "2386","VICTORIA & LONG BEACH BLVD SW",,  33.864758,-118.200386,
2387, "2387","VICTORIA & SUSANA SE",,  33.864788,-118.203621,
2388, "2388","COUNTY SOCIAL SERVICES CENTER SOUTH",,  33.864811,-118.208893,
2389, "2389","VICTORIA & SANTA FE SE",,  33.864819,-118.211014,
2390, "2390","Santa Fe & Harcourt NW",,  33.867363,-118.212784,
2391, "2391","Santa Fe &  Social Service Center W",,  33.871693,-118.213966,
2392, "2392","Santa Fe & Artesia SW",,  33.873608,-118.214500,
2393, "2393","Artesia & Santa Fe NW",,  33.874336,-118.214951,
2394, "2394","Santa Fe &  Social Service Center E",,  33.871853,-118.213860,
2395, "2395","Santa Fe & Harcourt SE",,  33.866684,-118.212616,
2396, "2396","VICTORIA & SANTA FE NE",,  33.865021,-118.210983,
2397, "2397","COUNTY SOCIAL SERVICES CENTER NORTH",,  33.865009,-118.209007,
2398, "2398","VICTORIA & SUSANA NW",,  33.864971,-118.205170,
2399, "2399","VICTORIA & LONG BEACH BLVD NW",,  33.864971,-118.201012,
2401, "2401","ARTESIA & ACACIA SE",,  33.874451,-118.224251,
2402, "2402","ARTESIA & SANTA FE SE",,  33.874123,-118.213943,
2403, "2403","L.B. BLVD. & CAMBRIDGE NE",,  33.865875,-118.200127,
2404, "2404","L.B. BLVD. & HARCOURT NE",,  33.867561,-118.200638,
2405, "2405","L.B. BLVD. & SCOTT NE",,  33.869148,-118.201126,
2406, "2406","L.B. BLVD. & FORHAN NE",,  33.871544,-118.201836,
2407, "2407","ARTESIA & L.B. BLVD. NW",,  33.874397,-118.203201,
2408, "2408","ARTESIA & HARBOR NW",,  33.874378,-118.207512,
2409, "2409","ARTESIA & SANTA FE NE",,  33.874325,-118.214447,
2410, "2410","ACACIA & ARTESIA NE",,  33.874802,-118.224770,
2412, "2412","QUEENSWAY DR. & STATE UNIV S",,  33.763729,-118.201302,
2413, "2413","GOLDEN & SEASIDE NE",,  33.766212,-118.201683,
2414, "2414","OCEAN & GOLDEN SE",,  33.767223,-118.201263,
2415, "2415","PACIFIC & OCEAN NE",,  33.767612,-118.193649,
2419, "2419","OCEAN & LB BLVD S",,  33.766792,-118.189781,
2423, "2423","OCEAN & LB BLVD NW",,  33.767025,-118.189941,
2424, "2424","OCEAN & PINE NE",,  33.767132,-118.192276,
2427, "2427","GOLDEN & OCEAN SW",,  33.767010,-118.202003,
2429, "2429","3RD & PROMENADE NW",,  33.770573,-118.191521,
2434, "2434","PINE & THE PASEO SW",,  33.765556,-118.192551,
2435, "2435","PINE & CONVENTION CTR SE",,  33.764248,-118.192284,
2436, "2436","PINE & SEASIDE NE",,  33.765945,-118.192314,
2441, "2441","3RD & PINE NE",,  33.770569,-118.192276,
2444, "2444","6TH & PINE SE",,  33.774109,-118.192169,
2449, "2449","WARDLOW & PACIFIC SW",,  33.818905,-118.193985,
2450, "2450","WARDLOW & L.B. BLVD SE",,  33.818878,-118.188934,
2451, "2451","WARDLOW & ATLANTIC SE",,  33.818890,-118.184731,
2452, "2452","WARDLOW & CALIFORNIA SW",,  33.818886,-118.180473,
2453, "2453","WARDLOW & LEMON SE",,  33.818871,-118.178307,
2454, "2454","WARDLOW & ORANGE SE",,  33.818874,-118.176720,
2455, "2455","WARDLOW & GUNDRY SW",,  33.818901,-118.174370,
2456, "2456","WARDLOW & WALNUT SE",,  33.818890,-118.171707,
2457, "2457","WARDLOW & ROSE SE",,  33.818855,-118.169960,
2458, "2458","SPRING & CHERRY SE",,  33.811596,-118.166946,
2459, "2459","SPRING & JUNIPERO SW",,  33.811588,-118.163528,
2460, "2460","SPRING & TEMPLE SE",,  33.811440,-118.158653,
2461, "2461","SPRING & REDONDO SW",,  33.810513,-118.151527,
2463, "2463","REDONDO & HILL NW",,  33.796932,-118.151482,
2464, "2464","REDONDO & WILLOW SW",,  33.804180,-118.151398,
2465, "2465","REDONDO & BURNETT SW",,  33.801281,-118.151451,
2469, "2469","REDONDO & PCH NW",,  33.790150,-118.151947,
2470, "2470","REDONDO & 15TH ST SW",,  33.785591,-118.152504,
2471, "2471","REDONDO & ANAHEIM ST NW",,  33.782795,-118.152481,
2472, "2472","REDONDO & 11TH ST NW",,  33.781269,-118.152519,
2473, "2473","REDONDO & 10TH ST NW",,  33.779266,-118.152496,
2474, "2474","REDONDO & 8TH ST SW",,  33.777061,-118.152489,
2475, "2475","REDONDO & 7TH ST SW",,  33.774906,-118.152496,
2476, "2476","REDONDO & 6TH ST SW",,  33.773426,-118.152473,
2477, "2477","REDONDO & 4TH ST SW",,  33.771534,-118.152512,
2478, "2478","REDONDO & HILL NE",,  33.797344,-118.151329,
2479, "2479","REDONDO & 3RD ST NW",,  33.768349,-118.152496,
2480, "2480","REDONDO & VISTA SW",,  33.766129,-118.152519,
2481, "2481","REDONDO & BROADWAY NW",,  33.764736,-118.152519,
2482, "2482","REDONDO & BROADWAY NE",,  33.764671,-118.152390,
2483, "2483","REDONDO & VISTA NE",,  33.766491,-118.152374,
2484, "2484","REDONDO & 3RD ST NE",,  33.768276,-118.152374,
2485, "2485","REDONDO & COLORADO NE",,  33.770096,-118.152382,
2486, "2486","REDONDO & 4TH ST NE",,  33.771938,-118.152351,
2487, "2487","REDONDO & 6TH ST NE",,  33.773624,-118.152390,
2488, "2488","REDONDO & 7TH ST NE",,  33.775719,-118.152367,
2489, "2489","REDONDO & 8TH ST NE",,  33.777306,-118.152443,
2490, "2490","REDONDO & 10TH ST NE",,  33.779133,-118.152367,
2491, "2491","REDONDO & 11TH ST NE",,  33.781559,-118.152351,
2492, "2492","REDONDO & ANAHEIM NE",,  33.782959,-118.152344,
2493, "2493","REDONDO & 15TH ST NE",,  33.785938,-118.152336,
2494, "2494","REDONDO & P.C.H. NE",,  33.790184,-118.151741,
2496, "2496","REDONDO & HATHWAY SE",,  33.794716,-118.151474,
2498, "2498","REDONDO & BURNETT SE",,  33.801353,-118.151306,
2499, "2499","SPRING & REDONDO NW",,  33.810707,-118.151772,
2500, "2500","SPRING & TEMPLE NE",,  33.811687,-118.158630,
2501, "2501","SPRING & FREEWAY ACCESS NW",,  33.811752,-118.165230,
2502, "2502","WARDLOW & CHERRY NW",,  33.818977,-118.168396,
2504, "2504","WARDLOW & WALNUT NW",,  33.818977,-118.172272,
2505, "2505","WARDLOW & GUNDRY NW",,  33.818989,-118.174408,
2506, "2506","WARDLOW & ORANGE NW",,  33.818977,-118.176666,
2507, "2507","WARDLOW & LEMON NW",,  33.818970,-118.178795,
2508, "2508","WARDLOW & CALIFORNIA NE",,  33.818981,-118.180550,
2509, "2509","WARDLOW & ATLANTIC NW",,  33.818962,-118.185905,
2510, "2510","WARDLOW & L.B. BLVD NW",,  33.818935,-118.189072,
2511, "2511","WARDLOW & PACIFIC NE",,  33.819065,-118.193550,
2514, "2514","CATALINA EXPR & PARKING LOT N",,  33.752979,-118.193153,
2520, "2520","SOUTH & MED CENTER S",,  33.860130,-118.154579,
2522, "2522","SOUTH & ACROSS MED CTR N",,  33.860298,-118.154152,
2600, "2600","MCHELEN & WARDLOW NW",,  33.824627,-118.222366,
2700, "2700","ARTESIA & L.B. BLVD SE",,  33.874184,-118.202202,
2701, "2701","ARTESIA & BUTLER SE",,  33.874199,-118.196823,
2998, "2998","SHORELINE & PINE SE",,  33.762718,-118.192459,
3001, "3001","AQUARIUM OF THE PACIFIC NE",,  33.762886,-118.195869,
3003, "3003","ATLANTIC & BROADWAY NE",,  33.769451,-118.184967,
3007, "3007","GOLDEN & 4TH SE",,  33.771603,-118.201767,
3012, "3012","PARAMOUNT & CARSON (nearside) SE",,  33.831436,-118.159897,
3013, "3013","CANDLEWOOD & LAKEWOOD NW",,  33.853855,-118.143005,
3014, "3014","CANDLEWOOD & HAYTER NE",,  33.853848,-118.145935,
3016, "3016","LAKEWOOD & SOUTH SW",,  33.859447,-118.142662,
3017, "3017","LAKEWOOD & MICHELSON SW",,  33.857246,-118.142639,
3026, "3026","MARWICK & STEARNS SE",,  33.796139,-118.121994,
3027, "3027","MARWICK & LOS ARCOS NW",,  33.798191,-118.121994,
3028, "3028","WILLOW & SANTA FE SE",,  33.804287,-118.215111,
3030, "3030","CATALINA LANDING @ PARKING STRUCTURE NORTH S",,  33.764816,-118.199509,
3031, "3031","CARSON & PALO VERDE",,  33.832146,-118.107346,
3032, "3032","LIVINGSTON & TERMINO NW",,  33.760647,-118.146172,
3033, "3033","STUDEBAKER & RESERVOIR HILL PK NE",,  33.879303,-118.099922,
3035, "3035","BELLFLOWER & STEARNS (LAYOVER) SE",,  33.795883,-118.125206,
3039, "3039","PCH & MARINA SHORES CTR NW",,  33.754044,-118.107643,
3044, "3044","ARTESIA & ATLANTIC SE",,  33.874279,-118.185989,
3045, "3045","Artesia at Myrtle SW",,  33.874470,-118.182381,
3046, "3046","TENTH AT PINE AVE SE",,  33.778915,-118.192268,
3047, "3047","Artesia at Myrtle NE",,  33.874695,-118.181618,
3048, "3048","PCH & SANTA FE NW",,  33.789917,-118.215942,
3049, "3049","PCH & TECHNOLOGY PL NW",,  33.789932,-118.221497,
3050, "3050","TECHNOLOGY PL  & SAN GABRIEL S",,  33.791550,-118.222542,
3051, "3051","PARAMOUNT & CANDLEWOOD NE",,  33.854038,-118.159805,
3052, "3052","SOUTH & DOWNEY SW",,  33.860146,-118.151520,
3053, "3053","PCH & HAYES SW",,  33.789806,-118.218826,
3054, "3054","ANAHEIM & CHESTNUT SW",,  33.782539,-118.196472,
3055, "3055","Artesia at Orange NW",,  33.874699,-118.177582,
3057, "3057","PARAMOUNT &  55TH WAY E",,  33.856838,-118.159821,
3060, "3060","BELLFLOWER AT ALONDRA SE",,  33.889179,-118.125206,
3061, "3061","ALONDRA AT EUCALYPTUS SE",,  33.889248,-118.121910,
3062, "3062","ALONDRA AT WOODRUFF NE",,  33.889469,-118.117218,
3063, "3063","ALONDRA AT EUCALYPTUS NW",,  33.889435,-118.122131,
3064, "3064","BELLFLOWER AT HARVARD SW",,  33.888271,-118.125343,
3065, "3065","STUDEBAKER & WALKERTON SW",,  33.826290,-118.099213,
3067, "3067","ELM AND BROADWAY NW",,  33.769398,-118.187752,
3072, "3072","SHORELINE & CEDAR NW",,  33.764225,-118.195061,
3073, "3073","SHORELINE & QUEENSWAY SE",,  33.764580,-118.196419,
3075, "3075","ARTESIA BLVD AT LB BIBLE INSTITUTE N",,  33.874477,-118.192505,
3077, "3077","ELM & 3RD (midblock) N",,  33.770229,-118.187599,
3079, "3079","CARSON & PALO VERDE NW",,  33.832329,-118.108032,
4002, "4002","FIRST & SHELTER B N",,  33.768154,-118.190651,
4003, "4003","FIRST & SHELTER C N",,  33.768150,-118.191628,
4004, "4004","FIRST & SHELTER D N",,  33.768158,-118.192307,
4005, "4005","PACIFIC & BROADWAY NE",,  33.769756,-118.193665,
4006, "4006","PACIFIC & 3RD NE",,  33.770885,-118.193665,
4007, "4007","PACIFIC & 5TH NE",,  33.773335,-118.193649,
4008, "4008","FIRST & SHELTER F S",,  33.768002,-118.191261,
4009, "4009","FIRST & SHELTER E S",,  33.767986,-118.192238,
4010, "4010","LONG BEACH BLVD & 3RD SE",,  33.770420,-118.189247,
4011, "4011","FIRST & SHELTER G S",,  33.768013,-118.190575,
4012, "4012","FIRST & SHELTER H S",,  33.768024,-118.189621,
4013, "4013","LONG BEACH BLVD & 4TH SE",,  33.771606,-118.189240,
4014, "4014","LONG BEACH BLVD & 5TH NE",,  33.773319,-118.189240,
4015, "4015","LONG BEACH BLVD & 6TH NE",,  33.774605,-118.189278,
4016, "4016","LONG BEACH BLVD & 6TH SW",,  33.773605,-118.189568,
4017, "4017","LONG BEACH BLVD & 5TH ST W",,  33.772491,-118.189560,
4018, "4018","LONG BEACH BLVD & 3RD ST SW",,  33.770248,-118.189590,
4021, "4021","SANTA FE & 21ST NE",,  33.795650,-118.215340,
4022, "4022","CARSON & VIA ORA SW",,  33.831692,-118.212944,
4023, "4023","VIA ORA & 3901 W",,  33.830475,-118.212677,
4024, "4024","SANTA FE & WILLARD SW",,  33.794094,-118.215561,
4025, "4025","ANAHEIM & MAGNOLIA SE",,  33.782570,-118.197716,
4026, "4026","ANAHEIM & PINE SE",,  33.782558,-118.192116,
4029, "4029","CATALINA LANDING N",,  33.764011,-118.199829,
4031, "4031","LOS ALTOS & PCH SE",,  33.782879,-118.132324,
4033, "4033","LONG BEACH BLVD & 32ND ST NW",,  33.815628,-118.189430,
4036, "4036","PCH & 5TH SW",,  33.745914,-118.105034,
4037, "4037","PCH & MARKETPLACE E",,  33.756489,-118.109520,
4038, "4038","PCH & MARVISTA NE",,  33.746803,-118.105347,
4039, "4039","PCH & 1ST SE",,  33.749191,-118.105804,
4040, "4040","PCH & STUDEBAKER NE",,  33.754097,-118.107292,
4041, "4041","ALONDRA & HUNSAKER SW",,  33.888977,-118.182350,
4043, "4043","ATLANTIC & 27TH SW",,  33.805672,-118.185165,
4044, "4044","ORANGE & MOBILE HOME PARK SE",,  33.884178,-118.177391,
4045, "4045","ANAHEIM & LONG BEACH BLVD NW",,  33.782665,-118.189583,
4046, "4046","ANAHEIM & PINE NW",,  33.782715,-118.192055,
4047, "4047","ANAHEIM & DAISY NE",,  33.782661,-118.199265,
4048, "4048","SEVENTH & EUCLID SE",,  33.775272,-118.148911,
4049, "4049","VIA ORA & 3900 E",,  33.830379,-118.212517,
4050, "4050","CARSON & VIA ORA NW",,  33.831852,-118.213425,
4051, "4051","SEVENTH & EUCLID NE",,  33.775414,-118.148949,
4052, "4052","CARSON & EVONDA SE",,  33.831699,-118.219505,
4053, "4053","CLARK & MAYFAIR PARK SE",,  33.855915,-118.133705,
4054, "4054","PCH & CLARK NE",,  33.784306,-118.134552,
4055, "4055","PCH & PARK NE",,  33.785862,-118.136597,
4056, "4056","WOODRUFF & ALLINGTON SE",,  33.865162,-118.117065,
4057, "4057","CARSON & BELLFLOWER NW",,  33.832401,-118.125748,
4058, "4058","CARSON & CLARK SE",,  33.832264,-118.133385,
4059, "4059","LOS COYOTES & XIMENO SW",,  33.791420,-118.140526,
4060, "4060","KILROY AIRPORT WAY & DEVRY NW",,  33.808826,-118.146484,
4062, "4062","DEL AMO & CLARK NW",,  33.847179,-118.134315,
4063, "4063","DEL AMO & GRAYWOOD NW",,  33.847202,-118.138695,
4064, "4064","LAKEWOOD & SPRING SW",,  33.812447,-118.139397,
4065, "4065","KILROY WAY & DEVRY SW",,  33.808723,-118.146278,
4066, "4066","KILROY AIRPT WY @ REDONDO NE",,  33.807461,-118.149986,
4067, "4067","LOS COYOTES & OUTER CIRCLE NE",,  33.791054,-118.140656,
4068, "4068","FIRST & LONG BEACH BLVD NE",,  33.768158,-118.189209,
4069, "4069","CLARK & 29TH SE",,  33.809017,-118.133888,
4070, "4070","CLARK & 29TH SW",,  33.809044,-118.134140,
4071, "4071","OCEAN & PINE SE",,  33.766918,-118.192009,
4072, "4072","BIXBY VILLAGE & S. GREENWAY E",,  33.771759,-118.114410,
4073, "4073","CHANNEL & BIXBY VILLAGE DR NE",,  33.774189,-118.118835,
4074, "4074","LOYNES & BIXBY VILLAGE NW",,  33.768166,-118.114182,
4077, "4077","PCH & 2ND SW",,  33.757820,-118.111198,
4078, "4078","PCH & STUDEBAKER SW",,  33.753277,-118.106964,
4079, "4079","PCH & 1ST SW",,  33.748943,-118.106056,
4080, "4080","PALO VERDE & BELEN SW",,  33.808846,-118.107964,
4081, "4081","DEL AMO & LAKEWOOD SE",,  33.847042,-118.141983,
4082, "4082","DEL AMO & GRAYWOOD SE",,  33.847034,-118.137878,
4083, "4083","DEL AMO & SAN GABRIEL RIVER NW",,  33.846004,-118.099594,
4084, "4084","CARSON & EVONDA NE",,  33.831818,-118.219200,
4085, "4085","SOUTH & STUDEBAKER SW",,  33.858261,-118.099792,
4086, "4086","PCH & XIMENO SE",,  33.787464,-118.139282,
4087, "4087","PALO VERDE & GARETTI SCHOOL E",,  33.828606,-118.107742,
4088, "4088","PALO VERDE & EBERLE NE",,  33.849754,-118.108215,
4089, "4089","STUDEBAKER & LIBRARY E",,  33.808876,-118.099037,
4090, "4090","STUDEBAKER & WARDLOW SW",,  33.818558,-118.099274,
4091, "4091","STUDEBAKER & ROSEBAY SW",,  33.813744,-118.099266,
4092, "4092","STUDEBAKER & SPRING SW",,  33.810108,-118.099258,
4093, "4093","STUDEBAKER & BARRIOS SW",,  33.806610,-118.099304,
4094, "4094","STUDEBAKER & WILLOW SW",,  33.802822,-118.099342,
4095, "4095","STUDEBAKER & LOS ARCOS SW",,  33.799721,-118.099327,
4096, "4096","STUDEBAKER & LA MARIMBA SW",,  33.797512,-118.099365,
4097, "4097","STUDEBAKER & STEARNS SW",,  33.795307,-118.099380,
4098, "4098","PCH & XIMENO NE",,  33.787491,-118.138962,
4099, "4099","QUEEN MARY LONDON TOWN W",,  33.752281,-118.191589,
4100, "4100","STUDEBAKER & 183RD NE",,  33.865986,-118.099571,
4101, "4101","STUDEBAKER & ARTESIA NE",,  33.873264,-118.099617,
4102, "4102","STUDEBAKER & SPINNAKER SE",,  33.878117,-118.099709,
4103, "4103","STUDEBAKER & 166TH STREET NE",,  33.880577,-118.099716,
4104, "4104","STUDEBAKER & FALCON NE",,  33.884285,-118.099792,
4105, "4105","STUDEBAKER & ALONDRA NE",,  33.888233,-118.099823,
4106, "4106","STUDEBAKER & BARNWALL NE",,  33.891434,-118.099846,
4107, "4107","STUDEBAKER & EXCELSIOR NE",,  33.895088,-118.099876,
4108, "4108","STUDEBAKER & MAPLEDALE NE",,  33.898705,-118.099915,
4109, "4109","STUDEBAKER & ROSECRANS NE",,  33.902534,-118.099953,
4110, "4110","STUDEBAKER & LEFFINGWELL SE",,  33.906918,-118.099396,
4111, "4111","STUDEBAKER & FOSTER SE",,  33.909603,-118.099152,
4112, "4112","STUDEBAKER & ANGELL NE",,  33.912575,-118.099159,
4113, "4113","NORWALK GREEN LINE STATION",,  33.912647,-118.103912,
4114, "4114","STUDEBAKER & ANGELL SW",,  33.912560,-118.099388,
4115, "4115","STUDEBAKER & FOSTER NW",,  33.910072,-118.099380,
4116, "4116","STUDEBAKER & LEFFINGWELL NW",,  33.906757,-118.099686,
4117, "4117","STUDEBAKER & ROSECRANS SW",,  33.901806,-118.100159,
4118, "4118","STUDEBAKER & MAPLEDALE SW",,  33.898262,-118.100143,
4119, "4119","STUDEBAKER & EXCELSIOR NW",,  33.895050,-118.100105,
4120, "4120","STUDEBAKER & BARNWALL NW",,  33.891365,-118.100075,
4121, "4121","STUDEBAKER & ALONDRA SW",,  33.886883,-118.100044,
4122, "4122","STUDEBAKER & MELISSA SW",,  33.883678,-118.099976,
4123, "4123","STUDEBAKER & 166TH STREET NW",,  33.880508,-118.099968,
4124, "4124","STUDEBAKER & ARTESIA SW",,  33.872547,-118.099915,
4125, "4125","STUDEBAKER & KEYNOTE SW",,  33.822769,-118.099197,
4126, "4126","WARDLOW STATION BAY 3",,  33.820286,-118.196747,
4127, "4127","WARDLOW STATION BAY 1",,  33.819550,-118.196220,
4128, "4128","WARDLOW STATION BAY 2",,  33.819855,-118.196442,
4129, "4129","DEL AMO STATION BAY 1",,  33.848560,-118.210846,
4130, "4130","DEL AMO STATION BAY 2",,  33.848488,-118.210808,
4131, "4131","DEL AMO STATION BAY 3",,  33.848412,-118.210762,
4132, "4132","DEL AMO STATION BAY 4",,  33.848339,-118.210724,
4133, "4133","ARTESIA & BUTLER NW",,  33.874424,-118.197365,
4134, "4134","ARTESIA & ATLANTIC NW",,  33.874496,-118.186287,
4135, "4135","ARTESIA STATION NORTH BAY",,  33.875782,-118.222733,
4136, "4136","ARTESIA STATION SOUTH BAY",,  33.875629,-118.222649,
4137, "4137","GOLDEN SHORE & R.V. PARK SE",,  33.764156,-118.201828,
4139, "4139","GOLDEN SHORE & R.V. PARK W",,  33.764549,-118.202019,
4141, "4141","Artesia Station Layover Area",,  33.875275,-118.222992,
4142, "4142","PINE & CONVENTION CTR SW",,  33.764721,-118.192497,
4144, "4144","FOURTH & ALMOND NW",,  33.771763,-118.174942,
4145, "4145","ANAHEIM & PACIFIC NE",,  33.782669,-118.194305,
4146, "4146","WOODRUFF & ALONDRA SW",,  33.888702,-118.117508,
4147, "4147","ANAHEIM & PACIFIC SE",,  33.782547,-118.193542,
8512, "8512","SPRING & STUDEBAKER SE",,  33.810360,-118.098885,
8513, "8513","SPRING & EL DORADO PARK SE",,  33.810303,-118.087990,
8514, "8514","SPRING & CLAREMORE NW",,  33.810482,-118.078392,
8515, "8515","LOS ALAMITOS & CERRITOS NE",,  33.810616,-118.071724,
8516, "8516","LOS ALAMITOS & CERRITOS NW",,  33.810459,-118.072098,
8517, "8517","SPRING & CLAREMORE SE",,  33.810276,-118.077934,
8518, "8518","SPRING & EL DORADO PARK NW",,  33.810516,-118.088150,
8534, "8534","BELLFLOWER & VA GATE 3/PALM RD NE",,  33.778088,-118.122147,
