"stop_id","stop_code","stop_name","stop_desc","stop_lat","stop_lon","zone_id"
"4785","64785","SANTA TERESA STATION (1)","","37.235966296999997","-121.789490994","1"
"4735","64735","ALMADEN STATION (1)","","37.244565000000001","-121.870711","1"
"4733","64733","OHLONE-CHYNOWETH STATION (1)","","37.257423011","-121.860278761","1"
"4780","64780","CAPITOL STATION (1)","","37.273900980000001","-121.86296378599999","1"
"4778","64778","TAMIEN STATION (1)","","37.311256778999997","-121.884300454","1"
"4775","64775","CONVENTION CENTER STATION (1)","","37.329809220000001","-121.89053837500001","1"
"4748","64748","SANTA CLARA STATION (0)","","37.336005999999998","-121.890306","1"
"4770","64770","CIVIC CENTER STATION (1)","","37.351380186","-121.901956508","1"
"4753","64753","METRO/AIRPORT STATION (0)","","37.370363515000001","-121.915989884","1"
"4765","64765","BONAVENTURA STATION (1)","","37.387196977999999","-121.928714644","1"
"4762","64762","TASMAN STATION (1)","","37.408055890999997","-121.943997756","1"
"4797","64797","OLD IRONSIDES STATION (1)","","37.403299046000001","-121.978870637","1"
"4799","64799","LICK MILL STATION (1)","","37.407795215999997","-121.962924656","1"
"4763","64763","RIVER OAKS STATION (1)","","37.401188060000003","-121.938971915","1"
"4764","64764","ORCHARD STATION (1)","","37.394082160000004","-121.93383731999999","1"
"4766","64766","COMPONENT STATION (1)","","37.381936947","-121.924755492","1"
"4767","64767","KARINA COURT STATION (1)","","37.374609102999997","-121.919317361","1"
"4752","64752","GISH STATION (0)","","37.362544086","-121.910160014","1"
"4798","64798","GREAT AMERICA STATION (1)","","37.403554501999999","-121.97405776799999","1"
"4772","64772","ST JAMES STATION (1)","","37.338358407999998","-121.890805169","1"
"4771","64771","JAPANTOWN/AYER STATION (1)","","37.344963720999999","-121.897115907","1"
"4736","64736","SANTA TERESA STATION (0)","","37.236668131999998","-121.78914085300001","1"
"4737","64737","COTTLE STATION (0)","","37.242731595999999","-121.803159131","1"
"4738","64738","SNELL STATION (0)","","37.248054576999998","-121.831338555","1"
"4739","64739","BLOSSOM HILL STATION (0)","","37.253149716000003","-121.84181124600001","1"
"4729","64729","ALMADEN STATION (0)","","37.245229373999997","-121.870163869","1"
"4730","64730","OAKRIDGE STATION (0)","","37.253943659000001","-121.866822711","1"
"4774","64774","SAN ANTONIO STATION (1)","","37.333480948999998","-121.88718825799999","1"
"4776","64776","CHILDRENS DISCOVERY MUSEUM STA (1)","","37.327222612","-121.893113746","1"
"4777","64777","VIRGINIA STATION (1)","","37.319164319999999","-121.88994783699999","1"
"4784","64784","COTTLE STATION (1)","","37.242504791000002","-121.802252317","1"
"4783","64783","SNELL STATION (1)","","37.247640793999999","-121.83054662799999","1"
"4782","64782","BLOSSOM HILL STATION (1)","","37.252767042000002","-121.841024582","1"
"4734","64734","OAKRIDGE STATION (1)","","37.253220937000002","-121.867031875","1"
"4781","64781","BRANHAM STATION (1)","","37.266577732000002","-121.859212962","1"
"4779","64779","CURTNER STATION (1)","","37.293043673","-121.872342901","1"
"4746","64746","CONVENTION CENTER STATION (0)","","37.330167643000003","-121.88975432399999","1"
"4773","64773","SANTA CLARA STATION (1)","","37.335795857999997","-121.888910201","1"
"4751","64751","CIVIC CENTER STATION (0)","","37.352015872999999","-121.902434282","1"
"4768","64768","METROAIRPORT STATION (1)","","37.368663847999997","-121.914883469","1"
"4756","64756","BONAVENTURA STATION (0)","","37.388748863000004","-121.929741607","1"
"4759","64759","TASMAN STATION (0)","","37.408668517999999","-121.94446295100001","1"
"4810","64810","OLD IRONSIDES STATION (0)","","37.403308940999999","-121.97986201099999","1"
"4808","64808","LICK MILL STATION (0)","","37.407616296999997","-121.96367889","1"
"4758","64758","RIVER OAKS STATION (0)","","37.402846894","-121.940027398","1"
"4757","64757","ORCHARD STATION (0)","","37.39572991","-121.93486863","1"
"4755","64755","COMPONENT STATION (0)","","37.383483388999998","-121.925777086","1"
"4754","64754","KARINA COURT STATION (0)","","37.376277678000001","-121.92040537","1"
"4769","64769","GISH STATION (1)","","37.360938191999999","-121.9090988","1"
"4809","64809","GREAT AMERICA STATION (0)","","37.403468328999999","-121.974908425","1"
"4749","64749","ST JAMES STATION (0)","","37.338552999999997","-121.892314","1"
"4750","64750","JAPANTOWN/AYER STATION (0)","","37.345556684999998","-121.897559175","1"
"4747","64747","SAN ANTONIO STATION (0)","","37.332822","-121.888037","1"
"4731","64731","OHLONE-CHYNOWETH STATION (0)","","37.257992958999999","-121.85966629000001","1"
"4744","64744","VIRGINIA STATION (0)","","37.319828059999999","-121.89010437","1"
"4742","64742","CURTNER STATION (0)","","37.293752480000002","-121.87262179699999","1"
"4807","64807","CHAMPION STATION (0)","","37.409422968000001","-121.95261636399999","1"
"4800","64800","CHAMPION STATION (1)","","37.408898393999998","-121.951936347","1"
"4741","64741","CAPITOL STATION (0)","","37.275293044999998","-121.863268615","1"
"4743","64743","TAMIEN STATION (0)","","37.311927466","-121.88480874","1"
"4745","64745","CHILDRENS DISC. MUSEUM STA (0)","","37.327764631000001","-121.893665023","1"
"4740","64740","BRANHAM STATION (0)","","37.267295633000003","-121.859381404","1"
"4796","64796","REAMWOOD STATION (1)","","37.403509624999998","-121.98740741","1"
"4811","64811","REAMWOOD STATION (0)","","37.403572230999998","-121.989663361","1"
"4795","64795","VIENNA STATION (1)","","37.403354290999999","-121.998254323","1"
"4812","64812","VIENNA STATION (0)","","37.403396305000001","-122.00087443300001","1"
"4794","64794","FAIR OAKS STATION (1)","","37.402578104","-122.00863800899999","1"
"4813","64813","FAIR OAKS STATION (0)","","37.402776959999997","-122.00955065399999","1"
"4793","64793","CROSSMAN STATION (1)","","37.408840595000001","-122.01118032799999","1"
"4814","64814","CROSSMAN STATION (0)","","37.409466336999998","-122.011702814","1"
"4792","64792","BORREGAS STATION (1)","","37.411325830999999","-122.016701633","1"
"4815","64815","BORREGAS STATION (0)","","37.411984932000003","-122.019314868","1"
"4791","64791","LOCKHEED MARTIN STATION (1)","","37.410047992000003","-122.026891343","1"
"4816","64816","LOCKHEED MARTIN STATION (0)","","37.409403535000003","-122.02713232399999","1"
"4790","64790","BAYSHORE NASA STATION (1)","","37.404327256999998","-122.049166984","1"
"4817","64817","BAYSHORE NASA STATION (0)","","37.404702725","-122.049989466","1"
"4789","64789","MIDDLEFIELD STATION (1)","","37.396069728000001","-122.051959524","1"
"4818","64818","MIDDLEFIELD STATION (0)","","37.395428162000002","-122.052209914","1"
"4786","64786","MOUNTAIN VIEW STATION (1)","","37.395283241999998","-122.07759622899999","1"
"4821","64821","MOUNTAIN VIEW STATION (0)","","37.394951503000001","-122.076788642","1"
"4801","64801","BAYPOINTE STATION (0)","","37.41087684","-121.941523399","1"
"4806","64806","BAYPOINTE STATION (1)","","37.410531278000001","-121.942316918","1"
"4788","64788","WHISMAN STATION (1)","","37.392204665999998","-122.058220334","1"
"4819","64819","WHISMAN STATION (0)","","37.391772631000002","-122.058999988","1"
"4802","64802","CISCO STATION (0)","","37.412348244999997","-121.92831160999999","1"
"4803","64803","I-880 STATION (0)","","37.413571593999997","-121.917117909","1"
"4804","64804","I-880 STATION (1)","","37.413129347999998","-121.91770005799999","1"
"4805","64805","CISCO STATION (1)","","37.412658911999998","-121.929051105","1"
"5023","65023","MOFFETT PARK STATION (1)","","37.402367022","-122.033459859","1"
"5024","65024","MOFFETT PARK STATION (0)","","37.402439401999999","-122.03433104600001","1"
"5235","65235","GREAT MALL STATION (0)","","37.413925310000003","-121.90143430000001","1"
"5250","65250","GREAT MALL STATION (1)","","37.414389679999999","-121.90212329000001","1"
"5236","65236","MONTAGUE STATION (0)","","37.408549219999998","-121.89061812999999","1"
"5249","65249","MONTAGUE STATION (1)","","37.408945029999998","-121.89136533","1"
"5237","65237","CROPLEY STATION (0)","","37.402644049999999","-121.88106857","1"
"5248","65248","CROPLEY STATION (1)","","37.404005810000001","-121.88307687","1"
"5238","65238","HOSTETTER STATION (0)","","37.395648780000002","-121.87028961","1"
"5247","65247","HOSTETTER STATION (1)","","37.395115990000001","-121.86962911000001","1"
"5239","65239","BERRYESSA STATION (0)","","37.387385950000002","-121.86147712","1"
"5246","65246","BERRYESSA STATION (1)","","37.389085379999997","-121.86311282","1"
"5240","65240","PENITENCIA CREEK STATION (0)","","37.380958489999998","-121.85441732","1"
"5245","65245","PENITENCIA CREEK STATION (1)","","37.382024999999999","-121.8554","1"
"5241","65241","MCKEE STATION (0)","","37.371056760000002","-121.84403639","1"
"5244","65244","MCKEE STATION (1)","","37.37264794","-121.84547695000001","1"
"5242","65242","ALUM ROCK STATION (0)","","37.358134139999997","-121.83212036","1"
"5813","65813","ALUM ROCK STATION STORAGE TRACK","","37.358134999999997","-121.832121","1"
"5243","65243","ALUM ROCK STATION (1)","","37.358369000000003","-121.832239","1"
"5381","65381","DIRIDON STATION (1)","","37.328392999999998","-121.903407","1"
"5374","65374","DIRIDON STATION (0)","","37.32894718","-121.90351130000001","1"
"5382","65382","RACE STATION (1)","","37.317154960000003","-121.91075288","1"
"5375","65375","RACE STATION (0)","","37.317567349999997","-121.91031372","1"
"5383","65383","FRUITDALE STATION (1)","","37.310121680000002","-121.91848277","1"
"5376","65376","FRUITDALE STATION (0)","","37.310481760000002","-121.91801691000001","1"
"5384","65384","BASCOM STATION (1)","","37.299466649999999","-121.93030419","1"
"5377","65377","BASCOM STATION (0)","","37.299850560000003","-121.92983014000001","1"
"5385","65385","HAMILTON STATION (1)","","37.293691039999999","-121.93657641999999","1"
"5378","65378","HAMILTON STATION (0)","","37.294064050000003","-121.93616684","1"
"5386","65386","CAMPBELL STATION (1)","","37.285483069999998","-121.94339544","1"
"5379","65379","CAMPBELL STATION (0)","","37.285899929999999","-121.94302734999999","1"
"5387","65387","WINCHESTER STATION (1)","","37.279177959999998","-121.94830663","1"
"5380","65380","WINCHESTER STATION (0)","","37.27960951","-121.94790653","1"
"5389","65389","SAN FERNANDO STATION (1)","","37.330248490000002","-121.89904461","1"
"5388","65388","SAN FERNANDO STATION (0)","","37.330366660000003","-121.89811631000001","1"
"1564","61564","ARBORETUM & SAND HILL","","37.440556809","-122.173638697","1"
"1565","61565","SAND HILL & STANFORD SHOPPING CTR","","37.443449786999999","-122.17356866900001","1"
"5058","65058","QUARRY & PALO","","37.442075054999997","-122.169486165","1"
"327","60327","EL CAMINO & STANFORD SHOPING CTR","","37.444098138000001","-122.168376462","1"
"4836","64836","PALO ALTO CALTRAIN STATION","","37.444249679999999","-122.16679195","1"
"1563","61563","PALO ALTO CALTRAIN STATION","","37.44414707","-122.16663135","1"
"519","60519","PALO ALTO CALTRAIN STATION","","37.443771830000003","-122.16603388999999","1"
"328","60328","PALO ALTO CALTRAIN STATION","","37.443750049999998","-122.16576267000001","1"
"516","60516","EL CAMINO & SAM MCDONALD","","37.434692937000001","-122.156865849","1"
"331","60331","EL CAMINO & SAM MCDONALD","","37.434624999999997","-122.157257","1"
"515","60515","EL CAMINO & CHURCHILL","","37.432924331000002","-122.15489619","1"
"332","60332","EL CAMINO & CHURCHILL","","37.432226511000003","-122.154564464","1"
"517","60517","EL CAMINO & EMBARCADERO","","37.437741217000003","-122.160358221","1"
"330","60330","EL CAMINO & GALVEZ","","37.436861200000003","-122.159821088","1"
"518","60518","EL CAMINO & WELLS","","37.439958195000003","-122.16286492499999","1"
"329","60329","EL CAMINO & PALM","","37.439112543999997","-122.16239417","1"
"1560","61560","HAMILTON & WAVERLY","","37.446123628999999","-122.159419447","1"
"1561","61561","HAMILTON & RAMONA","","37.444715043999999","-122.160857624","1"
"1569","61569","WAVERLY & HAMILTON","","37.446121673","-122.15896296699999","1"
"1568","61568","HAMILTON & RAMONA","","37.444636469000002","-122.160724208","1"
"1562","61562","HAMILTON & HIGH","","37.443187537","-122.162320408","1"
"1559","61559","WAVERLY & HOMER","","37.444922142000003","-122.15685871700001","1"
"1570","61570","WAVERLY & HOMER","","37.444584783000003","-122.156496623","1"
"4435","64435","DEER CREEK & ARASTRADERO","","37.393844184000002","-122.148694693","1"
"4450","64450","DEER CREEK & ARASTRADERO","","37.394077277999997","-122.148663645","1"
"4449","64449","ARASTRADERO & HILLVIEW","","37.393527478000003","-122.14602014499999","1"
"4436","64436","ARASTRADERO & THENDARA","","37.393467741000002","-122.145900067","1"
"4451","64451","DEER CREEK & MID ARASTRADERO","","37.395275333999997","-122.14954264000001","1"
"4434","64434","DEER CREEK & DEPT OF INTERIOR","","37.395450619000002","-122.14999058399999","1"
"4385","64385","HILLVIEW & COYOTE HILL","","37.401309656999999","-122.14536660100001","1"
"4347","64347","HILLVIEW & WATKINS-JOHNSON","","37.408113053000001","-122.145473481","1"
"4429","64429","HILLVIEW & PORTER (MD)","","37.407105069000004","-122.14536044499999","1"
"4346","64346","HILLVIEW & MIRANDA (MD)","","37.406438620000003","-122.14534153","1"
"4345","64345","HILLVIEW & MIRANDA (FS)","","37.405058506000003","-122.145641987","1"
"4384","64384","MIRANDA & HILLVIEW","","37.404422134000001","-122.145354923","1"
"4344","64344","HILLVIEW & COYOTE HILL","","37.402230033000002","-122.145544767","1"
"4427","64427","HANOVER & HEWLETT-PACKARD","","37.411017768999997","-122.145647693","1"
"4349","64349","HANOVER & HILLVIEW (MD)","","37.410703656999999","-122.145754586","1"
"4348","64348","HANOVER & HILLVIEW (FS)","","37.409267341000003","-122.14692989700001","1"
"4428","64428","HILLVIEW & PORTER (FS)","","37.408662593999999","-122.146592566","1"
"4421","64421","CALIFORNIA & PRINCETON","","37.421199051000002","-122.14914644700001","1"
"4354","64354","CALIFORNIA & OBERLIN","","37.420834239999998","-122.149301138","1"
"4353","64353","CALIFORNIA & HANOVER","","37.419470998999998","-122.150440433","1"
"4422","64422","HANOVER & CALIFORNIA","","37.419069196000002","-122.15060246100001","1"
"4352","64352","HANOVER & PAGE MILL","","37.417529393999999","-122.14745811","1"
"4437","64437","PAGE MILL & HANOVER","","37.417523207999999","-122.146488898","1"
"4423","64423","HANOVER & PAGE MILL","","37.417498653000003","-122.147662528","1"
"4424","64424","HANOVER & PAGE MILL","","37.416778878000002","-122.14634362699999","1"
"513","60513","EL CAMINO & STANFORD","","37.428061081000003","-122.149322029","1"
"334","60334","EL CAMINO & OXFORD","","37.426744995999996","-122.14829921899999","1"
"512","60512","EL CAMINO & CALIFORNIA","","37.425354231","-122.146107273","1"
"4419","64419","CALIFORNIA & EL CAMINO","","37.424294211000003","-122.146580472","1"
"335","60335","EL CAMINO & CALIFORNIA","","37.42478741","-122.145650991","1"
"4420","64420","CALIFORNIA & WELLSLEY","","37.422621089000003","-122.147961963","1"
"4355","64355","CALIFORNIA & WELLSLEY","","37.422660800000003","-122.147777558","1"
"514","60514","EL CAMINO & PARK","","37.430257881000003","-122.15180861","1"
"333","60333","EL CAMINO & SERRA","","37.429590353000002","-122.151525132","1"
"1557","61557","MIDDLEFIELD & CHANNING","","37.447758565000001","-122.15199164400001","1"
"1556","61556","MIDDLEFIELD & ADDISON","","37.446947936000001","-122.15071600500001","1"
"1572","61572","MIDDLEFIELD & ADDISON","","37.446652610999998","-122.15044154500001","1"
"1555","61555","MIDDLEFIELD & KINGSLEY","","37.445383262","-122.14822476499999","1"
"1573","61573","MIDDLEFIELD & KINGSLEY","","37.445061391000003","-122.147913217","1"
"1554","61554","MIDDLEFIELD & MELVILLE","","37.444584917999997","-122.146967276","1"
"1574","61574","MIDDLEFIELD & MELVILLE","","37.444274333999999","-122.146670808","1"
"1558","61558","HOMER & WEBSTER","","37.446997123000003","-122.15448124","1"
"1571","61571","CHANNING & WEBSTER","","37.446584115","-122.152726655","1"
"4337","64337","MIRANDA & ARASTRADERO (MD)","","37.400511688000002","-122.137747183","1"
"4339","64339","MIRANDA & HOSPITAL DRIVEWAY","","37.400064862000001","-122.137135406","1"
"4343","64343","HILLVIEW & ARASTRADERO","","37.398937638","-122.144393482","1"
"4386","64386","HILLVIEW & COYOTE HILL","","37.398645999999999","-122.144451","1"
"4387","64387","HILLVIEW & ARASTRADERO","","37.395357730999997","-122.143507738","1"
"4342","64342","HILLVIEW & ARASTRADERO","","37.39502229","-122.14328113800001","1"
"4341","64341","ARASTRADERO & OLD ADOBE","","37.395598831999997","-122.14129314100001","1"
"4388","64388","ARASTRADERO & OLD ADOBE","","37.395839525","-122.140599755","1"
"4338","64338","PALO ALTO VETERANS HOSPITAL","","37.403887333","-122.14137718800001","1"
"4351","64351","HANOVER & CURVE (FS)","","37.415422452999998","-122.14333559000001","1"
"4425","64425","HANOVER & CURVE (NS)","","37.415464813","-122.143666091","1"
"4350","64350","HANOVER & CURVE (NS)","","37.413487109000002","-122.143457642","1"
"4426","64426","HANOVER & CURVE (MD)","","37.412674932999998","-122.14428698099999","1"
"4447","64447","PAGE MILL & RAMOS","","37.421051589999998","-122.143905394","1"
"4439","64439","PAGE MILL & RAMOS","","37.420829273000003","-122.14374841199999","1"
"510","60510","EL CAMINO & PORTAGE","","37.421166327000002","-122.13812184299999","1"
"337","60337","EL CAMINO & HANSEN","","37.420570323","-122.137603243","1"
"4440","64440","HANSEN & EL CAMINO","","37.419910391999998","-122.138916399","1"
"4438","64438","PAGE MILL & HANSEN","","37.419165051","-122.145132346","1"
"4442","64442","HANSEN & PAGE MILL","","37.418700340999997","-122.14516253399999","1"
"4441","64441","HANSEN & CURVE","","37.417509393000003","-122.14289843500001","1"
"4444","64444","HANSEN & PAGE MILL (MD)","","37.417395628000001","-122.14292688800001","1"
"4445","64445","HANSEN & CURVE","","37.419704156999998","-122.138942071","1"
"4443","64443","HANSEN & PAGE MILL (FS)","","37.418558691000001","-122.14510612300001","1"
"4358","64358","CALIFORNIA & BIRCH","","37.427534068999996","-122.14371416199999","1"
"4417","64417","CALIFORNIA & BIRCH","","37.427274851","-122.14415116799999","1"
"4418","64418","CALIFORNIA & ASH","","37.426677325","-122.144598587","1"
"4357","64357","CALIFORNIA & MIMOSA","","37.426115410000001","-122.144919129","1"
"4356","64356","CALIFORNIA & EL CAMINO","","37.425399028000001","-122.14545661","1"
"511","60511","EL CAMINO & PAGE MILL","","37.423430498000002","-122.142366689","1"
"4458","64458","PAGE MILL & EL CAMINO","","37.423285550000003","-122.14165630700001","1"
"4446","64446","PAGE MILL & EL CAMINO","","37.422538709999998","-122.142661606","1"
"336","60336","EL CAMINO & PAGE MILL","","37.422582505999998","-122.14147581500001","1"
"4958","64958","CALIFORNIA AVE CALTRAIN STATION","","37.429064199000003","-122.14217645700001","1"
"1553","61553","MIDDLEFIELD & EMBARCADERO","","37.442488820999998","-122.143651551","1"
"1575","61575","MIDDLEFIELD & EMBARCADERO","","37.441820825000001","-122.142781129","1"
"1552","61552","MIDDLEFIELD & SEALE","","37.439926034000003","-122.13953913100001","1"
"1576","61576","MIDDLEFIELD & SEALE","","37.439601557000003","-122.139264567","1"
"5634","65634","FOOTHILL COLLEGE LOOP @ TRANSIT CTR","","37.359631999999998","-122.126915","1"
"538","60538","FOOTHILL COLLEGE LOOP @ PLANETARIUM","","37.361408525999998","-122.130937923","1"
"4336","64336","MIRANDA & ARASTRADERO (FS)","","37.399552884999999","-122.13452696900001","1"
"4340","64340","MIRANDA & ARASTRADERO","","37.399412820000002","-122.134824567","1"
"4335","64335","ARASTRADERO & GUNN HIGH SCHOOL","","37.399732804000003","-122.13257678799999","1"
"4389","64389","ARASTRADERO & GUNN HIGH SCHOOL","","37.399813211999998","-122.131951607","1"
"4390","64390","ARASTRADERO & TERMAN","","37.403555449999999","-122.12796811299999","1"
"4334","64334","ARASTRADERO & DONALD","","37.403959503999999","-122.127915626","1"
"509","60509","EL CAMINO & MARGARITA","","37.418967680000002","-122.13389063","1"
"338","60338","EL CAMINO & MATADERO","","37.418909300000003","-122.13436082","1"
"508","60508","EL CAMINO & CURTNER","","37.417865917999997","-122.131751202","1"
"339","60339","EL CAMINO & BARRON","","37.417755509000003","-122.13216876200001","1"
"507","60507","EL CAMINO & EL CAMINO WAY","","37.416104116","-122.128442588","1"
"340","60340","EL CAMINO & LOS ROBLES","","37.416091233000003","-122.128993984","1"
"1550","61550","MIDDLEFIELD & MORENO","","37.434127519","-122.130371555","1"
"1578","61578","MIDDLEFIELD & WEBSTER","","37.434010563999998","-122.130409582","1"
"1549","61549","MIDDLEFIELD & COLORADO","","37.433201029000003","-122.128904719","1"
"1579","61579","MIDDLEFIELD & COLORADO","","37.432773937","-122.128451172","1"
"1551","61551","MIDDLEFIELD & CALIFORNIA","","37.437456161999997","-122.135666176","1"
"1577","61577","MIDDLEFIELD & CALIFORNIA","","37.437372127000003","-122.135722472","1"
"540","60540","EL MONTE & STONEBROOK","","37.359558006999997","-122.122177071","1"
"5059","65059","FOOTHILL COLLEGE","","37.362393791999999","-122.126702634","1"
"503","60503","EL CAMINO & TAMARACK","","37.407506380000001","-122.12077379999999","1"
"344","60344","EL CAMINO & TAMARACK","","37.40636748","-122.12024701999999","1"
"4391","64391","ARASTRADERO & SUZANNE","","37.407223723000001","-122.125467212","1"
"4333","64333","ARASTRADERO & COULOMBE","","37.406521886","-122.126173318","1"
"505","60505","EL CAMINO & EL CAMINO WAY","","37.412480659000003","-122.12479127500001","1"
"342","60342","EL CAMINO & MAYBELL","","37.412050520999998","-122.124843572","1"
"504","60504","EL CAMINO & CHARLESTON","","37.411161026000002","-122.123725157","1"
"343","60343","EL CAMINO & ARASTRADERO","","37.409657551000002","-122.122913708","1"
"341","60341","EL CAMINO & VISTA","","37.414120398999998","-122.1265306","1"
"506","60506","EL CAMINO & VISTA","","37.415050848999996","-122.12702849199999","1"
"4392","64392","ARASTRADERO & EL CAMINO","","37.411070350999999","-122.12246892","1"
"4332","64332","ARASTRADERO & EL CAMINO","","37.409664378000002","-122.12397957500001","1"
"4402","64402","CHARLESTON & RUTHELMA","","37.413169211000003","-122.12013521599999","1"
"4401","64401","MEADOW & WAVERLY","","37.420918069999999","-122.120435942","1"
"4400","64400","MEADOW & RAMONA","","37.418826629999998","-122.122159854","1"
"4430","64430","ALMA & MEADOW","","37.417747380000002","-122.12294430199999","1"
"4459","64459","ALMA & MEADOW","","37.417448401999998","-122.122819572","1"
"4371","64371","MEADOW & WAVERLY","","37.421132","-122.120457","1"
"4372","64372","MEADOW & WILKIE","","37.415898048000003","-122.124793975","1"
"4399","64399","MEADOW & WILKIE","","37.415759315999999","-122.124713927","1"
"5617","65617","MEADOW & RAMONA","","37.418829000000002","-122.122317","1"
"1581","61581","MIDDLEFIELD & LOMA VERDE","","37.429294998000003","-122.123063591","1"
"5618","65618","LOMA VERDE & WAVERLEY","","37.426324000000001","-122.126971","1"
"5619","65619","WAVERLEY & EL VERANO","","37.424053000000001","-122.124489","1"
"5620","65620","WAVERLEY & EL VERANO","","37.424145000000003","-122.124449","1"
"5621","65621","LOMA VERDE & WAVERLEY","","37.426307999999999","-122.126902","1"
"1548","61548","MIDDLEFIELD & MATADERO","","37.431298853999998","-122.12585572","1"
"1580","61580","MIDDLEFIELD & MATADERO","","37.431304341999997","-122.126156155","1"
"1547","61547","MIDDLEFIELD & LAYNE","","37.429817851000003","-122.123495783","1"
"4243","64243","LOUIS & AMARILLO","","37.438690346999998","-122.12516504200001","1"
"4300","64300","LOUIS & FIELDING","","37.438419690000003","-122.124950715","1"
"4301","64301","LOUIS & COLORADO","","37.436871820999997","-122.12249659","1"
"4242","64242","LOUIS & COLORADO","","37.436883580999996","-122.12230350900001","1"
"535","60535","EL MONTE & BAY TREE","","37.365205271999997","-122.116004538","1"
"542","60542","EL MONTE & SUMMERHILL","","37.365833246000001","-122.11514194199999","1"
"536","60536","EL MONTE & VOORHEES","","37.363048335999999","-122.118218504","1"
"541","60541","EL MONTE & VOORHEES","","37.363290384999999","-122.117577039","1"
"534","60534","EL MONTE & UNIVERSITY","","37.369041918999997","-122.112339357","1"
"543","60543","EL MONTE & UNIVERSITY","","37.368633142","-122.112459097","1"
"533","60533","SAN ANTONIO & LYELL","","37.375942000000002","-122.114328","1"
"685","60685","SAN ANTONIO & HILLVIEW","","37.379941899000002","-122.114076002","1"
"531","60531","SAN ANTONIO & HILLVIEW","","37.379685567999999","-122.114277063","1"
"532","60532","SAN ANTONIO & WHITNEY","","37.377803499999999","-122.114293516","1"
"684","60684","SAN ANTONIO & PEPPER","","37.377040915999999","-122.11406463199999","1"
"683","60683","SAN ANTONIO & LYELL","","37.375606091000002","-122.11410475","1"
"528","60528","SAN ANTONIO & YERBA BUENA","","37.387550290999997","-122.114279615","1"
"688","60688","SAN ANTONIO & YERBA BUENA","","37.388086893000001","-122.114042535","1"
"687","60687","SAN ANTONIO & ALMOND","","37.385279312000002","-122.114049272","1"
"529","60529","SAN ANTONIO & ALMOND","","37.385112200999998","-122.114315104","1"
"686","60686","SAN ANTONIO & ANGELA","","37.382634355","-122.114029222","1"
"530","60530","SAN ANTONIO & EDITH","","37.382054369000002","-122.11432596100001","1"
"527","60527","SAN ANTONIO & PINE","","37.392004333000003","-122.11428185699999","1"
"689","60689","SAN ANTONIO & ARBUELO","","37.392100767000002","-122.11404710399999","1"
"501","60501","EL CAMINO & SAN ANTONIO","","37.401909353999997","-122.11449915999999","1"
"691","60691","SAN ANTONIO & EL CAMINO","","37.401591000000003","-122.113198","1"
"525","60525","SAN ANTONIO & EL CAMINO","","37.400724762000003","-122.114116229","1"
"346","60346","EL CAMINO & SAN ANTONIO","","37.400917939999999","-122.113278271","1"
"526","60526","SAN ANTONIO & PORTOLA","","37.396919541000003","-122.11440108799999","1"
"690","60690","SAN ANTONIO & PORTOLA","","37.397023197999999","-122.11415155","1"
"502","60502","EL CAMINO & CESANO","","37.404606616999999","-122.117917139","1"
"345","60345","EL CAMINO & LOS ALTOS","","37.404254842999997","-122.117976369","1"
"692","60692","SAN ANTONIO & MILLER","","37.404629","-122.111378","1"
"4403","64403","CHARLESTON & ALMA","","37.415192263000002","-122.11784267900001","1"
"4331","64331","CHARLESTON & PARK","","37.413984894000002","-122.11945794","1"
"4405","64405","CHARLESTON & NELSON","","37.419039806000001","-122.111639415","1"
"4329","64329","CHARLESTON & STEVENSON HOUSE","","37.418545893000001","-122.11290120699999","1"
"1585","61585","MIDDLEFIELD & ADOBE CREEK","","37.421779753999999","-122.111722985","1"
"4330","64330","CHARLESTON & WRIGHT","","37.415775773999997","-122.117428881","1"
"4404","64404","CHARLESTON & MUMFORD","","37.416424628000001","-122.116445208","1"
"5030","65030","EAST CHARLESTON & CARLSON","","37.417837728000002","-122.114239529","1"
"5031","65031","EAST CHARLESTON & CARLSON","","37.417431397999998","-122.11467618099999","1"
"1546","61546","MIDDLEFIELD & AMES","","37.427005774999998","-122.119032171","1"
"1582","61582","MIDDLEFIELD & ASHTON","","37.426438898999997","-122.11841766800001","1"
"1584","61584","MIDDLEFIELD & MAYVIEW","","37.422729034","-122.112560876","1"
"1544","61544","MIDDLEFIELD & MAYVIEW","","37.422916432999997","-122.112543821","1"
"1545","61545","MIDDLEFIELD & MEADOW","","37.424525516999999","-122.115105211","1"
"1583","61583","MIDDLEFIELD & MEADOW","","37.423830162000002","-122.114290865","1"
"4431","64431","MEADOW & COWPER","","37.422785910000002","-122.117300531","1"
"5622","65622","MEADOW & MIDDLEFIELD","","37.424545000000002","-122.11425199999999","1"
"5623","65623","MEADOW & COWPER","","37.423056000000003","-122.117093","1"
"5624","65624","MEADOW & MIDDLEFIELD","","37.424263000000003","-122.114538","1"
"5625","65625","MEADOW & ROSS","","37.425798","-122.11187700000001","1"
"5635","65635","MEADOW & ROSS","","37.425761000000001","-122.111704","1"
"4302","64302","LOUIS & ELBRIDGE","","37.435086873000003","-122.11964936","1"
"4303","64303","LOUIS & LOMA VERDE","","37.432885413999998","-122.11615946800001","1"
"4304","64304","LOUIS & GREER","","37.430354846","-122.112151661","1"
"4241","64241","LOUIS & ELBRIDGE","","37.435222252999999","-122.11968594299999","1"
"4240","64240","LOUIS & LOMA VERDE","","37.433063826999998","-122.116256931","1"
"4239","64239","LOUIS & GREER","","37.430406822000002","-122.11204285700001","1"
"2143","62143","EL MONTE & GIFFIN","","37.371811635","-122.10972907199999","1"
"2131","62131","EL MONTE & COVINGTON","","37.372286379000002","-122.10906034600001","1"
"2133","62133","EL MONTE & HAWTHORNE","","37.377981458999997","-122.103820282","1"
"2141","62141","EL MONTE & HAWTHORNE","","37.377523400999998","-122.104456196","1"
"2142","62142","EL MONTE & DE ANZA","","37.375098973999997","-122.106755578","1"
"2132","62132","EL MONTE & SAN LUIS","","37.375103654","-122.106634078","1"
"1540","61540","CALIFORNIA & ORTEGA","","37.401550577999998","-122.10434614899999","1"
"524","60524","SHOWERS & LATHAM","","37.400247002999997","-122.109194704","1"
"1592","61592","CALIFORNIA & ORTEGA","","37.400902016000003","-122.103187984","1"
"500","60500","EL CAMINO & SHOWERS","","37.399738040999999","-122.11047346700001","1"
"5540","65540","SHOWERS & EL CAMINO","","37.399540446000003","-122.109657396","1"
"348","60348","EL CAMINO & JORDAN","","37.398204622000002","-122.107829642","1"
"499","60499","EL CAMINO & ORTEGA","","37.398090590999999","-122.106853339","1"
"349","60349","EL CAMINO & DISTEL","","37.396789034999998","-122.104626426","1"
"498","60498","EL CAMINO & RENGSTORFF","","37.396300732","-122.10275999","1"
"350","60350","EL CAMINO & RENGSTORFF","","37.395437284000003","-122.101555336","1"
"1541","61541","SHOWERS & LATHAM","","37.400848910000001","-122.10857403999999","1"
"1265","61265","SHOWERS & LATHAM","","37.400727017999998","-122.108710387","1"
"347","60347","EL CAMINO & SHOWERS","","37.399330757999998","-122.110319663","1"
"1407","61407","SHOWERS & LATHAM","","37.401080868999998","-122.10825902099999","1"
"4957","64957","SHOWERS & LATHAM","","37.400486057999998","-122.108926991","1"
"5541","65541","SHOWERS & LATHAM","","37.400784999999999","-122.108296","1"
"1266","61266","SAN ANTONIO & CALIFORNIA","","37.406069717000001","-122.11050528299999","1"
"1591","61591","CALIFORNIA & SHOWERS","","37.402644076000001","-122.10603778799999","1"
"694","60694","SHOWERS & CALIFORNIA","","37.402558439000003","-122.10678488800001","1"
"1365","61365","SHOWERS & PACHETTI","","37.406895956","-122.107026167","1"
"693","60693","CALIFORNIA & PACHETTI","","37.404990617999999","-122.10898493099999","1"
"5405","65405","SAN ANTONIO CIR & SHOWERS","","37.407872294999997","-122.109517231","1"
"1268","61268","SAN ANTONIO & NITA (MD)","","37.414615945999998","-122.103925406","1"
"1267","61267","SAN ANTONIO & NITA (FS)","","37.4118602","-122.10592464","1"
"4234","64234","CHARLESTON & FABIAN","","37.422032141999999","-122.103182207","1"
"4460","64460","CHARLESTON & FABIAN","","37.421907668000003","-122.10365838600001","1"
"4382","64382","CHARLESTON & GROVE","","37.420887346999997","-122.10804625900001","1"
"1543","61543","MIDDLEFIELD & CHARLESTON","","37.420265661000002","-122.11023844899999","1"
"1586","61586","MIDDLEFIELD & CHARLESTON","","37.419168720999998","-122.109400104","1"
"1587","61587","MIDDLEFIELD & MONTROSE","","37.417753316000002","-122.10665049000001","1"
"1364","61364","SAN ANTONIO & MIDDLEFIELD","","37.416040885999998","-122.10361659500001","1"
"4407","64407","CHARLESTON & SUTHERLAND","","37.420656291999997","-122.108187528","1"
"4383","64383","CHARLESTON & MIDDLEFIELD","","37.419864146999998","-122.110419361","1"
"1269","61269","MIDDLEFIELD & SAN ANTONIO","","37.415910908999997","-122.102881102","1"
"4406","64406","CHARLESTON & MIDDLEFIELD","","37.420021966999997","-122.10972973200001","1"
"1542","61542","MIDDLEFIELD & MONTROSE","","37.417523744999997","-122.105758955","1"
"4305","64305","LOUIS & ASPEN","","37.429225805999998","-122.110375889","1"
"4237","64237","MEADOW & MEADOW CIRCLE","","37.429236435","-122.10690290399999","1"
"4307","64307","MEADOW & MEADOW","","37.429228774000002","-122.106744404","1"
"4236","64236","FABIAN & CHARLESTON","","37.425766001","-122.104119853","1"
"4308","64308","FABIAN & MEADOW","","37.425891397000001","-122.104311954","1"
"4309","64309","FABIAN & CHARLESTON","","37.423735065999999","-122.104288803","1"
"4238","64238","LOUIS & MEADOW","","37.427923872000001","-122.10805806","1"
"4235","64235","FABIAN & CHARLESTON","","37.423411991000002","-122.104091608","1"
"5626","65626","MEADOW & LOUIS","","37.427674000000003","-122.10832600000001","1"
"5636","65636","MEADOW & LOUIS","","37.427850999999997","-122.107906","1"
"2140","62140","EL MONTE & CLARK","","37.381520555999998","-122.100580533","1"
"2135","62135","EL MONTE & LLOYD","","37.387227549999999","-122.095912318","1"
"2139","62139","EL MONTE & JAY","","37.385832565000001","-122.096561808","1"
"2134","62134","EL MONTE & MAYER","","37.382267315999997","-122.09970328199999","1"
"497","60497","EL CAMINO & ESCUELA","","37.393443009000002","-122.096661934","1"
"2138","62138","EL MONTE & MARICH","","37.390920825999999","-122.095954936","1"
"2136","62136","EL MONTE & PILGRIM","","37.389175199","-122.095894272","1"
"351","60351","EL CAMINO & CLARK","","37.393622172999997","-122.097488234","1"
"352","60352","EL CAMINO & EL MONTE","","37.391509579999997","-122.09514043900001","1"
"1888","61888","RENGSTORFF & STANFORD","","37.401556999999997","-122.098297","1"
"1902","61902","RENGSTORFF & STANFORD","","37.401178825999999","-122.098731731","1"
"1539","61539","CALIFORNIA & RENGSTORFF","","37.399223075999998","-122.100319902","1"
"1887","61887","RENGSTORFF & CALIFORNIA","","37.399587935","-122.099479262","1"
"1593","61593","CALIFORNIA & RENGSTORFF","","37.398769332999997","-122.099668295","1"
"1538","61538","CALIFORNIA & ESCUELA","","37.396895442000002","-122.09442642","1"
"1422","61422","CALIFORNIA & ESCUELA","","37.396491325","-122.093913294","1"
"1531","61531","RENGSTORFF & SAN LUIS","","37.408995908999998","-122.093855181","1"
"1409","61409","RENGSTORFF & JANE","","37.408689031000002","-122.094280305","1"
"1900","61900","RENGSTORFF & JEWELL","","37.406726523000003","-122.095426829","1"
"1890","61890","RENGSTORFF & MONTECITO","","37.406640760999998","-122.09522049500001","1"
"1901","61901","RENGSTORFF & CENTRAL","","37.403891506999997","-122.097085284","1"
"1889","61889","RENGSTORFF & CENTRAL","","37.404152244999999","-122.09669047600001","1"
"1411","61411","HACKETT & MONTEBELLO","","37.404286788999997","-122.093512796","1"
"1529","61529","HACKETT & MONTEBELLO","","37.404410562999999","-122.093577169","1"
"1530","61530","MONTECITO & RENGSTORFF","","37.406656902999998","-122.094447621","1"
"1270","61270","MIDDLEFIELD & ALVIN","","37.414782393000003","-122.100878513","1"
"1271","61271","MIDDLEFIELD & THADDEUS","","37.412337321999999","-122.098388001","1"
"1362","61362","MIDDLEFIELD & INDEPENDENCE","","37.412384592000002","-122.09802455400001","1"
"1363","61363","MIDDELFIELD & OLD MIDDLEFIELD","","37.414433905999999","-122.100191849","1"
"1272","61272","MIDDLEFIELD & RENGSTORFF (NS)","","37.411592278000001","-122.093570953","1"
"2014","62014","GARCIA & MARINE","","37.427835000000002","-122.097678","1"
"2025","62025","GARCIA & MARINE","","37.427761236999999","-122.097374335","1"
"2015","62015","MARINE & CASEY","","37.431415395999998","-122.09875614800001","1"
"2024","62024","MARINE & CASEY","","37.431493623000001","-122.098909341","1"
"2023","62023","SAN ANTONIO & CASEY","","37.432136","-122.100257","1"
"2016","62016","SAN ANTONIO & BAYSHORE","","37.431391056000002","-122.100500756","1"
"2072","62072","MIRAMONTE & CUESTA","","37.374020520999998","-122.086940095","1"
"2071","62071","ST. FRANCIS HIGH SCHOOL","","37.370337083000003","-122.08696621","1"
"2115","62115","CUESTA & MIRAMONTE","","37.373612950000002","-122.08638763099999","1"
"2074","62074","CASTRO & MIRAMONTE","","37.382046580000001","-122.086005825","1"
"2113","62113","MIRAMONTE & MARILYN","","37.38066714","-122.087092735","1"
"2073","62073","MIRAMONTE & BARBARA","","37.377450363000001","-122.086867911","1"
"2114","62114","MIRAMONTE & BARBARA","","37.376811822000001","-122.087075474","1"
"495","60495","EL CAMINO & SHORELINE","","37.388346548999998","-122.088812133","1"
"354","60354","EL CAMINO & MIRAMONTE","","37.387324946","-122.087404381","1"
"494","60494","EL CAMINO & CASTRO","","37.386200533","-122.08448968499999","1"
"2111","62111","CASTRO & EL CAMINO","","37.385247401000001","-122.084318615","1"
"2112","62112","CASTRO & HARPSTER","","37.383089339000001","-122.085642929","1"
"1537","61537","CALIFORNIA & MARIPOSA","","37.395006408999997","-122.08964933199999","1"
"1423","61423","CALIFORNIA & MARIPOSA","","37.394707537000002","-122.08941684200001","1"
"1536","61536","CALIFORNIA & PALO ALTO","","37.394066649999999","-122.08729031199999","1"
"1424","61424","CALIFORNIA & PALO ALTO","","37.393734381000002","-122.086958103","1"
"1535","61535","CALIFORNIA & SHORELINE","","37.393272257","-122.085266933","1"
"1594","61594","CALIFORNIA & SHORELINE","","37.392791408000001","-122.084579711","1"
"496","60496","EL CAMINO & MARIPOSA","","37.389944999999997","-122.092089","1"
"353","60353","EL CAMINO & PETTIS","","37.389463356","-122.09173752300001","1"
"1421","61421","ESCUELA & VILLA","","37.398448563999999","-122.093132076","1"
"1419","61419","VILLA & MARIPOSA","","37.397336015","-122.087752005","1"
"1412","61412","SIERRA VISTA & MONTECITO","","37.405126610000003","-122.09126318","1"
"1413","61413","MONTECITO & FARLEY","","37.404619001999997","-122.08955043100001","1"
"1414","61414","MONTECITO & BURGOYNE","","37.403926093999999","-122.086726439","1"
"1528","61528","SIERRA VISTA & MONTECITO","","37.405022281000001","-122.09144690700001","1"
"1527","61527","MONTECITO & FARLEY","","37.404739696","-122.089615061","1"
"1526","61526","MONTECITO & BURGOYNE","","37.403772736999997","-122.085705229","1"
"1892","61892","RENGSTORFF & OLD MIDDLEFIELD","","37.414066392999999","-122.09251251000001","1"
"1899","61899","RENGSTORFF & OLD MIDDLEFIELD","","37.414150530000001","-122.092745197","1"
"1408","61408","RENGSTORFF & MIDDLEFIELD","","37.411125894999998","-122.092856509","1"
"1891","61891","RENGSTORFF & SAN RAMON","","37.410992098999998","-122.092678577","1"
"1361","61361","RENGSTORFF & MIDDLEFIELD","","37.411748563000003","-122.092864087","1"
"1360","61360","MIDDLEFIELD & FARLEY","","37.409882009","-122.087502409","1"
"1273","61273","MIDDLEFIELD & RENGSTORFF (FS)","","37.411456624000003","-122.09236961000001","1"
"1274","61274","MIDDLEFIELD & FARLEY","","37.409714942000001","-122.087670895","1"
"2011","62011","CHARLESTON & LANDINGS","","37.421255621","-122.087803251","1"
"2028","62028","CHARLESTON & LANDINGS","","37.421613821000001","-122.08889927200001","1"
"1893","61893","RENGSTORFF & LEGHORN","","37.418370277000001","-122.093071028","1"
"1898","61898","RENGSTORF & LEGHORN","","37.418502805000003","-122.093311384","1"
"2012","62012","GARCIA & AMPHITHEATER","","37.424106316","-122.09014828700001","1"
"2013","62013","GARCIA & SALADO","","37.425343413999997","-122.093128511","1"
"2026","62026","GARCIA & SALADO","","37.425118806999997","-122.09294353999999","1"
"2027","62027","CHARLESTON & AMPHITHEATER","","37.423190677000001","-122.089912922","1"
"674","60674","GRANT RD & GRANT AV","","37.345926573","-122.077563493","1"
"553","60553","GRANT RD & GRANT AV","","37.345571949000004","-122.07750484899999","1"
"1509","61509","GRANT & GARTHWICK","","37.354407692000002","-122.077735355","1"
"1508","61508","GRANT & FREMONT","","37.352684775999997","-122.07769396800001","1"
"552","60552","GRANT & THURSTON","","37.348448032999997","-122.077857534","1"
"675","60675","GRANT & MORTON","","37.348034824999999","-122.07769787700001","1"
"2119","62119","GRANT & FREMONT","","37.352667728","-122.07792447","1"
"1511","61511","GRANT & GIBBS (WAVERLY)","","37.359916247999998","-122.077710784","1"
"2117","62117","GRANT & PORTLAND","","37.359334179000001","-122.07792481200001","1"
"1440","61440","GRANT & EUREKA","","37.357868832000001","-122.077907049","1"
"1510","61510","GRANT & OAK","","37.356974868000002","-122.077748636","1"
"1441","61441","GRANT & PETERSEN","","37.354842904000002","-122.077905339","1"
"1439","61439","GRANT & BRYANT","","37.361091739999999","-122.077889146","1"
"1513","61513","GRANT & APRIL","","37.366095624000003","-122.077713581","1"
"1438","61438","GRANT & COVINGTON","","37.364846727","-122.077943189","1"
"5424","65424","GRANT & EL CAMINO HOSPITAL","","37.367032000000002","-122.077704","1"
"1512","61512","GRANT & PRESTON","","37.363819737","-122.077710095","1"
"2070","62070","CUESTA & MONTALTO","","37.373701945999997","-122.08267666899999","1"
"2069","62069","CUESTA & GRANT","","37.373617342999999","-122.07839065","1"
"2116","62116","CUESTA & MONTALTO","","37.373458073000002","-122.08178176","1"
"1434","61434","GRANT & CUESTA","","37.373176233000002","-122.077988616","1"
"1435","61435","GRANT & SLEEPER","","37.370954261000001","-122.077967219","1"
"1515","61515","GRANT & EUNICE","","37.370169302999997","-122.07771092900001","1"
"5411","65411","EL CAMINO HOSPITAL","","37.369046969999999","-122.078032206","1"
"2110","62110","CASTRO & HIGH SCHOOL WAY","","37.386994713999997","-122.083278452","1"
"2077","62077","CASTRO & YOSEMITE","","37.387520795","-122.08277925100001","1"
"2076","62076","CASTRO & EL CAMINO","","37.385091510000002","-122.084157963","1"
"355","60355","EL CAMINO & CASTRO","","37.385072260000001","-122.082920688","1"
"493","60493","EL CAMINO & BUSH","","37.384453694999998","-122.080967196","1"
"356","60356","EL CAMINO & BONITA","","37.383656500999997","-122.080002705","1"
"357","60357","EL CAMINO & PHYLLIS","","37.382229803999998","-122.077116012","1"
"492","60492","EL CAMINO & CALDERON","","37.382635166999997","-122.077282692","1"
"1596","61596","CASTRO & VILLA","","37.393678104000003","-122.078958035","1"
"2108","62108","CASTRO & VILLA","","37.393953891999999","-122.078948477","1"
"1534","61534","CALIFORNIA & FRANKLIN","","37.392330260999998","-122.082874457","1"
"2109","62109","CASTRO & MERCY","","37.389691796999998","-122.081628851","1"
"1595","61595","CALIFORNIA & BRYANT","","37.391766693999998","-122.081964873","1"
"2078","62078","CASTRO & MERCY","","37.389860720000001","-122.08126643600001","1"
"1533","61533","CASTRO & CALIFORNIA","","37.391502375999998","-122.08048828699999","1"
"2000","62000","MOUNTAIN VIEW CALTRAIN STATION","","37.394641059000001","-122.0770258","1"
"1532","61532","MOUNTAIN VIEW CALTRAIN STATION","","37.394510029000003","-122.07690709000001","1"
"2035","62035","MOUNTAIN VIEW CALTRAIN STATION","","37.394354645999996","-122.076944475","1"
"1522","61522","VILLA & CASTRO","","37.393970168999999","-122.079216476","1"
"1523","61523","VILLA & SHORELINE","","37.395406252999997","-122.082825364","1"
"1416","61416","MONTECITO & SHORELINE","","37.401902628000002","-122.079231709","1"
"2107","62107","MOFFETT & JACKSON","","37.396881663000002","-122.077069776","1"
"2037","62037","MOFFETT & CENTRAL-(OP JACKSON)","","37.397332132999999","-122.076551915","1"
"1418","61418","VILLA & SHORELINE","","37.395743260000003","-122.08367733999999","1"
"1417","61417","SHORELINE & WRIGHT","","37.400708561999998","-122.080227975","1"
"1524","61524","MONTECITO & SHORELINE","","37.402082110000002","-122.079334292","1"
"2001","62001","SHORELINE & WRIGHT","","37.400074826000001","-122.080447591","1"
"1415","61415","MONTECITO & POPPY","","37.402657132000002","-122.083768644","1"
"1359","61359","MIDDLEFIELD & TERRA BELLA","","37.409080641000003","-122.083593288","1"
"1275","61275","MIDDLEFIELD & BURGOYNE","","37.409198111000002","-122.084685646","1"
"1358","61358","MIDDLEFIELD & SHORELINE","","37.406694227000003","-122.078673153","1"
"1276","61276","MIDDLEFIELD & SHORELINE","","37.405816571000003","-122.077628929","1"
"1525","61525","MONTECITO & SAN PIERRE","","37.402725009000001","-122.08351875699999","1"
"2033","62033","SHORELINE & TERRA BELLA","","37.408130999999997","-122.078186","1"
"2004","62004","SHORELINE & TERRA BELLA","","37.408228000000001","-122.077966","1"
"5830","65830","MIDDLEFIELD & SAN PIERRE","","37.408071","-122.08148199999999","1"
"5831","65831","MIDDLEFIELD & SAN PIERRE","","37.407406999999999","-122.08093700000001","1"
"1897","61897","LA AVENIDA & SHORELINE","","37.413687111000002","-122.077534372","1"
"2006","62006","SHORELINE & PEAR","","37.415982137","-122.07792508999999","1"
"2032","62032","SHORELINE & PLYMOUTH","","37.415214931999998","-122.07820694500001","1"
"2009","62009","CHARLESTON & SHORELINE","","37.420667741999999","-122.079029355","1"
"2030","62030","SHORELINE & CHARLESTON","","37.419704486000001","-122.07809160799999","1"
"2008","62008","SHORELINE & SHOREBIRD","","37.419390384000003","-122.077814562","1"
"2007","62007","SHORELINE & SPACE PARK","","37.417419228999997","-122.077920065","1"
"2031","62031","SHORELINE & SPACE PARK","","37.417295598000003","-122.078138051","1"
"2010","62010","CHARLESTON & GOOGLE","","37.420907999999997","-122.082615","1"
"2029","62029","CHARLESTON & HUFF","","37.420743745999999","-122.083137806","1"
"559","60559","FOOTHILL & SILVER OAK","","37.323150546000001","-122.068808898","1"
"668","60668","FOOTHILL & CUPERTINO","","37.323458975000001","-122.068500126","1"
"667","60667","STEVENS CREEK & FOOTHILL","","37.322053326000002","-122.068389029","1"
"560","60560","STEVENS CREEK & FOOTHILL","","37.321853836999999","-122.068075393","1"
"557","60557","FOOTHILL & CRISTO REY","","37.331101484000001","-122.06926650600001","1"
"670","60670","FOOTHILL & STARLING","","37.33119799","-122.068963485","1"
"669","60669","FOOTHILL & VISTA KNOLL","","37.329468961000003","-122.069057843","1"
"558","60558","FOOTHILL & ALPINE","","37.327931466999999","-122.069309096","1"
"556","60556","GRANT & HOMESTEAD","","37.338388541999997","-122.06844705100001","1"
"671","60671","FOOTHILL & HOMESTEAD","","37.337931556000001","-122.068455181","1"
"673","60673","GRANT @ LIBRARY","","37.343993591","-122.075569734","1"
"554","60554","GRANT @ LIBRARY","","37.344033398999997","-122.075752485","1"
"672","60672","GRANT & ARBORETUM","","37.341723702000003","-122.072355845","1"
"555","60555","GRANT & ARBORETUM","","37.341138196999999","-122.071929971","1"
"1507","61507","FREMONT & KATHY","","37.352277376000004","-122.072688392","1"
"1506","61506","FREMONT & TRUMAN","","37.352217834999998","-122.069248366","1"
"1442","61442","FREMONT & DALLAS","","37.352067873000003","-122.072775685","1"
"2068","62068","TRUMAN & BRYANT","","37.360851504999999","-122.068650487","1"
"2118","62118","TRUMAN & BRYANT","","37.360750222999997","-122.06876227399999","1"
"358","60358","EL CAMINO & BAY","","37.380872107000002","-122.07439672","1"
"491","60491","EL CAMINO & MTN. VIEW-ALVISO","","37.380771701","-122.073535276","1"
"359","60359","EL CAMINO & YUBA","","37.379596880999998","-122.071538934","1"
"2079","62079","MOFFETT & MIDDLEFIELD","","37.400975015999997","-122.07204684","1"
"2105","62105","MOFFETT & MIDDLEFIELD","","37.400090169999999","-122.073572348","1"
"1278","61278","MIDDLEFIELD & MOFFETT","","37.400092327999999","-122.07275608400001","1"
"2038","62038","MOFFETT & CYPRESS POINT","","37.399166137999998","-122.07449469399999","1"
"2106","62106","MOFFETT & CYPRESS POINT","","37.398941252","-122.07512561999999","1"
"1356","61356","MIDDLEFIELD & MOFFETT","","37.400732595999997","-122.073297295","1"
"1357","61357","MIDDLEFIELD & SAN VERON","","37.403995692000002","-122.07504404399999","1"
"1277","61277","MIDDLEFIELD & SAN VERON","","37.403384912999996","-122.075059729","1"
"1895","61895","NORTH YARD PARKING LOT","","37.413117999999997","-122.07440099999999","1"
"5096","65096","LA AVENIDA & NORTH YARD","","37.413279373000002","-122.07508820300001","1"
"5417","65417","PEAR & FREEDOM","","37.415427692000002","-122.076167215","1"
"5418","65418","LA AVENIDA & FREEDOM","","37.413445289999999","-122.076043883","1"
"666","60666","STEVENS CREEK & PHAR LAP","","37.323067049999999","-122.060607199","1"
"561","60561","STEVENS CREEK & PHAR LAP","","37.322917672000003","-122.059891494","1"
"2176","62176","BERNARDO & PLYMOUTH","","37.360517211000001","-122.059885873","1"
"2204","62204","REMINGTON & BERNARDO","","37.359430637000003","-122.05920555100001","1"
"2203","62203","BERNARDO & KNICKERBOCKER","","37.364624139999997","-122.058873609","1"
"2177","62177","BERNARDO & KNICKERBOCKER","","37.364608009000001","-122.05872383800001","1"
"5428","65428","ALTA VISTA HIGH SCHOOL","","37.361255460000002","-122.064150309","1"
"490","60490","EL CAMINO & SYLVAN","","37.376332572000003","-122.062275451","1"
"360","60360","EL CAMINO & AMERICANA","","37.376263999999999","-122.062895634","1"
"1355","61355","MIDDLEFIELD & EASY","","37.398881484999997","-122.066678337","1"
"1279","61279","MIDDLEFIELD & EASY","","37.398622326999998","-122.066092848","1"
"1354","61354","MIDDLEFIELD & WHISMAN","","37.397437388","-122.059976878","1"
"1280","61280","MIDDLEFIELD & WHISMAN","","37.397055698000003","-122.059237682","1"
"2104","62104","MOFFETT & LEONG","","37.404785996000001","-122.06790517100001","1"
"2080","62080","MOFFETT & LEONG","","37.404750894999999","-122.06760211","1"
"665","60665","STEVENS CREEK & MANN","","37.323071390999999","-122.05620388299999","1"
"664","60664","STEVENS CREEK & PENINSULA","","37.322988494999997","-122.05274728800001","1"
"562","60562","STEVENS CREEK & PASADENA","","37.322793591","-122.05413692","1"
"563","60563","STEVENS CREEK & BUBB","","37.322730923999998","-122.051525117","1"
"2124","62124","HOMESTEAD & MARY","","37.337420154","-122.048976681","1"
"2168","62168","HOMESTEAD & MARY","","37.337599101000002","-122.049645998","1"
"2211","62211","MARY & HELENA","","37.340774330000002","-122.050094211","1"
"2170","62170","MARY & THE DALLES","","37.345114015","-122.049888865","1"
"2210","62210","MARY & THE DALLES","","37.344506637000002","-122.05008601199999","1"
"2169","62169","MARY & HELENA","","37.341380145999999","-122.049891378","1"
"2172","62172","MARY & FREMONT","","37.352663776","-122.05040384599999","1"
"2209","62209","MARY & CASCADE","","37.348432451999997","-122.05041238299999","1"
"2208","62208","MARY & FREMONT","","37.351672135999998","-122.050609126","1"
"2171","62171","MARY & CASCADE","","37.348381166999999","-122.05018692900001","1"
"2206","62206","MARY & ROCKEFELLER","","37.358805578999998","-122.050262717","1"
"2173","62173","MARY & TICONDEROGA","","37.356072316999999","-122.05037455900001","1"
"2207","62207","MARY & TICONDEROGA","","37.355395432000002","-122.05059586500001","1"
"2174","62174","REMINGTON & MARY","","37.359553802000001","-122.050653618","1"
"2175","62175","REMINGTON & MANGO","","37.359564208999998","-122.053856677","1"
"2205","62205","REMINGTON & MANGO","","37.359416328000002","-122.05400003","1"
"2178","62178","BERNARDO & HEATHERSTONE","","37.367444536999997","-122.05774986500001","1"
"2202","62202","BERNARDO & HEATHERSTONE","","37.366903759000003","-122.058098062","1"
"489","60489","EL CAMINO & BERNARDO","","37.374223579999999","-122.05683214","1"
"2200","62200","BERNARDO & EL CAMINO","","37.373235469999997","-122.056636193","1"
"361","60361","EL CAMINO & KNICKERBOCKER","","37.374159564999999","-122.057513632","1"
"488","60488","EL CAMINO & GRAPE","","37.373129239999997","-122.05315566","1"
"2180","62180","BERNARDO & BLAIR","","37.372488494000002","-122.05664546600001","1"
"362","60362","EL CAMINO & GRAPE","","37.372600364999997","-122.05234172199999","1"
"2179","62179","BERNARDO & BROOKFIELD","","37.370619013999999","-122.057140336","1"
"2201","62201","BERNARDO & BROOKFIELD","","37.370051889000003","-122.05724439399999","1"
"2181","62181","BERNARDO & EL CAMINO","","37.374592647999997","-122.055960658","1"
"2183","62183","WASHINGTON & BERNARDO","","37.380577006999999","-122.053695404","1"
"2184","62184","WASHINGTON & LEOTA","","37.379725074","-122.050245438","1"
"2197","62197","WASHINGTON & LEOTA","","37.379836689999998","-122.050306553","1"
"2198","62198","BERNARDO & WASHINGTON","","37.380444332000003","-122.054175614","1"
"2199","62199","BERNARDO & IOWA","","37.377020811000001","-122.055310631","1"
"2182","62182","BERNARDO & IOWA","","37.377786825000001","-122.054947422","1"
"1281","61281","MIDDLEFIELD & ELLIS","","37.395457509000003","-122.053252118","1"
"4531","64531","MIDDLEFIELD & LOGUE","","37.394176883999997","-122.05135264499999","1"
"2047","62047","MIDDLEFIELD & LOGUE","","37.394036213","-122.051541426","1"
"4532","64532","MIDDLEFIELD & ELLIS (NS)","","37.395438607000003","-122.052734535","1"
"1353","61353","MIDDLEFIELD & ELLIS (FS)","","37.396095484999996","-122.054260825","1"
"5860","65860","ELLIS & MIDDLEFIELD","","37.396155","-122.053603","1"
"5861","65861","ELLIS & FAIRCHILD","","37.402524","-122.051231","1"
"2082","62082","SOUTH AKRON & WESCOAT","","37.410992806000003","-122.058755795","1"
"2101","62101","NORTH AKRON & MC CORD","","37.411742017000002","-122.05871831899999","1"
"847","60847","STELLING & PEPPER TREE","","37.320149270000002","-122.041354537","1"
"698","60698","STELLING & PEPPER TREE","","37.319163279000001","-122.04156113800001","1"
"846","60846","STELLING & MCCLELLAN","","37.316122909999997","-122.041346942","1"
"699","60699","MCCLELLAN & STELLING","","37.315547909000003","-122.039371837","1"
"2298","62298","STELLING & STEVENS CREEK (NS)","","37.323342298","-122.041614426","1"
"2162","62162","STELLING & STEVENS CREEK (FS)","","37.323877596000003","-122.04132875400001","1"
"663","60663","STEVENS CREEK & MARY","","37.323004150000003","-122.045684374","1"
"662","60662","STEVENS CREEK & STELLING","","37.323040956","-122.042266736","1"
"564","60564","STEVENS CREEK & MARY","","37.322743809000002","-122.045465838","1"
"565","60565","STEVENS CREEK & STELLING","","37.322735516999998","-122.040933272","1"
"848","60848","STELLING & STEVENS CREEK (NS)","","37.322260282000002","-122.041362658","1"
"697","60697","STELLING & STEVENS CREEK (FS)","","37.322170333000003","-122.04161985","1"
"2216","62216","STELLING & CHRISTENSEN","","37.326165768999999","-122.041609369","1"
"5637","65637","DE ANZA COLLEGE TRANSIT CENTER","","37.322488999999997","-122.044494","1"
"2166","62166","STELLING & VALLEYGREEN","","37.333339664999997","-122.041383299","1"
"2213","62213","STELLING & GARDENA","","37.333184336999999","-122.041504803","1"
"2165","62165","STELLING & GREENLEAF","","37.330937487","-122.04139132","1"
"2214","62214","STELLING & GREENLEAF","","37.330466031","-122.041506493","1"
"2164","62164","STELLING & HAZELBROOK","","37.328021620000001","-122.041382258","1"
"2215","62215","STELLING & HAZELBROOK","","37.328050071","-122.04150642","1"
"2296","62296","HOLLENBECK & THE DALLES","","37.341202852999999","-122.041551352","1"
"2249","62249","HOLLENBECK & GRAND COULLEE","","37.341306768999999","-122.041325466","1"
"2248","62248","HOLLENBECK & HOMESTEAD","","37.339985937999998","-122.041313422","1"
"2247","62247","HOLLENBECK & HOMESTEAD","","37.338117810999996","-122.041283925","1"
"2061","62061","HOMESTEAD & KENNEWICK","","37.337594580000001","-122.046460514","1"
"2060","62060","HOMESTEAD & HOLLENBECK","","37.337624810999998","-122.04197940100001","1"
"2125","62125","HOMESTEAD & KENNEWICK","","37.337427898999998","-122.045973499","1"
"2212","62212","STELLING & HOMESTEAD","","37.336827153999998","-122.04155168200001","1"
"2297","62297","HOLLENBECK & HOMESTEAD","","37.339434302999997","-122.041554315","1"
"2250","62250","HOLLENBECK & THE DALLES","","37.344692078000001","-122.041450701","1"
"2295","62295","HOLLENBECK & THE DALLES","","37.344598654999999","-122.041560992","1"
"2293","62293","HOLLENBECK & FREMONT","","37.351628011999999","-122.04160984799999","1"
"2252","62252","HOLLENBECK & FREMONT","","37.352809805","-122.041402191","1"
"2294","62294","HOLLENBECK & CASCADE","","37.348560040999999","-122.041572375","1"
"2251","62251","HOLLENBECK & CASCADE","","37.348590997000002","-122.041459835","1"
"2254","62254","HOLLENBECK & REMINGTON","","37.359801648999998","-122.041433266","1"
"2291","62291","HOLLENBECK & REMINGTON","","37.359042160999998","-122.04156066","1"
"2253","62253","HOLLENBECK & TORRINGTON","","37.356507219000001","-122.04144261899999","1"
"2292","62292","HOLLENBECK & TORRINGTON","","37.355404626000002","-122.041558743","1"
"2256","62256","HOLLENBECK & DANFORTH","","37.367053478000003","-122.04145219900001","1"
"2289","62289","HOLLENBECK & DANFORTH","","37.366157387000001","-122.041607005","1"
"2255","62255","HOLLENBECK & HARVARD","","37.363455899000002","-122.041464084","1"
"2290","62290","HOLLENBECK & HARVARD","","37.362933102","-122.041584445","1"
"487","60487","EL CAMINO & MARY","","37.372090849999999","-122.048952646","1"
"363","60363","EL CAMINO & MARY","","37.371511314999999","-122.047547635","1"
"486","60486","EL CAMINO & PASTORIA","","37.37036492","-122.04138043","1"
"364","60364","EL CAMINO & HOLLENBECK","","37.370141662999998","-122.041679602","1"
"2288","62288","HOLLENBECK & EL CAMINO","","37.369468439000002","-122.041205625","1"
"2196","62196","WASHINGTON & MARY","","37.379049473000002","-122.04687231699999","1"
"1341","61341","WASHINGTON & CARSON","","37.378673378000002","-122.04284203","1"
"2185","62185","WASHINGTON & MARY","","37.378962485999999","-122.046929076","1"
"1292","61292","WASHINGTON & CARSON","","37.378587981000003","-122.042866719","1"
"1291","61291","WASHINGTON & MATADERO","","37.378536441999998","-122.04527938","1"
"4538","64538","CENTRAL & MARY","","37.386510780999998","-122.04300919000001","1"
"4529","64529","CENTRAL & MARY","","37.386932334999997","-122.043156513","1"
"4530","64530","MIDDLEFIELD & BERNARDO","","37.390843627000002","-122.04814224","1"
"4537","64537","MIDDLEFIELD & BERNARDO","","37.390011350999998","-122.047986869","1"
"1350","61350","MAUDE & CLYDE","","37.395893000000001","-122.04801399999999","1"
"5864","65864","CLYDE & CLYDE CT","","37.401528999999996","-122.048873","1"
"2237","62237","SARATOGA-SUNNYVALE & GERALD ZAPELLI","","37.265057706999997","-122.03179371100001","1"
"2310","62310","SARATOGA-SUNNYVALE & REID","","37.264991940000002","-122.032064945","1"
"2236","62236","SARATOGA-SUNNYVALE & WALNUT","","37.263249436000002","-122.03178953","1"
"2311","62311","SARATOGA-SUNNYVALE & MARION","","37.262859220000003","-122.03206433699999","1"
"1049","61049","SARATOGA & SARATOGA-SUNNYVALE","","37.259573654999997","-122.030733341","1"
"1200","61200","SARATOGA & SARATOGA-LOS GATOS","","37.259406421999998","-122.03093918099999","1"
"2239","62239","SARATOGA-SUNNYVALE & THELMA","","37.271859775999999","-122.03193741299999","1"
"2308","62308","SARATOGA-SUNNYVALE & THELMA","","37.271309877","-122.032176889","1"
"2309","62309","SARATOGA-SUNNYVALE & HERRIMAN","","37.267099471000002","-122.032093424","1"
"2238","62238","SARATOGA-SUNNYVALE & HERRIMAN","","37.267706461000003","-122.031834887","1"
"2306","62306","SARATOGA-SUNNYVALE & BLAUER","","37.278872743999997","-122.032373298","1"
"2240","62240","SARATOGA-SUNNYVALE & MILJEVICH","","37.275457332999999","-122.03200501800001","1"
"2307","62307","SARATOGA-SUNNYVALE & LEONARD","","37.274300986","-122.032231399","1"
"2242","62242","SARATOGA-SUNNYVALE & COX","","37.283662995","-122.03222605800001","1"
"2305","62305","SARATOGA-SUNNYVALE & WARDELL","","37.283094202000001","-122.032509854","1"
"2241","62241","SARATOGA-SUNNYVALE & BLAUER","","37.279974355","-122.032171981","1"
"2304","62304","SARATOGA-SUNNYVALE & MANOR","","37.288082115999998","-122.03259016299999","1"
"2243","62243","SARATOGA-SUNNYVALE & SEAGULL","","37.288816308000001","-122.032271763","1"
"2228","62228","DE ANZA & SHARON","","37.297684123000003","-122.032410712","1"
"2149","62149","DE ANZA & SHARON","","37.296722696000003","-122.03209014799999","1"
"2148","62148","DE ANZA & PROSPECT","","37.294510459999998","-122.03210824200001","1"
"2303","62303","SARATOGA-SUNNYVALE & PROSPECT","","37.293311922000001","-122.032419805","1"
"2244","62244","DE ANZA & CHANTEL","","37.298547300000003","-122.03208024","1"
"2245","62245","DE ANZA & BLUEHILL","","37.304767359000003","-122.032085976","1"
"2302","62302","DE ANZA & KENTWOOD","","37.304198999999997","-122.032405","1"
"844","60844","DE ANZA & BOLLINGER","","37.312762616000001","-122.03205545","1"
"2300","62300","DE ANZA & BOLLINGER","","37.310789765999999","-122.032422376","1"
"2301","62301","DE ANZA & FALLEN LEAF","","37.307792984000002","-122.032417825","1"
"2246","62246","DE ANZA & CLARENDON","","37.308028931999999","-122.03208382699999","1"
"845","60845","MCCLELLAN & FELTON","","37.315653046000001","-122.03394669399999","1"
"700","60700","MCCLELLAN & FELTON","","37.315546034999997","-122.033716286","1"
"2299","62299","DE ANZA & MCCLELLAN","","37.3150464","-122.032475801","1"
"2312","62312","DE ANZA & PACIFICA","","37.316638818999998","-122.03210035799999","1"
"2313","62313","DE ANZA & SUNRISE","","37.320069109000002","-122.03211274100001","1"
"2315","62315","DE ANZA & LAZANEO","","37.327092659000002","-122.032107767","1"
"2401","62401","DE ANZA & LAZANEO","","37.326283914999998","-122.03248121999999","1"
"696","60696","ALVES & PARK CIRCLE","","37.325072181000003","-122.034959859","1"
"2314","62314","DE ANZA & STEVENS CREEK","","37.323954813999997","-122.032054421","1"
"661","60661","STEVENS CREEK & SAICH","","37.323039780999999","-122.036370379","1"
"660","60660","STEVENS CREEK & DE ANZA","","37.323039051999999","-122.03320379500001","1"
"566","60566","STEVENS CREEK & BANDLEY","","37.322728148000003","-122.03421055299999","1"
"567","60567","STEVENS CREEK & DE ANZA","","37.322734167999997","-122.031473005","1"
"695","60695","SAICH & STEVENS CREEK","","37.324093554000001","-122.03721443400001","1"
"2316","62316","DE ANZA & MARIANI","","37.330804872000002","-122.032042534","1"
"2400","62400","DE ANZA & MARIANI","","37.329669840999998","-122.0325295","1"
"2398","62398","SUNNYVALE-SARATOGA & LA CONNER","","37.340878369999999","-122.03249778999999","1"
"2318","62318","SUNNYVALE-SARATOGA & LA CONNER","","37.340208310000001","-122.03215317999999","1"
"2399","62399","DE ANZA & HOMESTEAD","","37.337040416000001","-122.032496649","1"
"2317","62317","SUNNYVALE-SARATOGA & HOMESTEAD","","37.338066175000002","-122.03209308","1"
"2059","62059","HOMESTEAD & SUNNYVALE-SARATOGA","","37.337637000000001","-122.033134","1"
"2126","62126","HOMESTEAD & STELLING","","37.337434000000002","-122.040295","1"
"2396","62396","SUNNYVALE-SARATOGA & CHEYENNE","","37.347147028999998","-122.032529212","1"
"2320","62320","SUNNYVALE-SARATOGA & CONEMARA","","37.346992432","-122.032178657","1"
"2319","62319","SUNNYVALE-SARATOGA & HARWICK","","37.343480731","-122.032165956","1"
"2397","62397","SUNNYVALE-SARATOGA & ALBERTA","","37.342453071000001","-122.032508142","1"
"2394","62394","SUNNYVALE-SARATOGA & FREMONT","","37.352747000000001","-122.03256500000001","1"
"2321","62321","SUNNYVALE-SARATOGA & FREMONT","","37.352621145000001","-122.032121512","1"
"2395","62395","SUNNYVALE-SARATOGA & FREMONT","","37.351219923000002","-122.032526471","1"
"1499","61499","FREMONT & CORDILLERAS","","37.352258741999997","-122.039076503","1"
"2322","62322","FREMONT & SYDNEY","","37.352242570000001","-122.035172944","1"
"2393","62393","SUNNYVALE-SARATOGA & REMINGTON","","37.358570292000003","-122.032461817","1"
"2324","62324","SUNNYVALE-SARATOGA & REMINGTON","","37.358592383000001","-122.03212346399999","1"
"2323","62323","SUNNYVALE-SARATOGA & CRESCENT","","37.355996564000002","-122.032202652","1"
"2285","62285","MATHILDA & MCKINLEY","","37.374719710000001","-122.035286568","1"
"2286","62286","MATHILDA & IOWA","","37.373142983999998","-122.03581807","1"
"2261","62261","MATHILDA & IOWA","","37.373225191000003","-122.03538787700001","1"
"2287","62287","OLIVE & ALL AMERICA","","37.371305413000002","-122.039187867","1"
"2260","62260","MATHILDA & OLIVE","","37.371969348","-122.03582586500001","1"
"2259","62259","OLIVE & CHARLES","","37.371837356","-122.037169457","1"
"2258","62258","OLIVE & ALL AMERICA","","37.371233844999999","-122.039062141","1"
"485","60485","EL CAMINO & MATHILDA","","37.369421180000003","-122.03764735999999","1"
"2257","62257","HOLLENBECK & EL CAMINO","","37.369278633","-122.041058494","1"
"365","60365","EL CAMINO & MATHILDA","","37.368774879999997","-122.036117641","1"
"2189","62189","MATHILDA & WASHINGTON","","37.376523970999997","-122.034300057","1"
"1340","61340","WASHINGTON & PASTORIA","","37.377782645000003","-122.03860418799999","1"
"1339","61339","WASHINGTON & CHARLES","","37.377145220999999","-122.035567668","1"
"1293","61293","WASHINGTON & PASTORIA","","37.377591295999999","-122.038146705","1"
"1294","61294","WASHINGTON & CHARLES","","37.377070402999998","-122.035680533","1"
"5628","65628","CALIFORNIA & MATHILDA","","37.382210000000001","-122.03323","1"
"2284","62284","MATHILDA & CALIFORNIA","","37.383334628","-122.032524686","1"
"1047","61047","SARATOGA & HERRIMAN","","37.265024117000003","-122.02235269400001","1"
"1202","61202","SARATOGA & JUNIPER","","37.262638152999997","-122.025198057","1"
"1048","61048","SARATOGA & SEAGRAVES","","37.262383153999998","-122.025938935","1"
"1201","61201","SARATOGA & LA PALOMA","","37.260260193999997","-122.02876299499999","1"
"701","60701","BOLLINGER & DE ANZA","","37.311975244999999","-122.030765324","1"
"702","60702","BOLLINGER & BLANEY","","37.309699074999997","-122.02293801099999","1"
"842","60842","BOLLINGER & BLANEY","","37.310153929000002","-122.023856145","1"
"843","60843","BOLLINGER & FARALONE","","37.310816920999997","-122.02615898000001","1"
"659","60659","STEVENS CREEK & VISTA","","37.323048712999999","-122.02797560099999","1"
"658","60658","STEVENS CREEK & BLANEY","","37.323061342999999","-122.023577836","1"
"568","60568","STEVENS CREEK & TORRE","","37.322755753000003","-122.027012891","1"
"2127","62127","HOMESTEAD & DE ANZA","","37.337443999999998","-122.031419","1"
"2390","62390","REMINGTON & EL CAMINO","","37.361216145999997","-122.025301806","1"
"368","60368","EL CAMINO & REMINGTON","","37.361014124","-122.024322273","1"
"2327","62327","REMINGTON & MICHELANGELO","","37.359929758","-122.025660352","1"
"2392","62392","REMINGTON & AZURE","","37.359072435000002","-122.030302335","1"
"2391","62391","REMINGTON & MANET","","37.359217891","-122.02709969599999","1"
"2325","62325","REMINGTON & AZURE","","37.358904582000001","-122.030020984","1"
"2326","62326","REMINGTON & MANET","","37.358913072","-122.02819356000001","1"
"2386","62386","OLD SAN FRANCISCO & CARROLL","","37.367897382000002","-122.030394509","1"
"2332","62332","OLD SAN FRANCISCO & BAYVIEW","","37.368024447000003","-122.029537662","1"
"2331","62331","OLD SAN FRANCISCO & CENTRAL","","37.367753532000002","-122.026543594","1"
"2387","62387","OLD SAN FRANCISCO & CENTRAL","","37.367504736999997","-122.02556907899999","1"
"484","60484","EL CAMINO & SUNNYVALE","","37.367079865999997","-122.03116447399999","1"
"366","60366","EL CAMINO & SUNNYVALE-SARATOGA","","37.366801877999997","-122.031310042","1"
"483","60483","EL CAMINO & CEZANNE","","37.364829819000001","-122.02843998199999","1"
"367","60367","EL CAMINO & CEZANNE","","37.364502983000001","-122.02852907800001","1"
"2329","62329","FAIR OAKS & IRIS","","37.364502999999999","-122.023926","1"
"2389","62389","FAIR OAKS & IRIS","","37.363030999999999","-122.02469600000001","1"
"482","60482","EL CAMINO & FAIR OAKS","","37.362520637000003","-122.02565934899999","1"
"2328","62328","FAIR OAKS & EL CAMINO","","37.362432062000003","-122.024633728","1"
"2330","62330","OLD SAN FRANCISCO & FAIR OAKS","","37.367599443000003","-122.024692694","1"
"2333","62333","OLD SAN FRANCISCO & CARROLL","","37.368172481000002","-122.03127093000001","1"
"2334","62334","SUNNYVALE & MCKINLEY","","37.374251678999997","-122.02977171800001","1"
"2384","62384","SUNNYVALE & MCKINLEY","","37.374434952999998","-122.02988473000001","1"
"5777","65777","SUNNYVALE & OLIVE","","37.370801999999998","-122.03092700000001","1"
"5778","65778","SUNNYVALE & OLIVE","","37.371122999999997","-122.031013","1"
"2262","62262","MATHILDA & CALIFORNIA","","37.382532986000001","-122.03239806400001","1"
"2383","62383","SUNNYVALE & HENDY","","37.378277662999999","-122.028307154","1"
"1338","61338","FRANCES & OLSON (SVLE TRANSIT CTR)","","37.377337165","-122.031172349","1"
"864","60864","FRANCES & OLSON (SVLE TRANSIT CTR)","","37.377260550000003","-122.03105903300001","1"
"2335","62335","SUNNYVALE & EVELYN","","37.377606843999999","-122.02843175","1"
"2191","62191","EVELYN & FRANCES","","37.378179033999999","-122.031132343","1"
"863","60863","EVELYN & MARSHALL","","37.375893914999999","-122.024934116","1"
"865","60865","EVELYN & BAYVIEW","","37.376180298000001","-122.025720634","1"
"2190","62190","FRANCES & OLSON (SVLE TRANSIT CTR)","","37.377590771999998","-122.030961977","1"
"5472","65472","EVELYN & FRANCES","","37.378028999999998","-122.03118600000001","1"
"2282","62282","MATHILDA & MAUDE","","37.389110903999999","-122.030811453","1"
"2380","62380","MAUDE & SUNNYVALE","","37.387568149000003","-122.023896408","1"
"2338","62338","MAUDE & SUNNYVALE","","37.387532821999997","-122.02425318","1"
"2263","62263","MATHILDA & INDIO","","37.386732152999997","-122.031040672","1"
"2283","62283","MATHILDA & INDIO","","37.385710396999997","-122.03174740999999","1"
"2381","62381","SUNNYVALE & HAZELTON","","37.385770712999999","-122.02582173","1"
"2337","62337","SUNNYVALE & HAZELTON","","37.386042838000002","-122.02559286100001","1"
"2382","62382","SUNNYVALE & CENTRAL","","37.382791163","-122.026808121","1"
"2336","62336","SUNNYVALE & CENTRAL","","37.382790305999997","-122.02663660100001","1"
"5629","65629","MATHILDA & INDIO","","37.385931999999997","-122.03134","1"
"2265","62265","MATHILDA & SAN ALESO","","37.394217380000001","-122.028961125","1"
"2281","62281","MATHILDA & DEL REY","","37.391756551999997","-122.030130009","1"
"2264","62264","MATHILDA & MAUDE","","37.390236667000003","-122.03022868399999","1"
"2280","62280","MATHILDA & ALMANOR","","37.395319018999999","-122.029022729","1"
"2266","62266","MATHILDA & ROSS","","37.401422873999998","-122.026836659","1"
"2279","62279","MATHILDA & ROSS","","37.401514331000001","-122.027267528","1"
"2267","62267","MATHILDA & MOFFETT PARK","","37.405950850000004","-122.02588673699999","1"
"4699","64699","LOCKHEED MARTIN TRANSIT CENTER","","37.410616652999998","-122.027698778","1"
"4477","64477","LOCKHEED MARTIN TRANSIT CENTER","","37.410353266000001","-122.02751598899999","1"
"849","60849","LOCKHEED MARTIN TRANSIT CENTER","","37.410439803000003","-122.027922437","1"
"2271","62271","LOCKHEED MARTIN TRANSIT CENTER","","37.410482665000004","-122.02811701","1"
"4471","64471","MATHILDA & JAVA","","37.414827596999999","-122.024927335","1"
"4485","64485","1ST & C STREET","","37.417768025000001","-122.026916388","1"
"5029","65029","1ST & MATHILDA","","37.417844141000003","-122.02667217600001","1"
"1203","61203","SARATOGA & HERRIMAN","","37.265305290000001","-122.021895887","1"
"1045","61045","SARATOGA & ST ANDREWS","","37.270687230999997","-122.015705637","1"
"1205","61205","SARATOGA & FRUITVALE","","37.270933823999997","-122.01476536200001","1"
"1206","61206","FRUITVALE & SARATOGA","","37.270606692000001","-122.014154101","1"
"1044","61044","FRUITVALE & ALLENDALE","","37.267661834999998","-122.01365033800001","1"
"1207","61207","FRUITVALE & ALLENDALE","","37.267770888000001","-122.013967436","1"
"1046","61046","SARATOGA & ROSSMERE","","37.269346911","-122.01786662400001","1"
"1204","61204","SARATOGA & ROSSMERE","","37.268991341000003","-122.01807479","1"
"892","60892","PROSPECT & MILLER","","37.293400013000003","-122.014093493","1"
"890","60890","MILLER & WISTERIA","","37.297520507999998","-122.01508386899999","1"
"1002","61002","MILLER & SQUIREDELL","","37.295436795000001","-122.01486818399999","1"
"891","60891","MILLER & SQUIREDELL","","37.294984777000003","-122.01506841699999","1"
"1001","61001","PROSPECT & MILLER","","37.293673200000001","-122.014567912","1"
"1003","61003","MILLER & DIAL","","37.299445364999997","-122.014896123","1"
"887","60887","MILLER & BALSAMO","","37.306366359000002","-122.014973926","1"
"1006","61006","MILLER & BALSAMO","","37.306554716000001","-122.014719562","1"
"1005","61005","MILLER & WHITECLIFF","","37.304216044","-122.014950939","1"
"888","60888","MILLER & BANCROFT","","37.303811330000002","-122.015142639","1"
"1004","61004","MILLER & RAINBOW","","37.301598970000001","-122.01491781999999","1"
"889","60889","MILLER & RAINBOW","","37.300651649000002","-122.015097275","1"
"841","60841","BOLLINGER & ALDERBROOK","","37.310177475000003","-122.017945603","1"
"703","60703","BOLLINGER & ALDERBROOK","","37.310037856999998","-122.017517254","1"
"881","60881","WOLFE @ VALLCO MALL","","37.326974251000003","-122.014619901","1"
"657","60657","STEVENS CREEK & PORTAL","","37.323076661999998","-122.020008209","1"
"656","60656","STEVENS CREEK & WOLFE","","37.32308347","-122.01512316199999","1"
"569","60569","STEVENS CREEK & BLANEY","","37.322798613000003","-122.022398055","1"
"570","60570","STEVENS CREEK & PORTAL","","37.322812411000001","-122.01926924199999","1"
"882","60882","MILLER & RICHWOOD","","37.322029573000002","-122.01432217999999","1"
"880","60880","WOLFE & PRUNERIDGE","","37.334441120999998","-122.014414727","1"
"2129","62129","HOMESTEAD & BLAINEY","","37.337544000000001","-122.022749","1"
"5837","65837","HOMESTEAD & BLAINEY","","37.337727999999998","-122.023939","1"
"481","60481","EL CAMINO & MARIA","","37.356205610000004","-122.01802759","1"
"369","60369","EL CAMINO & MARIA","","37.355394701000002","-122.017514307","1"
"2388","62388","FAIR OAKS & OLD SAN FRANCISCO","","37.366901865999999","-122.02337706900001","1"
"1027","61027","FAIR OAKS & OLD SAN FRANCISCO","","37.367710252000002","-122.02289149000001","1"
"1026","61026","OLD SAN FRANCISCO & CREEK","","37.366931909000002","-122.020059777","1"
"868","60868","OLD SAN FRANCISCO & FAIR OAKS","","37.367050032000002","-122.02203333600001","1"
"869","60869","OLD SAN FRANCISCO & IRONWOOD","","37.366686762999997","-122.019250146","1"
"1337","61337","EVELYN & FAIR OAKS","","37.373316797999998","-122.020454039","1"
"1295","61295","EVELYN & FAIR OAKS","","37.373157448999997","-122.02048708300001","1"
"1029","61029","FAIR OAKS & EVELYN","","37.372881251000003","-122.02119116900001","1"
"866","60866","FAIR OAKS & BRYAN","","37.372507366000001","-122.02153998999999","1"
"862","60862","EVELYN & DEODAR","","37.373959161999998","-122.022606571","1"
"867","60867","FAIR OAKS & OLIVE","","37.369381764000003","-122.022550802","1"
"1028","61028","FAIR OAKS & OLIVE","","37.369753566999997","-122.02221529400001","1"
"1296","61296","EVELYN & WOLFE","","37.371069867000003","-122.016007195","1"
"5724","65724","EVELYN & HOLLY TERRACE","","37.372453","-122.01778","1"
"5725","65725","EVELYN & HOLLY TERRACE","","37.372697000000002","-122.017912","1"
"860","60860","FAIR OAKS & ARQUES","","37.380921270999998","-122.018763259","1"
"861","60861","FAIR OAKS & CALIFORNIA","","37.379948458999998","-122.019093864","1"
"1031","61031","FAIR OAKS & CALIFORNIA","","37.379939653999998","-122.018885846","1"
"1030","61030","FAIR OAKS & KIFER","","37.377351349000001","-122.019616848","1"
"1032","61032","FAIR OAKS & ARQUES","","37.381968418","-122.018214325","1"
"2404","62404","ARQUES & FAIR OAKS","","37.381489537","-122.017938168","1"
"5726","65726","KIFER & HENDY","","37.376378000000003","-122.01924699999999","1"
"2379","62379","MAUDE & MORSE","","37.386566590999998","-122.020815386","1"
"2339","62339","MAUDE & MORSE","","37.386661001","-122.021575928","1"
"2378","62378","MAUDE & FAIR OAKS","","37.385459795999999","-122.017512905","1"
"2340","62340","MAUDE & FAIR OAKS","","37.385473425999997","-122.017957506","1"
"859","60859","FAIR OAKS & MAUDE","","37.384857768000003","-122.01746544","1"
"1033","61033","FAIR OAKS & MAUDE","","37.384967967999998","-122.017213364","1"
"1042","61042","JAVA & BORDEAUX","","37.413343067","-122.02270492300001","1"
"1041","61041","JAVA & BORREGAS","","37.411868951000002","-122.018303868","1"
"851","60851","JAVA & BORDEAUX","","37.412284012999997","-122.02158656500001","1"
"852","60852","JAVA & BORREGAS","","37.411411326","-122.017639372","1"
"850","60850","JAVA & MATHILDA","","37.413825774000003","-122.02401741200001","1"
"2622","62622","SARATOGA & VIA MONTE","","37.272657786000003","-122.01274767300001","1"
"2571","62571","SARATOGA & KERWIN RANCH CT","","37.272238616000003","-122.012810203","1"
"2570","62570","ALLENDALE & PORTOS","","37.267767716999998","-122.00531025399999","1"
"2494","62494","ALLENDALE & PORTOS","","37.267683927999997","-122.00543596200001","1"
"4999","64999","WEST VALLEY TRANSIT CENTER","","37.266423783999997","-122.01286444599999","1"
"4998","64998","WEST VALLEY TRANSIT CENTER","","37.266310023999999","-122.013011678","1"
"4997","64997","WEST VALLEY TRANSIT CENTER","","37.266228239999997","-122.01321572000001","1"
"4996","64996","WEST VALLEY TRANSIT CENTER","","37.266196911999998","-122.01341821600001","1"
"2620","62620","SARATOGA & VINEYARD","","37.277983429999999","-122.006394998","1"
"2621","62621","SARATOGA & HIGHWAY 85","","37.274862702999997","-122.010212267","1"
"2572","62572","SARATOGA & DAGMAR","","37.275495141","-122.009297929","1"
"2573","62573","SARATOGA & HIGHWAY 85","","37.27832136","-122.005681258","1"
"999","60999","PROSPECT & JOHNSON","","37.293451904000001","-122.008079344","1"
"893","60893","PROSPECT & PROVINCETOWN","","37.293289852999997","-122.010623147","1"
"894","60894","PROSPECT & JOHNSON","","37.293198154999999","-122.007454045","1"
"1000","61000","PROSPECT & PROVINCETOWN","","37.293561056000001","-122.011103374","1"
"1008","61008","MILLER & DISNEY","","37.313553988999999","-122.013265631","1"
"885","60885","MILLER & DISNEY","","37.313179581","-122.01348158899999","1"
"840","60840","BOLLINGER & MILLER","","37.310407095999999","-122.014286259","1"
"839","60839","BOLLINGER & TANTAU","","37.310799136999997","-122.00822052300001","1"
"886","60886","MILLER & BOLLINGER","","37.310007159000001","-122.013730383","1"
"704","60704","BOLLINGER & MILLER","","37.310394328000001","-122.011676283","1"
"1007","61007","MILLER & BOLLINGER","","37.309619441999999","-122.01359267399999","1"
"705","60705","BOLLINGER & TULLIPAN","","37.310620888999999","-122.008408436","1"
"1010","61010","MILLER & GREENWOOD","","37.318880589999999","-122.013462588","1"
"883","60883","MILLER & GREENWOOD","","37.318401944000001","-122.013459185","1"
"884","60884","MILLER & PHIL","","37.315987163000003","-122.013423585","1"
"1009","61009","MILLER & PHIL","","37.315875179999999","-122.013224632","1"
"1013","61013","WOLFE @ VALLCO MALL","","37.327150400999997","-122.014076491","1"
"1012","61012","WOLFE & STEVENS CREEK","","37.323736930000003","-122.01409408000001","1"
"655","60655","STEVENS CREEK & FINCH","","37.323102497999997","-122.01090635600001","1"
"654","60654","STEVENS CREEK & TANTAU","","37.323160798000004","-122.00695475000001","1"
"571","60571","STEVENS CREEK & MILLER","","37.322808875","-122.013716515","1"
"572","60572","STEVENS CREEK & FINCH","","37.322841713999999","-122.009638841","1"
"573","60573","STEVENS CREEK & TANTAU","","37.322898844000001","-122.006167006","1"
"1011","61011","MILLER & RICHWOOD","","37.321908006999998","-122.01408054300001","1"
"1599","61599","VALLCO PARKWAY & PERIMETER","","37.325707000000001","-122.01126600000001","1"
"4636","64636","VALLCO PARKWAY & PERIMETER","","37.325460999999997","-122.01205299999999","1"
"1014","61014","WOLFE & PRUNERIDGE","","37.335024488000002","-122.014093958","1"
"4094","64094","TANTAU & PRUNERIDGE","","37.332789476999999","-122.005906826","1"
"4095","64095","TANTAU & PRUNERIDGE","","37.329802196999999","-122.005946665","1"
"878","60878","WOLFE & INVERNESS","","37.341126375999998","-122.014356251","1"
"1015","61015","WOLFE & HOMESTEAD","","37.338164644000003","-122.014102982","1"
"879","60879","WOLFE & HOMESTEAD","","37.337173999999997","-122.014398","1"
"877","60877","WOLFE & MARION","","37.345561773999997","-122.014328632","1"
"1017","61017","WOLFE & MARION","","37.345171827000001","-122.014133423","1"
"1016","61016","WOLFE & INVERNESS","","37.341672561000003","-122.014143472","1"
"874","60874","WOLFE & EL CAMINO","","37.354196408999996","-122.014230263","1"
"1021","61021","WOLFE & EL CAMINO (MD)","","37.354945061000002","-122.01400158","1"
"480","60480","EL CAMINO & WOLFE","","37.353773879999999","-122.01497682","1"
"370","60370","EL CAMINO & WOLFE","","37.352607605000003","-122.01339892599999","1"
"1020","61020","WOLFE & EL CAMINO (NS)","","37.352503282999997","-122.013999915","1"
"479","60479","EL CAMINO & POPLAR","","37.352339559999997","-122.00785810000001","1"
"371","60371","EL CAMINO & POPLAR","","37.352064984999998","-122.00742251299999","1"
"875","60875","WOLFE & FREMONT","","37.351302990000001","-122.014408218","1"
"1019","61019","WOLFE & ELEANOR","","37.350946720000003","-122.01416866700001","1"
"1018","61018","WOLFE & ELIZABETH","","37.348438674000001","-122.014154789","1"
"876","60876","WOLFE & ELIZABETH","","37.348210281","-122.014354997","1"
"872","60872","WOLFE & GARY","","37.359249235999997","-122.014254433","1"
"1023","61023","WOLFE & PRIMROSE","","37.359226800000002","-122.01404954900001","1"
"873","60873","WOLFE & MARIA","","37.356699622000001","-122.01423909499999","1"
"1022","61022","WOLFE & MARIA","","37.356657611000003","-122.01404204400001","1"
"1335","61335","REED & WOLFE","","37.366738744999999","-122.013285962","1"
"870","60870","WOLFE & OLD SAN FRANCISCO","","37.365743979000001","-122.01411845299999","1"
"1024","61024","WOLFE & IRIS","","37.362654628000001","-122.01406843300001","1"
"871","60871","WOLFE & IRIS","","37.36226989","-122.01427288799999","1"
"1025","61025","OLD SAN FRANCISCO & WOLFE","","37.366652576","-122.014556609","1"
"1334","61334","REED & SEQUOIA","","37.366795351999997","-122.008603411","1"
"1297","61297","REED & WOLFE","","37.366587656","-122.01309687299999","1"
"1298","61298","REED & SEQUOIA","","37.366636346","-122.007951013","1"
"4557","64557","WOLFE & KIFER","","37.375626085999997","-122.013598712","1"
"1920","61920","KIFER & SAN LAZARO","","37.374854067000001","-122.012245803","1"
"1336","61336","EVELYN & WOLFE","","37.370901668999998","-122.015128076","1"
"2491","62491","ARQUES & WOLFE","","37.381077458999997","-122.012988393","1"
"1918","61918","ARQUES & DEGUIGNE","","37.380999911000004","-122.00775380899999","1"
"2405","62405","ARQUES & WOLFE","","37.380885091000003","-122.013037291","1"
"1919","61919","WOLFE & ARQUES","","37.380464748999998","-122.012244681","1"
"5638","65638","WOLFE & ARQUES","","37.380348210000001","-122.01194","1"
"5784","65784","WOLFE & CENTRAL","","37.377127999999999","-122.013553","1"
"1034","61034","FAIR OAKS & DUANE","","37.389207048999999","-122.014833005","1"
"2377","62377","DUANE & SAN JUAN","","37.388295782999997","-122.01192221700001","1"
"2376","62376","DUANE & SAN LUISITO","","37.388359469999997","-122.009310164","1"
"2343","62343","DUANE & SAN LUISITO","","37.388202614000001","-122.00898437399999","1"
"2342","62342","DUANE & SAN JUAN","","37.388141586000003","-122.01160192","1"
"2341","62341","DUANE & FAIR OAKS","","37.388619071000001","-122.01464160800001","1"
"858","60858","FAIR OAKS & CYPRESS","","37.387849039999999","-122.01549549400001","1"
"1917","61917","DEGUIGNE & STEWART","","37.383647920000001","-122.00726318","1"
"5639","65639","DEGUIGNE & STEWART","","37.383218999999997","-122.007126","1"
"2351","62351","HIDDENLAKE & GREENLAKE","","37.396678166000001","-122.00800927500001","1"
"1035","61035","FAIR OAKS & CALIENTE","","37.391543736000003","-122.014056096","1"
"857","60857","FAIR OAKS & SAN CONRADO","","37.391652592","-122.01426603199999","1"
"855","60855","FAIR OAKS & TASMAN","","37.40249704","-122.01067612999999","1"
"1037","61037","FAIR OAKS & TASMAN","","37.403476495","-122.009991208","1"
"856","60856","FAIR OAKS & WEDDELL","","37.399068919000001","-122.011789304","1"
"1036","61036","FAIR OAKS & WEDDELL","","37.398809487999998","-122.01159208200001","1"
"4470","64470","CROSSMAN & JAVA","","37.410405050000001","-122.010489327","1"
"1039","61039","JAVA & CROSSMAN","","37.409509855000003","-122.011550884","1"
"854","60854","JAVA & CROSSMAN","","37.409246379000002","-122.01177395400001","1"
"4486","64486","CROSSMAN & JAVA","","37.409344415","-122.01061977400001","1"
"1038","61038","FAIR OAKS & FAIR OAKS WAY","","37.404866277000004","-122.009579805","1"
"1040","61040","JAVA & GENEVA","","37.411067699","-122.014530021","1"
"853","60853","JAVA & GENEVA","","37.410539907","-122.013574483","1"
"4487","64487","CROSSMAN & BALTIC","","37.414146529","-122.009012865","1"
"4469","64469","CROSSMAN & BALTIC","","37.413205812000001","-122.009552661","1"
"2569","62569","ALLENDALE & CHESTER","","37.267228402000001","-121.99924078700001","1"
"2495","62495","ALLENDALE & CHESTER","","37.267126007999998","-121.999190977","1"
"2618","62618","SARATOGA & WOODDELL","","37.284550400000001","-121.999740905","1"
"2575","62575","SARATOGA & BUCKNALL","","37.284779403999998","-121.999163622","1"
"2619","62619","SARATOGA & COX","","37.281018404000001","-122.003373083","1"
"2574","62574","SARATOGA & COX","","37.281425913","-122.002534055","1"
"998","60998","PROSPECT & BROOKGLEN","","37.293273266","-122.00459403000001","1"
"997","60997","PROSPECT & ENGLISH","","37.293114105999997","-122.002595766","1"
"996","60996","PROSPECT & LYLE","","37.292876380000003","-122.00067155399999","1"
"895","60895","PROSPECT & ENGLISH","","37.292893016999997","-122.002942672","1"
"2617","62617","SARATOGA & KOSICH","","37.287660291999998","-121.996593183","1"
"896","60896","PROSPECT & LYLE","","37.292640132999999","-122.000711649","1"
"838","60838","BOLLINGER & JOHNSON","","37.310405549000002","-122.003310176","1"
"837","60837","BOLLINGER & WUNDERLICH","","37.309934650999999","-121.998471028","1"
"706","60706","BOLLINGER & JOHNSON","","37.310156804000002","-122.00268051400001","1"
"707","60707","BOLLINGER & WUNDERLICH","","37.309668289000001","-121.997896516","1"
"653","60653","STEVENS CREEK & INTERSTATE-280","","37.323136431000002","-122.002412131","1"
"574","60574","STEVENS CREEK & STERN","","37.322872341999997","-122.002991955","1"
"575","60575","STEVENS CREEK & INTERSTATE-280","","37.322880490999999","-121.997435776","1"
"3967","63967","TANTAU & PRUNERIDGE","","37.332747165999997","-122.005735465","1"
"4092","64092","HOMESTEAD & SWALLOW","","37.337860845999998","-122.002310589","1"
"4091","64091","HOMESTEAD & CALABAZAS CRK","","37.337876776000002","-122.000227254","1"
"3971","63971","HOMESTEAD & LAWRENCE","","37.337630341000001","-121.99901312199999","1"
"4093","64093","TANTAU & HOMESTEAD","","37.335958238000003","-122.005471773","1"
"3968","63968","TANTAU & FORGE","","37.336338365000003","-122.00529826899999","1"
"3970","63970","HOMESTEAD & SWALLOW","","37.337645928000001","-122.002317807","1"
"478","60478","EL CAMINO & SYCAMORE","","37.3523742","-122.00315195","1"
"477","60477","EL CAMINO & LAWRENCE","","37.352475550000001","-121.99816250000001","1"
"372","60372","EL CAMINO & HENDERSON","","37.352068438000003","-122.00454134100001","1"
"373","60373","EL CAMINO & HALFORD","","37.352122461999997","-121.99857378199999","1"
"1332","61332","REED & WILLOW","","37.366951764","-121.998590822","1"
"1299","61299","REED & EVELYN","","37.366621989999999","-122.002741923","1"
"1333","61333","REED & EVELYN","","37.366851672000003","-122.004313719","1"
"4555","64555","KIFER & NATIONAL SEMICONDUCTER","","37.373990827","-122.002411232","1"
"1922","61922","KIFER & NATIONAL SEMICONDUCTER","","37.373802091999998","-122.00192448599999","1"
"2490","62490","ARQUES & SANTA TRINITA (MD)","","37.380924190999998","-122.00535590299999","1"
"2489","62489","ARQUES & SANTA TRINITA (FS)","","37.380585429999996","-122.00246148399999","1"
"2406","62406","ARQUES & COMMERCIAL (FS)","","37.380817249000003","-122.006932042","1"
"2408","62408","ARQUES & SANTA TRINITA","","37.380403653999998","-122.001151517","1"
"2407","62407","ARQUES & COMMERCIAL (MD)","","37.380580053999999","-122.004190245","1"
"1914","61914","SANTA TRINITA & ARQUES","","37.381610842000001","-122.000515139","1"
"4690","64690","SANTA TRINITA & ARQUES","","37.380992890000002","-122.00072479000001","1"
"5651","65651","SANTA TRINITA & ARQUES","","37.381900999999999","-122.000625","1"
"2375","62375","DUANE & SANTA PAULA","","37.388445785000002","-122.006012219","1"
"2374","62374","DUANE & DEGUIGNE","","37.388481749","-122.004142327","1"
"2373","62373","DUANE & SAN SIMEON","","37.388581744","-122.00063731","1"
"2344","62344","DUANE & SANTA PAULA","","37.388276849999997","-122.006243271","1"
"2345","62345","DUANE & SAN RAFAEL","","37.388349650999999","-122.00305901900001","1"
"2346","62346","DUANE & SAN SIMEON","","37.388414963000002","-122.000543678","1"
"1916","61916","STEWART & DEGUIGNE","","37.383986178999997","-122.00494203","1"
"4687","64687","STEWART & DEGUIGNE","","37.383882","-122.005786","1"
"1915","61915","STEWART & SANTA TRINITA","","37.384051999999997","-122.000193","1"
"4689","64689","STEWART & SANTA TRINITA","","37.384166","-122.000297","1"
"2352","62352","LAKEHAVEN & JADELAKE","","37.395911275000003","-122.005389337","1"
"2353","62353","LAKEHAVEN & SILVERLAKE","","37.395966848999997","-121.998727578","1"
"2350","62350","LAKEBIRD & MEADOWLAKE","","37.399141184999998","-122.00381691699999","1"
"2349","62349","LAKEBIRD & SILVERLAKE","","37.399317648999997","-121.999117747","1"
"5697","65697","TASMAN & VIENNA","","37.403492","-122.000029","1"
"4468","64468","CARIBBEAN & MOFFETT PARK","","37.412399526999998","-122.000448081","1"
"4488","64488","CARIBBEAN & MOFFETT PARK","","37.412152829999997","-122.000728536","1"
"5543","65543","POLLARD & ELWOOD","","37.263648070999999","-121.988214337","1"
"5687","65687","QUITO & RAVENSWOOD","","37.265358679999999","-121.99313145000001","1"
"5688","65688","QUITO & RAVENSWOOD","","37.265475180000003","-121.99301487","1"
"2567","62567","QUITO & ASPESI","","37.270105962000002","-121.993720555","1"
"2496","62496","QUITO & MONTPERE","","37.268469113999998","-121.993312653","1"
"2568","62568","QUITO & MONTPERE","","37.267914423000001","-121.993419343","1"
"2497","62497","QUITO & WESTMONT","","37.272451822000001","-121.993753497","1"
"2566","62566","QUITO & SOUSA","","37.272374829","-121.993939141","1"
"2565","62565","QUITO & CLEMSON","","37.277773351999997","-121.99441506300001","1"
"2498","62498","QUITO & MCCOY","","37.276377498999999","-121.994090597","1"
"2562","62562","QUITO & PASEO FLORES","","37.286638283999999","-121.99460419","1"
"2501","62501","QUITO & NORTHLAWN","","37.285478087999998","-121.994358335","1"
"2563","62563","QUITO & PASEO OLIVOS","","37.284843418999998","-121.99454579","1"
"2499","62499","QUITO & BAYLOR","","37.280497674000003","-121.99421234499999","1"
"2564","62564","QUITO & PASEO TIERRA","","37.282456998999997","-121.99447337399999","1"
"2559","62559","SARATOGA & GRAVES","","37.293570111999998","-121.990142879","1"
"995","60995","PROSPECT & SARATOGA","","37.292096119999997","-121.993696945","1"
"2560","62560","SARATOGA & PROSPECT (NS)","","37.292289764000003","-121.991612379","1"
"2233","62233","SARATOGA & CAMPBELL","","37.292359413","-121.99106240499999","1"
"994","60994","CAMPBELL & SARATOGA","","37.290871125000002","-121.990870876","1"
"897","60897","PROSPECT & SARATOGA","","37.291838599999998","-121.99359455600001","1"
"2615","62615","SARATOGA & PROSPECT (FS)","","37.291192027000001","-121.992877929","1"
"898","60898","CAMPBELL & SARATOGA","","37.290908361","-121.991495148","1"
"2502","62502","SARATOGA & QUITO (MD)","","37.289928039999999","-121.993854231","1"
"2616","62616","SARATOGA & LAWRENCE","","37.288962212000001","-121.99526584900001","1"
"2561","62561","QUITO & SARATOGA","","37.288137225","-121.994652981","1"
"2576","62576","SARATOGA & QUITO (NS)","","37.288054424999999","-121.995773313","1"
"899","60899","CAMPBELL & NORTHLAWN","","37.288092132999999","-121.987518892","1"
"2558","62558","SARATOGA & ATHERTON","","37.295404320999999","-121.987990576","1"
"2234","62234","SARATOGA & GRAVES","","37.294170082000001","-121.98897700800001","1"
"836","60836","MOORPARK & LAWRENCE","","37.309588263999999","-121.994627572","1"
"709","60709","WILLIAMS & MOORPARK","","37.308823857999997","-121.99329005200001","1"
"835","60835","WILLIAMS & HAPPY VALLEY","","37.308645945999999","-121.989594682","1"
"710","60710","WILLIAMS & HAPPY VALLEY","","37.308476466000002","-121.990206925","1"
"4433","64433","LAWRENCE & MOORPARK","","37.310049177000003","-121.995685982","1"
"4452","64452","LAWRENCE & BOLLINGER","","37.309336416000001","-121.99630121600001","1"
"708","60708","MOORPARK & LAWRENCE","","37.309415107","-121.995280913","1"
"651","60651","STEVENS CREEK & CABOT","","37.323182082999999","-121.99297685400001","1"
"650","60650","STEVENS CREEK & RODONOVAN","","37.323200489000001","-121.990602521","1"
"576","60576","STEVENS CREEK & LOMA LINDA","","37.322919046999999","-121.992759014","1"
"577","60577","STEVENS CREEK & CASA VIEW","","37.322952102999999","-121.989141565","1"
"4594","64594","LAWRENCE & PRUNERIDGE","","37.332251583999998","-121.995332519","1"
"4604","64604","LAWRENCE & PRUNERIDGE","","37.330266025","-121.99576298700001","1"
"4090","64090","HOMESTEAD & LAWRENCE","","37.337915000000002","-121.996467","1"
"4089","64089","HOMESTEAD & BING","","37.337923818999997","-121.99330609800001","1"
"3972","63972","HOMESTEAD & PRINCETON","","37.337728779999999","-121.99255694999999","1"
"4595","64595","LAWRENCE & HOMESTEAD","","37.33881658","-121.995459986","1"
"4603","64603","LAWRENCE & HOMESTEAD","","37.336657664000001","-121.99590847","1"
"476","60476","EL CAMINO & FLORA VISTA","","37.352502430000001","-121.99381823","1"
"374","60374","EL CAMINO & FLORA VISTA","","37.352220234000001","-121.99253311699999","1"
"4602","64602","LAWRENCE & EL CAMINO","","37.351217368","-121.996817886","1"
"1330","61330","MONROE & MONTICELLO","","37.366973496","-121.990743384","1"
"1300","61300","REED & LAWRENCE","","37.366703827000002","-121.99722425100001","1"
"1302","61302","MONROE & MONTICELLO","","37.366808020999997","-121.99058531199999","1"
"1331","61331","MONROE & LAWRENCE","","37.366954917999998","-121.99462129200001","1"
"1301","61301","MONROE & PACIFIC","","37.366762639000001","-121.994512344","1"
"4596","64596","LAWRENCE EXPWY & KIFER","","37.374612622999997","-121.995769368","1"
"4553","64553","KIFER & COPPER","","37.374044914999999","-121.993721898","1"
"1904","61904","KIFER & COPPER","","37.373910307000003","-121.991410694","1"
"4601","64601","LAWRENCE & KIFER","","37.374823382999999","-121.996171754","1"
"5473","65473","KIFER & SAN YSIDRO","","37.373808590000003","-121.99785144000001","1"
"1913","61913","ARQUES & LAWRENCE","","37.380618871000003","-121.996988436","1"
"2409","62409","ARQUES & LAWRENCE","","37.380385363000002","-121.998443704","1"
"4600","64600","LAWRENCE & ARQUES","","37.379659617000002","-121.99614366199999","1"
"2410","62410","ARQUES & LAKESIDE","","37.380377451999998","-121.993008015","1"
"1912","61912","ARQUES & LAKESIDE","","37.380592180000001","-121.99301093699999","1"
"4597","64597","LAWRENCE & ARQUES","","37.381217290000002","-121.995657442","1"
"2372","62372","DUANE & LAWRENCE","","37.386953247000001","-121.996761144","1"
"2347","62347","LAWRENCE & OAKMEAD","","37.387673720000002","-121.99564793499999","1"
"4599","64599","LAWRENCE & DUANE","","37.385981723999997","-121.996146311","1"
"2354","62354","LAKEHAVEN & TWINLAKE","","37.395970245999997","-121.99687775","1"
"2348","62348","LAKEHAVEN & TWINLAKE","","37.396145562999997","-121.99715746699999","1"
"2367","62367","LAWRENCE & TASMAN","","37.402637827","-121.99602552","1"
"2362","62362","TASMAN & BIRCHWOOD","","37.403233495999999","-121.992104455","1"
"2368","62368","LAKEBIRD & LAWRENCE","","37.399409667999997","-121.99648152100001","1"
"2366","62366","TASMAN & BIRCHWOOD","","37.403498507000002","-121.992906553","1"
"2361","62361","TASMAN & LAWRENCE","","37.403306569999998","-121.994683497","1"
"2355","62355","LAWRENCE & SANDIA","","37.398084461000003","-121.995623627","1"
"4467","64467","LAWRENCE & TASMAN","","37.404462129999999","-121.99574318499999","1"
"1063","61063","UNIVERSITY & MULLEN","","37.223566408000003","-121.981811923","1"
"2791","62791","SANTA CRUZ & MAIN","","37.222231291999996","-121.983920828","1"
"1062","61062","MAIN & SANTA CRUZ","","37.222298228","-121.983564927","1"
"2790","62790","MAIN & CHURCH","","37.221375144","-121.979488655","1"
"2789","62789","MAIN & FIESTA","","37.221226148","-121.977956427","1"
"2695","62695","LOS GATOS CIVIC CENTER","","37.22120529","-121.97910881","1"
"1187","61187","SANTA CRUZ & ANDREWS","","37.231486744000001","-121.979799434","1"
"1067","61067","SANTA CRUZ & ANDREWS","","37.231843505999997","-121.979457153","1"
"1188","61188","SANTA CRUZ & LOS GATOS-SARATOGA","","37.230014009000001","-121.98054232","1"
"1066","61066","SANTA CRUZ & LOS GATOS-SARATOGA","","37.230435116999999","-121.980139388","1"
"1065","61065","LOS GATOS-SARATOGA & UNIVERSTY","","37.228756052999998","-121.980271145","1"
"1061","61061","SANTA CRUZ & NICHOLSON","","37.226047573000002","-121.982318479","1"
"1064","61064","UNIVERSITY & ROYCE","","37.225412022","-121.980786619","1"
"1068","61068","SANTA CRUZ & ROBERTS","","37.233891685000003","-121.978474279","1"
"1186","61186","SANTA CRUZ & OLIVE","","37.233718248000002","-121.97872552699999","1"
"5544","65544","POLLARD & MORE","","37.26413178","-121.986859886","1"
"5545","65545","POLLARD & MORE","","37.264285661000002","-121.985162704","1"
"992","60992","CAMPBELL & CASTRO","","37.286576414999999","-121.98477435","1"
"991","60991","CAMPBELL & ENSENADA","","37.285964499000002","-121.981478843","1"
"900","60900","CAMPBELL & WOODGLEN","","37.286143715999998","-121.984105787","1"
"901","60901","CAMPBELL & FULTON","","37.285823610000001","-121.982159764","1"
"902","60902","CAMPBELL & LA PRADERA","","37.285872220999998","-121.97886786399999","1"
"993","60993","CAMPBELL & FALLBROOK","","37.288296285000001","-121.987406394","1"
"2144","62144","HAMILTON & SAGEMONT","","37.291384006000001","-121.98603471600001","1"
"4453","64453","HAMILTON & SAGEMONT","","37.291006543000002","-121.986050814","1"
"4200","64200","HAMILTON & LATIMER","","37.293866086000001","-121.97973676300001","1"
"2235","62235","ATHERTON & HAMILTON","","37.292825174999997","-121.985271541","1"
"4201","64201","HAMILTON & PARKWEST","","37.292862716000002","-121.98435007","1"
"2556","62556","SARATOGA & LATIMER","","37.29870888","-121.984190278","1"
"2503","62503","SARATOGA & LATIMER","","37.298155299000001","-121.984432169","1"
"2557","62557","SARATOGA & COUNTRY","","37.297181530000003","-121.98594582200001","1"
"2504","62504","SARATOGA & PAYNE","","37.301254794000002","-121.981135834","1"
