stop_id,stop_name,stop_desc,stop_lat,stop_lon
10002,MARKET ST/NEWHALL AV (SR CITIZEN CTR),0,34.377755129804,-118.5294543701
10003,NEWHALL AV/MARKET ST (SR CITIZEN CTR),0,34.377741520986,-118.52942445567
10004,NEWHALL STATION/24300 RAILROAD AV,0,34.379069774385,-118.52729850218
10005,NEWHALL STATION/24300 RAILROAD AV,0,34.379184912844,-118.52672917507
10037,SOLEDAD CANYON RD/SIERRA HWY,0,34.416472052447,-118.45592490966
10074,HETZLER RD/BALDWIN HILLS SCENIC OVERLOOK,0,34.015486236946,-118.38153653573
10081,LA CIENEGA BLVD/JEFFERSON BLVD,0,34.026715991954,-118.37210597861
10083,KENNETH HAHN RECREATION AREA,0,34.009702952301,-118.36974371081
10085,BUFORD AV/10717 BUFORD AV,0,33.9389286623,-118.36354650591
10087,BUFORD AV/10417 BUFORD AV,0,33.941047298693,-118.36353262126
10088,LENNOX BLVD/BURL AV,0,33.938181743434,-118.3624685056
10089,104TH ST/BURL AV,0,33.941808891604,-118.36247430817
10091,LENNOX BLVD/INGLEWOOD AV,0,33.938182349523,-118.36135089058
10092,104TH ST/INGLEWOOD AV,0,33.941809487868,-118.36135994167
10094,LENNOX BLVD/CONDON AV,0,33.93818612136,-118.35916842051
10095,104TH ST/CONDON AV,0,33.941813240232,-118.35918397093
10096,LENNOX BLVD/FIRMONA AV,0,33.93818700829,-118.3570189062
10097,104TH ST/MANSEL AV,0,33.941817353145,-118.35594308697
10100,LENNOX BLVD/BURIN AV,0,33.938190995323,-118.35380123977
10102,111TH ST/METRO STATION,0,33.934591948124,-118.35264539553
10103,LA BREA AV/CENTURY BLVD,0,33.945448586516,-118.35268780036
10105,MYRTLE AV/98TH ST,0,33.947316291472,-118.34919737125
10107,111TH ST/FREEMAN AV,0,33.934577107071,-118.34829703324
10108,LENNOX BLVD/FREEMAN AV,0,33.938198759171,-118.34830219918
10109,FREEMAN AV/106TH ST,0,33.940017824322,-118.348306465
10110,FREEMAN AV/104TH ST,0,33.941814926238,-118.3483040458
10111,E HARDY ST/HOSPITAL ENTRANCE,0,33.949088499904,-118.34830131652
10112,HARDY ST/FLOWER ST,0,33.949093107242,-118.34670217673
10113,FLOWER ST/99TH ST,0,33.946672296533,-118.34668556346
10115,104TH ST/PRAIRIE AV,0,33.941827416222,-118.34395212529
10116,CENTURY BLVD/PRAIRIE AV,0,33.945457304716,-118.34396043473
10118,104TH ST/DOTY AV,0,33.941825471467,-118.33979136859
10119,CENTURY BLVD/DOTY AV,0,33.945463603705,-118.33979953119
10120,104TH ST/YUKON AV,0,33.941835548127,-118.3352086515
10121,YUKON AV/102ND ST,0,33.943646444113,-118.33518622435
10122,CENTURY BLVD/YUKON AV,0,33.945471024488,-118.33518363353
10129,CRENSHAW BLVD/IMPERIAL HWY,0,33.93096688181,-118.32653158343
10130,CRENSHAW BLVD/THOREAU ST,0,33.933753196675,-118.32653255268
10131,108TH ST/CRENSHAW BLVD,0,33.93821571796,-118.32652686787
10133,AGUA DULCE CANYON RD/33201 AGUA DULCE CANYON RD,0,34.493566272677,-118.32626643292
10135,IMPERIAL HWY/VAN NESS AV,0,33.930962690016,-118.31781557167
10136,108TH ST/VAN NESS AV,0,33.938219795321,-118.31780024295
10138,IMPERIAL HWY/WILTON PL,0,33.930968635606,-118.31344441104
10139,108TH ST/GRAMERCY PL,0,33.938220261846,-118.31342208957
10140,120TH ST/WESTERN AV,0,33.924019532332,-118.30911022523
10141,WESTERN AV/L A SOUTHWEST COLLEGE,0,33.929232186821,-118.30911297342
10142,IMPERIAL HWY/WESTERN AV,0,33.93096888486,-118.30908971195
10143,108TH ST/WESTERN AV,0,33.938215006195,-118.30907029005
10145,120TH ST/TROJAN AV,0,33.924032255332,-118.3051943337
10146,108TH ST/DENKER AV,0,33.93821238298,-118.30470201723
10147,108TH ST/DENKER AV&NORMANDIE AV,0,33.938213515275,-118.30316241475
10149,120TH ST/NORMANDIE AV,0,33.923978392559,-118.30038162428
10150,NORMANDIE AV/110TH ST,0,33.935491981057,-118.30033389291
10151,NORMANDIE AV/108TH ST,0,33.938206886555,-118.30032054774
10152,110TH ST/BUDLONG AV,0,33.935502051967,-118.29626251083
10153,120TH ST/BUDLONG AV,0,33.923728191371,-118.29599673927
10154,VERMONT AV/IMPERIAL HWY,0,33.930964851477,-118.29196429344
10155,VERMONT AV/112TH ST,0,33.932833393991,-118.29196091498
10158,VERMONT AV/VERMONT ATHENS STATION,0,33.928613139636,-118.29178138842
10159,VERMONT AV/119TH ST,0,33.925060750214,-118.29154487105
10161,127TH ST/BROADWAY,0,33.917667284347,-118.27834177273
10162,BROADWAY/124TH ST,0,33.920066221974,-118.27831018802
10163,BROADWAY/120TH ST,0,33.923720914027,-118.27828277185
10165,127TH ST/206 W 127TH ST,0,33.91766372606,-118.27630483838
10166,132ND ST/MAIN ST,0,33.912775088555,-118.27399814041
10167,MAIN ST/EL SEGUNDO BLVD,0,33.916416045656,-118.27396719774
10168,127TH ST/MAIN ST,0,33.917660830252,-118.27396137935
10169,IMPERIAL HWY/MAIN ST,0,33.931020923304,-118.27392265068
10170,132ND ST/CARLTON AV,0,33.912794139331,-118.27286774354
10171,JARVIS AV/132ND ST,0,33.912802017355,-118.27181311335
10172,JARVIS AV/130TH ST,0,33.914725534973,-118.27179957701
10173,130TH ST/COOK ST,0,33.914598760528,-118.27074448742
10174,SAN PEDRO ST/135TH ST,0,33.909141216734,-118.26966895134
10175,SAN PEDRO ST/132ND ST,0,33.91278764505,-118.26964772694
10176,EL SEGUNDO BLVD/SAN PEDRO ST,0,33.916417602386,-118.2696198558
10178,SAN PEDRO ST/126TH ST,0,33.918863198804,-118.26961124425
10179,SAN PEDRO ST/122ND ST,0,33.921289568376,-118.26959927421
10180,120TH ST/SAN PEDRO ST,0,33.923718671544,-118.26959390472
10181,IMPERIAL HWY/SAN PEDRO ST,0,33.931195620739,-118.26956192193
10182,EL SEGUNDO BLVD/AVALON BLVD,0,33.916418980606,-118.26528240146
10183,AVALON BLVD/120TH ST,0,33.923711841615,-118.26523956534
10184,AVALON BLVD/AVALON STATION,8818,33.927586343117,-118.26521886638
10185,IMPERIAL HWY/AVALON BLVD,0,33.931048665157,-118.26520015741
10186,EL SEGUNDO BLVD/MCKINLEY AV,0,33.916353119746,-118.26146879227
10189,EL SEGUNDO BLVD/KEENE AV,0,33.916367247497,-118.25745767908
10190,NADEAU ST/CENTRAL AV,0,33.967462843099,-118.25643408694
10191,FLORENCE AV/CENTRAL AV,0,33.974763841161,-118.25645314547
10192,CENTRAL AV/76TH ST,0,33.971515909635,-118.25643990135
10193,CENTRAL AV/76TH PL,0,33.970719045208,-118.25643416321
10194,CENTRAL AV/75TH ST,0,33.972318283793,-118.25643906018
10195,CENTRAL AV/EL SEGUNDO BLVD,0,33.916359910553,-118.25444187326
10196,CENTRAL AV/127TH ST,0,33.917629438476,-118.254429248
10197,CENTRAL AV/123RD ST,0,33.920432299516,-118.25439820502
10198,123RD ST/CENTRAL AV,0,33.92038856382,-118.25428930106
10199,CENTRAL AV/124TH ST,0,33.919732063851,-118.25417853855
10200,FLORENCE AV/CENTRAL AV&HOOPER AV,0,33.974735773394,-118.25413439996
10202,ELVA AV/120TH ST,0,33.923711376577,-118.25266116001
10203,ELVA AV/121ST ST,0,33.922835339028,-118.25241130411
10205,NADEAU ST/HOOPER AV,0,33.967455586104,-118.25205438884
10206,GAGE AV/HOOPER AV,0,33.982096050199,-118.2520951598
10207,HOOPER AV/65TH ST,0,33.98079909282,-118.25208135982
10208,HOOPER AV/70TH ST,0,33.976704826543,-118.25206573677
10209,HOOPER AV/68TH ST,0,33.978408490582,-118.25206756662
10210,HOOPER AV/FLORENCE AV,0,33.974751185645,-118.25202687398
10211,ELVA AV/123RD ST,0,33.920440609618,-118.25174816723
10212,SLATER AV/123RD ST,0,33.920436164974,-118.24992211564
10213,SLATER AV/PARMELEE AV,0,33.922274567216,-118.24987486001
10216,120TH ST/SLATER AV,0,33.923718265788,-118.24935176884
10217,SLATER AV/127TH ST,0,33.917637690228,-118.24916228435
10218,EL SEGUNDO BLVD/SLATER AV,0,33.916275165906,-118.24896706904
10219,79TH ST/COMPTON AV,0,33.967494761373,-118.24773419239
10220,COMPTON AV/83RD ST,0,33.963298889652,-118.24768880375
10221,COMPTON AV/81ST ST,0,33.965788425272,-118.24769616632
10222,NADEAU ST/COMPTON AV,0,33.967431628947,-118.24770102617
10223,COMPTON AV/68TH ST,0,33.978002557783,-118.24772569806
10224,COMPTON AV/68TH ST,0,33.978411985128,-118.24772690926
10225,COMPTON AV/66TH ST,0,33.980011224939,-118.24773164039
10226,COMPTON AV/70TH ST,0,33.97635661179,-118.24771753069
10227,GAGE AV/COMPTON AV,0,33.982074862626,-118.24773114859
10228,COMPTON AV/70TH ST,0,33.976683617604,-118.2477119014
10229,FLORENCE AV/COMPTON AV,0,33.974735410037,-118.24770284037
10230,FIRESTONE BLVD/COMPTON AV,0,33.960144859904,-118.24744534275
10231,120TH ST/COMPTON AV,0,33.923740979065,-118.2463226032
10232,EL SEGUNDO BLVD/COMPTON AV,0,33.916225780317,-118.24625437024
10233,124TH ST/COMPTON AV,0,33.919828214653,-118.24624518019
10235,FLORENCE AV/MIRAMONTE BLVD,0,33.97474260741,-118.24552602653
10236,FLORENCE AV/MIRAMONTE BLVD,0,33.974740376131,-118.2452720559
10237,MAIE AV/88TH ST,0,33.95727448023,-118.24419867177
10238,MAIE AV/FIRESTONE BLVD,0,33.96014596345,-118.24420704369
10240,EMPLOYEE LOT E RDWY/EMPLOYEE LOT E,0,33.924460177967,-118.24398107956
10242,E 120TH ST/MENTAL HEALTH BLDG,0,33.924540804374,-118.24351654183
10243,EL SEGUNDO BLVD/GRANDEE AV,0,33.916215561582,-118.24316605248
10244,FLORENCE AV/GRAHAM AV,0,33.9747363522,-118.24318755984
10245,92ND ST/GRAHAM AV,0,33.95326493262,-118.24305597826
10246,124TH ST/GRANDEE AV,0,33.919834927769,-118.24293594186
10247,92ND ST/GRAHAM AV,0,33.953257843898,-118.24248221205
10248,KING MEDICAL CENTER MAIN ENTRANCE,0,33.923500649151,-118.24151601102
10251,FLORENCE AV/HOLMES AV,0,33.974723844387,-118.2412052849
10252,E 120TH ST/FIRE STATION,0,33.924595792388,-118.24076432383
10253,120TH ST/PARKING LOT C,0,33.924600241869,-118.23991060505
10255,WILMINGTON AV/120TH ST,0,33.924625031303,-118.23988100967
10256,92ND ST/BANDERA ST,0,33.953277224236,-118.23965970281
10257,130TH ST/WILMINGTON AV,0,33.914399109896,-118.23911017024
10258,HAHN PLAZA,0,33.92645107253,-118.23913796961
10259,WILMINGTON AV/124TH ST,0,33.919842564331,-118.23911581449
10260,WILMINGTON AV/EL SEGUNDO BLVD,0,33.916215452441,-118.23909887315
10261,WILMINGTON AV/126TH ST,0,33.918015275667,-118.23910400845
10263,WILMINGTON AV/126TH ST,0,33.918465931547,-118.23909870227
10264,WILMINGTON AV/120TH ST,0,33.923288373339,-118.23910587022
10265,HAHN PLAZA,0,33.926503340018,-118.23910845176
10266,WILMINGTON AV/118TH ST,0,33.925953781772,-118.23910358722
10267,WILMINGTON AV/120TH ST,0,33.924601859054,-118.23909643324
10270,BELL AV/84TH ST,0,33.961777599933,-118.23901129013
10272,BELL AV/81ST ST,0,33.965190525084,-118.2389616684
10273,BELL AV/81ST ST,0,33.965698887175,-118.2389565231
10274,NADEAU ST/BELL AV,0,33.96739432614,-118.23894816874
10275,124TH ST/ANZAC AV,0,33.919841864593,-118.23808084539
10276,WILLOWBROOK AV/IMPERIAL STA,0,33.929453790596,-118.23808837861
10277,WILLOWBROOK AV/IMPERIAL STA,0,33.929426488048,-118.23799929687
10278,FLORENCE AV/BELL AV,0,33.974721739746,-118.23811483388
10279,119TH ST/HAHN PLAZA DRIVEWAY,0,33.924606941056,-118.23791638631
10280,FLORENCE AV/WILSON AV,0,33.974719824373,-118.23769265455
10281,126TH ST/2000 126TH ST,0,33.918026711145,-118.23748900003
10282,FIR AV/92ND ST,0,33.953267886876,-118.23743393862
10283,FIR AV/88TH ST,0,33.956925314193,-118.23741133087
10284,FIR AV/87TH ST,0,33.958521810536,-118.23741255847
10285,FIRESTONE BLVD/FIR AV,0,33.960129291909,-118.2374171149
10286,FIR AV/88TH ST&92ND ST,0,33.95524642207,-118.23739008499
10287,FIR AV/92ND ST&88TH ST,0,33.955298689253,-118.23736055591
10288,NADEAU ST/CROCKETT BLVD,0,33.967384541858,-118.23694299051
10289,119TH ST/WILLOWBROOK AV,0,33.924600557713,-118.23556943063
10290,FLORENCE AV/ALAMEDA ST,0,33.974722868819,-118.23473414778
10291,130TH ST/ARANBE AV,0,33.914400127986,-118.23439379835
10292,ARANBE AV/NORD ST,0,33.911696969974,-118.23402700091
10293,STOCKWELL ST/ARANBE AV,0,33.909738464381,-118.23366559894
10294,124TH ST/WILLOWBROOK AV,0,33.919842306216,-118.23364103582
10295,IMPERIAL HWY/CROESUS AV,0,33.9291523229,-118.23346591366
10296,NADEAU ST/ALAMEDA ST,0,33.967468641,-118.23326931472
10298,126TH ST/WILLOWBROOK AV,0,33.918016871741,-118.23267021794
10299,WILLOWBROOK AV/126TH ST,0,33.918027869391,-118.23266695247
10300,FLORENCE AV/ROSEBERRY AV,0,33.974721626845,-118.23253752098
10301,STOCKWELL ST/OLEANDER AV,0,33.910286906253,-118.23139968832
10302,130TH ST/WILLOWBROOK AV,0,33.914382378846,-118.23077489621
10303,IMPERIAL HWY/MONA BLVD,0,33.929007189814,-118.23034708309
10304,FLORENCE AV/SANTA FE AV,0,33.974712214701,-118.2302815037
10305,NADEAU ST/SANTA FE AV,0,33.967315076374,-118.23024467474
10306,MONA BLVD/117TH ST,0,33.927037836049,-118.22990325383
10307,126TH ST/2411 E 126TH ST,0,33.918020044157,-118.2295818735
10308,MONA BLVD/119TH ST,0,33.924598853882,-118.229326309
10310,WILLOWBROOK AV/PIRU ST,0,33.91031244666,-118.22809087794
10311,MONA BLVD/124TH ST,0,33.919822733124,-118.22807721134
10312,FLORENCE AV/MALABAR ST,0,33.974461455505,-118.22775767385
10313,126TH ST/MONA BLVD,0,33.918018428582,-118.2275350524
10314,ORIS ST/WILLOWBROOK AV,0,33.908445764175,-118.22711358842
10315,130TH ST/MONA BLVD,0,33.914385008366,-118.22649028782
10316,FLORENCE AV/RUGBY AV,0,33.974331850761,-118.22654027916
10317,MONA BLVD/132ND ST,0,33.912597067119,-118.22601086232
10318,BROADWAY/PACIFIC BLVD,0,33.966678804668,-118.22522679526
10319,MONA BLVD/ORIS ST,0,33.908971731307,-118.22504534862
10320,FLORENCE AV/RITA AV,0,33.974053841044,-118.22385148898
10321,SEVILLE AV/SANTA ANA ST,0,33.964705492384,-118.2224579004
10322,FLORENCE AV/SEVILLE AV,0,33.973910761909,-118.22246916052
10323,BROADWAY/SEVILLE AV,0,33.966381719546,-118.22243596951
10324,SANTA ANA ST/COMMERCIAL PL,0,33.964586771155,-118.2212703651
10325,FLORENCE AV/STAFFORD AV,0,33.973786659957,-118.22121881474
10326,MOUNTAIN VIEW AV/SANTA ANA ST,0,33.964340858595,-118.21900081291
10327,MOUNTAIN VIEW AV/CUDAHY ST,0,33.965176612915,-118.2187754462
10328,MOUNTAIN VIEW AV/HILL ST,0,33.966812034364,-118.21852577838
10330,MOUNTAIN VIEW AV/HOPE ST,0,33.969263783076,-118.21815620179
10331,MOUNTAIN VIEW AV/CALIFORNIA ST,0,33.971723774602,-118.217786625
10332,FLORENCE AV/MOUNTAIN VIEW AV,0,33.973405919885,-118.21753044336
10334,HOSPITAL RDWY W/HOSPITAL RDWY N LOT 10,0,34.061143727939,-118.21204344769
10335,HOSPITAL RDWY N/ADA PARKING,0,34.061798729285,-118.21146731659
10338,STATE ST/1200 N STATE ST WELLNESS CENTER,0,34.05933353407,-118.2101008395
10340,HOSPITAL PL/STATE ST LAC + USC,0,34.058517950703,-118.20979505004
10343,SIERRA HWY/CROWN VALLEY RD,0,34.492938711392,-118.19829209581
10349,INDIANA ST/GLEASON AV,0,34.034863073536,-118.192427394
10350,INDIANA ST/3RD ST,0,34.033208890468,-118.1924103882
10351,INDIANA ST/5TH ST,0,34.030235735777,-118.19239365125
10352,INDIANA ST/6TH ST,0,34.028262802923,-118.19237591434
10353,HUBBARD ST/INDIANA ST,0,34.026298119079,-118.19235489696
10354,WHITTIER BLVD/INDIANA ST,0,34.023948742284,-118.19232969636
10355,INDIANA ST/LEE ST,0,34.0219016288,-118.19230519167
10356,INDIANA ST/OLYMPIC BLVD,0,34.018851546829,-118.19228168404
10357,WHITTIER BLVD/HICKS AV,0,34.023905276575,-118.19028019183
10358,WHITTIER BLVD/DITMAN AV,0,34.023906827859,-118.18929344499
10359,HUBBARD ST/DITMAN AV,0,34.026305707916,-118.18929227022
10360,OLYMPIC BLVD/DITMAN AV,0,34.018864588115,-118.18924574185
10361,1ST ST/DITMAN AV,0,34.035994777138,-118.18921186724
10362,POMEROY ST/CITY TERRACE DR,0,34.051037137523,-118.18883983289
10363,CITY TERRACE DR/ROWAN AV,0,34.054463026873,-118.18752041333
10364,OLYMPIC BLVD/ROWAN AV,0,34.018875965552,-118.18723608584
10366,ROWAN AV/DOZIER ST,0,34.041411406962,-118.18706205296
10368,1ST ST/ROWAN AV,0,34.036006425124,-118.18702686623
10369,HUBBARD ST/EASTMAN AV,0,34.026313142683,-118.1862791467
10370,WHITTIER BLVD/EASTMAN AV,0,34.023911545362,-118.18626060077
10371,GAGE AV/EASTMAN AV,0,34.051089034142,-118.18549579341
10372,OLYMPIC BLVD/GAGE AV,0,34.018882178185,-118.18498882008
10373,GAGE AV/UNION PACIFIC AV,0,34.016552010491,-118.1849803703
10374,GAGE AV/HARRIS AV,0,34.049045817869,-118.1847187922
10375,GAGE AV/BLANCHARD ST,0,34.046144103764,-118.1847024831
10376,GAGE AV/HAMMEL ST,0,34.04234110065,-118.18468088494
10377,1ST ST/GAGE AV,0,34.036021059198,-118.18466033577
10378,CESAR E CHAVEZ AV/GAGE AV,0,34.040511043434,-118.18467024428
10380,WHITTIER BLVD/HERBERT AV,0,34.023918091742,-118.1837821887
10381,HUBBARD ST/HERBERT AV,0,34.026311466002,-118.1837874444
10382,UNION PACIFIC AV/HERBERT AV,0,34.016551157643,-118.18373961424
10384,1ST ST/HERBERT AV,0,34.036033826949,-118.18349523577
10385,CITY TERRACE DR/HERBERT AV,0,34.055588415483,-118.18295047195
10388,UNION PACIFIC AV/RECORD AV,0,34.016552970031,-118.18254506234
10389,CESAR E CHAVEZ AV/RECORD AV,0,34.040520135621,-118.18230357403
10390,CITY TERRACE DR/BONNIE BEACH PL,0,34.055800315871,-118.18091725687
10391,UNION PACIFIC AV/DOWNEY RD,0,34.016553949363,-118.18006355618
10392,CESAR E CHAVEZ AV/HAZARD AV,0,34.04052649751,-118.17989398681
10393,CITY TERRACE DR/HAZARD AV,0,34.055676841488,-118.17895264432
10394,1ST ST/SUNOL DR,0,34.036337836785,-118.17866703947
10395,CITY TERRACE DR/MILLER AV,0,34.055642947606,-118.17771453945
10396,UNION PACIFIC AV/AGUSTA AV,0,34.016539379069,-118.17690884212
10397,CITY TERRACE DR/CARMELITA AV,0,34.056128240129,-118.17657657394
10398,CESAR E CHAVEZ AV/MARIANNA AV,0,34.040540817817,-118.17576798786
10399,1ST ST/MARIANNA AV,0,34.03692465831,-118.17575379096
10400,EASTERN AV/MARIANNA AV,0,34.047276713376,-118.1751516299
10401,UNION PACIFIC AV/EASTERN AV,0,34.016534011446,-118.17493550436
10402,EASTERN AV/SHERIFF RD,0,34.051581193825,-118.174229686
10403,EASTERN AV/OLYMPIC BLVD,0,34.018898627457,-118.17392405573
10405,3RD ST/EASTERN AV,0,34.033346888231,-118.17389797467
10406,CITY TERRACE DR/LAFLER DR,0,34.057368634606,-118.17391819296
10407,FLORAL DR/EASTERN AV,0,34.044176541061,-118.17365640432
10408,CESAR E CHAVEZ AV/EASTERN AV,0,34.040549393978,-118.17363897444
10409,1ST ST/EASTERN AV,0,34.036938758394,-118.17360507691
10410,EASTERN AV/GLEASON ST,0,34.035482403375,-118.17359875499
10411,EASTERN AV/LOTTA DR,0,34.053465322386,-118.1729460896
10412,EASTERN AV/RAMONA BLVD,0,34.059631505714,-118.17295553525
10414,EASTERN AV/HAUCK ST,0,34.05404273489,-118.17269307877
10416,FORD BLVD/MINES ST,0,34.019189441952,-118.172327469
10417,EASTERN AV/CITY TERRACE DR,0,34.057563467863,-118.17218531304
10418,3RD ST/HUMPHREYS AV,0,34.033269961516,-118.17197030137
10419,FLORAL DR/HUMPHREYS AV,0,34.044187179887,-118.17198283596
10420,FORD BLVD/VERONA ST,0,34.021495886377,-118.17162930244
10421,CAMPUS RD/CIRCLE DR,0,34.063139616178,-118.17166521414
10422,CESAR E CHAVEZ AV/HUMPHREYS AV,0,34.04056081638,-118.17141424258
10424,WHITTIER BLVD/FORD BLVD,0,34.023307480891,-118.17109509396
10433,FORD BLVD/HUBBARD ST,0,34.025512220435,-118.17041645342
10434,FORD BLVD/HUMPHREYS AV,0,34.026144495348,-118.17022632605
10435,FORD BLVD/6TH ST,0,34.027763679125,-118.16973127124
10436,FORD BLVD/5TH ST,0,34.028943010985,-118.16937392317
10437,CESAR E CHAVEZ AV/FORD BLVD,0,34.040566646583,-118.16922910879
10438,3RD ST/FORD BLVD,0,34.033284911703,-118.16916817604
10439,FORD BLVD/4TH ST,0,34.031485080344,-118.16915793685
10440,WHITTIER BLVD/MCBRIDE AV,0,34.022870744926,-118.16902172174
10441,RAMONA BLVD/SHERIFF RD,0,34.060813684378,-118.16864605931
10442,CIRCLE DR/CAL STATE LA STATION,0,34.06325443561,-118.1681788339
10443,WHITTIER BLVD/MCDONNELL AV,0,34.022657845511,-118.1679949551
10444,RAMONA BLVD/CENTRE PLAZA DR,0,34.060674588133,-118.1678963117
10445,WHITTIER BLVD/ARIZONA AV,0,34.022461282905,-118.16707052971
10446,FLORAL DR/MCDONNELL AV,0,34.044202328557,-118.16706442514
10447,CESAR E CHAVEZ AV/MCDONNELL AV,0,34.040575189658,-118.16704067936
10448,3RD ST/MCDONNELL AV,0,34.033298935674,-118.16698984958
10450,CENTRE PLAZA DR/201 CENTRE PLAZA DR,0,34.05917354199,-118.16642740734
10451,FETTERLY AV/OLYMPIC BLVD,0,34.017813632956,-118.16582378018
10452,UNION PACIFIC AV/FERRIS AV,0,34.01534917296,-118.16555821129
10453,FETTERLY AV/VERONA ST,0,34.020131035478,-118.16512216755
10454,FLORAL DR/DANGLER AV,0,34.044219062427,-118.16488581953
10455,CESAR E CHAVEZ AV/DANGLER AV,0,34.040586436412,-118.16485555572
10456,WHITTIER BLVD/FETTERLY AV,0,34.021937118854,-118.16457791589
10457,3RD ST/ARIZONA AV,0,34.033322547301,-118.16379497555
10458,UNION PACIFIC AV/FRASER AV,0,34.014956057219,-118.16366994007
10459,WHITTIER BLVD/FERRIS AV,0,34.02169685068,-118.16344221597
10460,FRASER AV/OLYMPIC BLVD,0,34.017212976396,-118.16298137364
10461,3RD ST/MEDNIK AV,0,34.033341213201,-118.16218104852
10462,6TH ST/FERRIS AV,0,34.02615303292,-118.16202520807
10463,MEDNIK AV/FLORAL DR,0,34.044212024845,-118.16196444916
10464,MEDNIK AV/FISHER ST,0,34.043302504133,-118.16194948493
10465,MEDNIK AV/HAMMEL ST,0,34.042401227012,-118.16193453698
10466,CESAR E CHAVEZ AV/MEDNIK AV,0,34.040593163909,-118.16191453386
10467,MEDNIK AV/1ST ST,0,34.037034720909,-118.16189114522
10468,FRASER AV/WHITTIER BLVD,0,34.021333715913,-118.16171227255
10470,WHITTIER BLVD/FRASER AV,0,34.021221755951,-118.16118734654
10472,WHITTIER BLVD/CLELA AV,0,34.021131662258,-118.1607482654
10473,WHITTIER BLVD/CLELA AV,0,34.021025167516,-118.16024315273
10474,LA VERNE AV/EAGLE ST,0,34.02818618942,-118.16015785402
10475,CESAR E CHAVEZ AV/BELVEDERE CO PARK,0,34.040598280047,-118.16013869984
10476,6TH ST/FRASER AV,0,34.025691585314,-118.15981975628
10478,LA VERNE AV/4TH ST,0,34.030437598926,-118.15946577313
10479,6TH ST/CLELA AV,0,34.025489473064,-118.15888870571
10480,3RD ST/LA VERNE AV,0,34.033389845039,-118.1586693674
10481,WHITTIER BLVD/ATLANTIC BLVD,0,34.0204080042,-118.15731484564
10482,CESAR E CHAVEZ AV/VANCOUVER AV,0,34.040619198369,-118.15676199507
10484,WHITTIER BLVD/OAKFORD DR,0,34.019777136122,-118.1543040565
10485,6TH ST/HILLVIEW AV,0,34.024468229722,-118.15390678215
10486,BEVERLY BLVD/ATLANTIC BLVD,0,34.032135062842,-118.15365684291
10487,WHITTIER BLVD/GOODRICH BLVD,0,34.019635110922,-118.15362729507
10488,AVENIDA CESAR CHAVEZ/WESTCOTT AV,0,34.040645484411,-118.15341170524
10489,POMONA BLVD/ATLANTIC BLVD,0,34.03334808698,-118.15269531287
10490,HILLVIEW AV/4TH ST,0,34.028968224592,-118.15252230329
10491,6TH ST/BELDEN AV,0,34.023891795685,-118.1512457885
10492,HILLVIEW AV/BEVERLY BLVD,0,34.030687249259,-118.15123826709
10493,AVENIDA CESAR CHAVEZ/SCHOOLSIDE AV,0,34.040132626489,-118.15044003934
10494,WHITTIER BLVD/HOEFNER AV,0,34.018952225696,-118.15038877009
10495,GRACE PL/SADLER AV,0,34.017015789528,-118.14974511129
10496,POMONA BLVD/HILLVIEW AV,0,34.033354501909,-118.14976774657
10497,GRACE PL/SADLER AV,0,34.017040556987,-118.14971545654
10501,6TH ST/SADLER AV,0,34.023203366887,-118.147993908
10502,OLYMPIC BLVD/GERHART AV,0,34.01396837812,-118.14754860936
10504,AVENIDA CESAR CHAVEZ/COLLEGIAN AV,0,34.038240584816,-118.14721182315
10505,WHITTIER BLVD/GERHART AV,0,34.018244687845,-118.14701495712
10506,ATLANTIC BLVD/RIGGIN ST,0,34.037488585113,-118.14646124093
10507,6TH ST/GERHART AV,0,34.022766222204,-118.14593055931
10508,OLYMPIC BLVD/SOUTHSIDE DR,0,34.013445012574,-118.14405324775
10509,6TH ST/BRADSHAWE AV,0,34.022115893766,-118.142870237
10510,OLYMPIC BLVD/HENDRICKS AV,0,34.012992412451,-118.14105300919
10511,6TH ST/SCHOOL AV,0,34.021678653838,-118.14081354202
10512,HUBBARD ST/HARDING AV,0,34.019211467319,-118.14048269319
10514,WHITTIER BLVD/FINDLAY AV,0,34.016572368284,-118.13911211488
10515,HUBBARD ST/FINDLAY AV,0,34.018785159255,-118.13844260002
10516,OLYMPIC BLVD/WESTSIDE DR,0,34.012463434579,-118.13749502547
10518,WHITTIER BLVD/WESTSIDE DR,0,34.01613235034,-118.13702587258
10520,SAYBROOK AV/NORTHSIDE DR,0,34.014088967768,-118.13612498774
10521,SAYBROOK AV/WHITTIER BLVD,0,34.015891845337,-118.13587053149
10524,BEN AVON ST/10800 BEN AVON ST,0,33.971765363524,-118.07895271997
10527,ALBURTIS AV/RIVERA RD,0,33.963443613551,-118.07668589523
10532,NORWALK BLVD/WASHINGTON BLVD,0,33.972521399929,-118.07401941739
10535,SLAUSON AV/NORWALK BLVD,0,33.964730555395,-118.07062565884
10536,REICHLING LN/NORWALK BLVD,0,33.984581742739,-118.06929656818
10537,WASHINGTON BLVD/BROADWAY AV,0,33.971373097701,-118.06887997316
10538,SLAUSON AV/11640 SLAUSON AV,0,33.964658053748,-118.06767733878
10544,ROSE HEDGE DR/11419 ROSE HEDGE DR,0,33.97912001449,-118.06245776726
10550,KELLA AV/KATHLEEN AV,0,34.031617779724,-118.03488524039
10554,PELLISSIER RD/MARDEL AV,0,34.033847109504,-118.03191567043
10556,WORKMAN MILL RD/CROSSROADS PKWY,0,34.032395947972,-118.02065051911
10557,WORKMAN MILL RD/COLEFORD AV,0,34.034826036719,-118.01371327176
10558,WORKMAN MILL RD/FONTENOY AV,0,34.03594473706,-118.01047552985
10559,WORKMAN MILL RD/BARK DR,0,34.036609867164,-118.00857773155
10560,WORKMAN MILL RD/OAKMAN DR,0,34.037786136692,-118.00529694642
10562,DON JULIAN RD/AVOCADO CREEK,0,34.045142191538,-118.00396380804
10563,DON JULIAN RD/AVOCADO CREEK,0,34.045024039123,-118.00379875267
10564,SAN ANGELO AV/PROCTOR ST,0,34.048785879628,-118.00276566543
10565,SAN ANGELO AV/250 SAN ANGELO AV,0,34.049819089855,-118.00188758446
10566,WORKMAN MILL RD/LOMITAS AV,0,34.039055749165,-118.00168929607
10567,SAN ANGELO AV/ARILLO ST,0,34.050877024897,-118.00095336126
10568,DON JULIAN RD/COBERTA AV,0,34.042905501466,-118.00071560478
10569,VALLEY BLVD/SAN ANGELO AV,0,34.051805803508,-118.00013795987
10570,DON JULIAN RD/WORKMAN MILL RD,0,34.04110014945,-117.99813763277
10571,VALLEY BLVD/COVINA BLVD,0,34.050508800567,-117.99806149547
10572,3RD AV/DON JULIAN RD,0,34.038714907297,-117.99461908998
10573,VALLEY BLVD/ORANGE BLOSSOM AV,0,34.048282928968,-117.99450623643
10576,3RD AV/PROCTOR AV,0,34.041652196698,-117.99169433695
10578,VINELAND AV/NELSON AV,0,34.049975359039,-117.99050508202
10579,14105 DON JULIAN,0,34.03503242521,-117.98924264716
10580,VINELAND AV/510 VINELAND AV,0,34.052211931065,-117.9884217211
10581,PROCTOR AV/4TH AV,0,34.039233792808,-117.98817926006
10582,VINELAND AV/510 N VINELAND AV,0,34.052799908921,-117.98778118708
10584,VINELAND AV/TEMPLE AV,0,34.05387146197,-117.98673450436
10586,AMAR RD/VINELAND AV,0,34.057789432126,-117.98297347553
10587,AMAR RD/MILLBURY AV,0,34.055898480396,-117.98017425231
10590,VALENCIA AV/PALM AV&BINNEY ST,0,34.012801047175,-117.9794816186
10591,PUENTE AV/AMAR RD,0,34.054474727222,-117.97806831664
10594,LOS ROBLES AV/COPPER LANTERN DR,0,34.007167584536,-117.97739441417
10595,PUENTE AV/SUNKIST DR,0,34.055642358521,-117.97695543386
10596,TURNBULL CANYON RD/SHADYBEND DR,0,34.013297918844,-117.97678230588
10597,LOS ROBLES AV/DEERHAVEN DR,0,34.006730460727,-117.97626940764
10599,AMAR RD/ARDILLA AV,0,34.053572792971,-117.97480023354
10601,NEWTON ST/KWIS AV,0,33.997947966389,-117.97443757553
10602,KWIS AV/KENNARD ST,0,34.001789190722,-117.97321236574
10603,AMAR RD/WILLOW AV,0,34.052308306877,-117.97262837019
10606,WILLOW AV/RAGUS ST,0,34.054635148562,-117.97013176957
10608,SUNKIST AV/HAYLAND ST,0,34.052474855348,-117.968254107
10610,HACIENDA BLVD/HALLIBURTON RD,0,33.99737205151,-117.96770095494
10611,HACIENDA BLVD/LUJON ST,0,34.001259886728,-117.9663533528
10613,HACIENDA BLVD/THREE PALMS ST,0,34.005246616012,-117.96495609273
10614,LA MONDE ST/STIMSON AV,0,33.993867629592,-117.96443631794
10615,GALE AV/HACIENDA BLVD,0,34.010829654331,-117.96298056636
10616,STIMSON AV/SIGMAN ST,0,34.002258176228,-117.96003477407
10617,GALE AV/FALSTONE AV,0,34.009866916234,-117.95987935937
10618,STIMSON AV/SHADYBEND DR,0,34.007060411367,-117.95711242502
10619,PUNTA DEL ESTE DR/SANTA BIANCA DR,0,33.989476845077,-117.9568476308
10620,GALE AV/STIMSON AV,0,34.00869227609,-117.95611842046
10622,COLIMA RD/PUNTA DEL ESTE DR,0,33.985914608481,-117.95405879561
10623,COLIMA RD/COUNTRY CANYON RD,0,33.987838845244,-117.94907004284
10624,COLIMA RD/DAWN HAVEN RD,0,33.990073971769,-117.94536739655
10625,COUNTRYWOOD AV/WEDGEWORTH DR,0,33.997635559722,-117.94430674136
10626,COUNTRYWOOD AV/CARRIAGE PL,0,33.992300851299,-117.94189218353
10627,COUNTRYWOOD AV/COLIMA RD,0,33.991251128417,-117.94179724465
10628,WEDGEWORTH DR/LARK TREE WY,0,33.99572265297,-117.93784846964
10629,WEDGEWORTH DR/MANOR GATE RD,0,33.995991121135,-117.93627461736
10630,PEPPER BROOK WY/MANOR GATE RD,0,33.993448440722,-117.93455119518
10631,COLIMA RD/AZUSA AV,0,33.990929906187,-117.93182830263
10633,VALINDA AV/WING LN,0,34.027786778531,-117.92707882769
10634,VALINDA AV/MULVANE ST,0,34.032471596685,-117.92663247833
10635,AMAR RD/VALINDA AV,0,34.035700147552,-117.92634249306
10636,CANDELA DR/SALEROSO DR,0,33.981028545107,-117.92569130727
10637,SALEROSO DR/CANDELA DR,0,33.981781358442,-117.92553560956
10638,WING LN/GLENHOPE DR,0,34.028156581313,-117.92518741578
10639,SALEROSO DR/1977 SALEROSO DR,0,33.985083953355,-117.92502798163
10640,COLIMA RD/ALBATROSS RD,0,33.990516010458,-117.92433365851
10642,CONTADOR DR/FALLEN DR,0,33.978466057464,-117.92329896258
10643,AZUSA AV/SALAIS ST,0,34.012764655966,-117.92325763487
10645,SALEROSO DR/RIO BONITO DR,0,33.986940028272,-117.92270073161
10649,WING LN/ROXDALE AV,0,34.028368439706,-117.92129612613
10650,GEMINI ST/AZUSA AV,0,34.01860727017,-117.92007772155
10651,RIMGROVE DR/WITZMAN DR,0,34.031082180967,-117.91957074087
10652,AMAR RD/LARK ELLEN AV,0,34.03516547052,-117.9195404115
10654,RIMGROVE DR/SAM GERRY DR,0,34.029466389612,-117.91948978416
10656,SALAIS ST/SANDALWOOD AV,0,34.011882478991,-117.91887645594
10657,AZUSA AV/TEMPLE AV,0,34.024653659109,-117.91764960587
10658,AMAR RD/BRENTWOOD DR,0,34.034235369737,-117.91757416545
10659,VALLEY BLVD/HAMBLEDON AV,0,34.007756714962,-117.91704921672
10660,GEMINI ST/SANDALWOOD AV,0,34.017720307858,-117.91688754607
10662,AZUSA AV/WING LN,0,34.027378794691,-117.91658092729
10663,HAMBLEDON AV/NORTHAM ST,0,34.012199654876,-117.91656635706
10665,RENAULT ST/BACKTON AV,0,34.014413500959,-117.91524423458
10667,GALATINA ST/GALLINETA ST,0,33.978496137116,-117.91488478286
10668,AZUSA AV/AMAR RD,0,34.031386664282,-117.91479468454
10669,NEARBANK DR/GALATINA ST,0,33.979358672631,-117.91447820195
10670,ROWLAND HEIGHTS COMMUNITY CENTER,0,33.967102894101,-117.91391687784
10671,GALLINETA ST/18044 GALLINETA ST,0,33.978294844911,-117.91389877596
10672,RENAULT ST/BAINFORD AV,0,34.014110214152,-117.91379923911
10673,VALLEY BLVD/ALDERTON AV,0,34.007055737635,-117.91276056205
10674,GEMINI ST/BAINFORD AV,0,34.016508006701,-117.9122986278
10675,PATHFINDERPARK,0,33.967733721319,-117.91228374402
10679,FULLERTON RD/MESCAL ST,0,33.976544207464,-117.90978100253
10680,VALLEY BLVD/GIANO AV,0,34.006531268688,-117.90953091879
10681,VALLEY BLVD/RANCHO LA PUENTE DR,0,34.005990118597,-117.90616275736
10683,BATSON AV/MESCAL ST,0,33.976244054771,-117.90536162312
10684,BATSON AV/FARJARDO ST,0,33.979931427622,-117.9050638954
10685,BATSON AV/VIDORA DR,0,33.983030399624,-117.90430831179
10686,BATSON AV/COLIMA RD,0,33.988327942211,-117.90392619858
10688,YORBITA RD/SUNSHINE CT,0,34.010038202977,-117.90331724894
10689,AGUIRO ST/GALLIO AV,0,33.972856456533,-117.90252904034
10690,AGUIRO ST/TORTOSA AV,0,33.972943645883,-117.90161534969
10691,COLIMA RD/JELLICK AV,0,33.988191108527,-117.9012147778
10693,DEEPMEAD AV/ALTARIO ST,0,34.01071465298,-117.90052496876
10694,LA SEDA RD/RORIMER ST,0,34.007654217579,-117.89803416576
10695,LA SEDA RD/VILLA PARK ST,0,34.012064104343,-117.89754703808
10697,COLIMA RD/GREENCASTLE AV,0,33.987928854499,-117.89649458137
10699,VILLA PARK ST/RICHBURN AV,0,34.011849541133,-117.894095826
10700,COLIMA RD/PASO REAL AV,0,33.987758658776,-117.89353252357
10701,HONORE ST/PASO REAL AV,0,33.981975545135,-117.89168281439
10702,GENDEL DR/VILLA PARK ST,0,34.011866255872,-117.89126137135
10704,KILLIAN AV/NOGALES ST,0,33.982212033584,-117.8888523772
10705,KILLIAN AV/LERONA AV,0,33.982181255884,-117.8882553859
10706,NORTHAM ST/NOGALES ST,0,34.008290274847,-117.88714817945
10707,NOGALES ST/LA PUENTE RD,0,34.010172349149,-117.88693116661
10708,OTTERBEIN AV/KILLIAN AV,0,33.98202461914,-117.88531661892
10709,OTTERBEIN AV/COLIMA RD,0,33.987272577025,-117.88486740237
10713,BANIDA AV/1569 BANIDA AV,0,33.988982952073,-117.88046446687
