stop_id,stop_code,stop_name,stop_lat,stop_lon,stop_url
3,14024,"Niles @ FoodMax",35.375919,-118.934845,"http://eta.getbus.org/RTT/Public/RoutePositionET.aspx?PlatformTag=3"
4,14095,"Niles & Fairfax",35.375955,-118.930548,"http://eta.getbus.org/RTT/Public/RoutePositionET.aspx?PlatformTag=4"
5,21024,"Niles & Greenwood",35.376073,-118.926102,"http://eta.getbus.org/RTT/Public/RoutePositionET.aspx?PlatformTag=5"
6,21030,"Niles & Brentwood",35.376090,-118.923293,"http://eta.getbus.org/RTT/Public/RoutePositionET.aspx?PlatformTag=6"
7,21180,"Niles & Park",35.376136,-118.918201,"http://eta.getbus.org/RTT/Public/RoutePositionET.aspx?PlatformTag=7"
8,21198,"Niles & Morning Drive",35.376162,-118.914735,"http://eta.getbus.org/RTT/Public/RoutePositionET.aspx?PlatformTag=8"
9,11563,"Morning Drive & Rosewood",35.372283,-118.914307,"http://eta.getbus.org/RTT/Public/RoutePositionET.aspx?PlatformTag=9"
10,21817,"Mt Vernon & University",35.405863,-118.967689,"http://eta.getbus.org/RTT/Public/RoutePositionET.aspx?PlatformTag=10"
11,11247,"University & Mt Vernon",35.405031,-118.968239,"http://eta.getbus.org/RTT/Public/RoutePositionET.aspx?PlatformTag=11"
12,20511,"Pioneer & Park",35.368817,-118.919318,"http://eta.getbus.org/RTT/Public/RoutePositionET.aspx?PlatformTag=12"
13,20507,"Eucalyptus & Denison",35.365289,-118.922350,"http://eta.getbus.org/RTT/Public/RoutePositionET.aspx?PlatformTag=13"
14,21409,"Eucalyptus & Ansol",35.365270,-118.926976,"http://eta.getbus.org/RTT/Public/RoutePositionET.aspx?PlatformTag=14"
15,20524,"Eucalyptus @ Pioneer Pines Mobile Home Park",35.365243,-118.929161,"http://eta.getbus.org/RTT/Public/RoutePositionET.aspx?PlatformTag=15"
16,20595,"Eucalyptus & Fairfax",35.365233,-118.931614,"http://eta.getbus.org/RTT/Public/RoutePositionET.aspx?PlatformTag=16"
17,21413,"Fairfax & Pioneer",35.368052,-118.931856,"http://eta.getbus.org/RTT/Public/RoutePositionET.aspx?PlatformTag=17"
18,11425,"Niles @ FoodMax",35.376163,-118.934257,"http://eta.getbus.org/RTT/Public/RoutePositionET.aspx?PlatformTag=18"
19,11384,"University & Occidental",35.404999,-118.971024,"http://eta.getbus.org/RTT/Public/RoutePositionET.aspx?PlatformTag=19"
20,13126,"Niles & McCurdy",35.376136,-118.938419,"http://eta.getbus.org/RTT/Public/RoutePositionET.aspx?PlatformTag=20"
21,11418,"Niles & Pesante",35.376062,-118.943414,"http://eta.getbus.org/RTT/Public/RoutePositionET.aspx?PlatformTag=21"
22,13573,"Niles & Tate",35.376055,-118.947801,"http://eta.getbus.org/RTT/Public/RoutePositionET.aspx?PlatformTag=22"
23,21133,"Niles & Oswell",35.376032,-118.950198,"http://eta.getbus.org/RTT/Public/RoutePositionET.aspx?PlatformTag=23"
24,14325,"Niles @ Hillcrest Center",35.376012,-118.953056,"http://eta.getbus.org/RTT/Public/RoutePositionET.aspx?PlatformTag=24"
25,14360,"Niles & Catalpa",35.375918,-118.959369,"http://eta.getbus.org/RTT/Public/RoutePositionET.aspx?PlatformTag=25"
26,14302,"Niles & Camino Primavera",35.375907,-118.963412,"http://eta.getbus.org/RTT/Public/RoutePositionET.aspx?PlatformTag=26"
28,11321,"Niles & Haley",35.379426,-118.979890,"http://eta.getbus.org/RTT/Public/RoutePositionET.aspx?PlatformTag=28"
29,11332,"Niles & Robinson",35.380156,-118.982948,"http://eta.getbus.org/RTT/Public/RoutePositionET.aspx?PlatformTag=29"
30,13093,"Niles & Gage",35.380684,-118.985152,"http://eta.getbus.org/RTT/Public/RoutePositionET.aspx?PlatformTag=30"
31,11345,"University & Haley",35.404956,-118.975521,"http://eta.getbus.org/RTT/Public/RoutePositionET.aspx?PlatformTag=31"
32,14801,"21st & N",35.378206,-119.014477,"http://eta.getbus.org/RTT/Public/RoutePositionET.aspx?PlatformTag=32"
33,15582,"Truxtun & H",35.373460,-119.021824,"http://eta.getbus.org/RTT/Public/RoutePositionET.aspx?PlatformTag=33"
34,21886,"Haley & Radcliffe",35.407528,-118.976335,"http://eta.getbus.org/RTT/Public/RoutePositionET.aspx?PlatformTag=34"
35,15595,"Truxtun & D",35.373476,-119.025645,"http://eta.getbus.org/RTT/Public/RoutePositionET.aspx?PlatformTag=35"
36,15576,"Truxtun & B",35.373482,-119.028493,"http://eta.getbus.org/RTT/Public/RoutePositionET.aspx?PlatformTag=36"
37,15530,"Truxtun & Pine",35.373480,-119.031465,"http://eta.getbus.org/RTT/Public/RoutePositionET.aspx?PlatformTag=37"
38,15569,"Truxtun & Myrtle",35.373512,-119.034993,"http://eta.getbus.org/RTT/Public/RoutePositionET.aspx?PlatformTag=38"
39,10527,"Oak & California",35.367255,-119.038895,"http://eta.getbus.org/RTT/Public/RoutePositionET.aspx?PlatformTag=39"
40,10591,"Oak & Chester Lane",35.364406,-119.038922,"http://eta.getbus.org/RTT/Public/RoutePositionET.aspx?PlatformTag=40"
41,10504,"Wible & Belle Terrace",35.346227,-119.039117,"http://eta.getbus.org/RTT/Public/RoutePositionET.aspx?PlatformTag=41"
42,20582,"Pioneer @ Pioneer Drive School",35.368867,-118.934751,"http://eta.getbus.org/RTT/Public/RoutePositionET.aspx?PlatformTag=42"
43,20548,"Pioneer & Sterling",35.368799,-118.940565,"http://eta.getbus.org/RTT/Public/RoutePositionET.aspx?PlatformTag=43"
44,20576,"Pioneer & Pesante",35.368786,-118.942875,"http://eta.getbus.org/RTT/Public/RoutePositionET.aspx?PlatformTag=44"
45,20530,"Oswell & Potomac",35.363845,-118.949925,"http://eta.getbus.org/RTT/Public/RoutePositionET.aspx?PlatformTag=45"
46,21893,"River & Panorama",35.408569,-118.985473,"http://eta.getbus.org/RTT/Public/RoutePositionET.aspx?PlatformTag=46"
47,21631,"Virginia & Oswell",35.361519,-118.950331,"http://eta.getbus.org/RTT/Public/RoutePositionET.aspx?PlatformTag=47"
48,21547,"Virginia & Quantico",35.361425,-118.959302,"http://eta.getbus.org/RTT/Public/RoutePositionET.aspx?PlatformTag=48"
49,21552,"Virginia & Hazel",35.361417,-118.964209,"http://eta.getbus.org/RTT/Public/RoutePositionET.aspx?PlatformTag=49"
50,19437,"Adult School",35.349682,-118.967437,"http://eta.getbus.org/RTT/Public/RoutePositionET.aspx?PlatformTag=50"
51,21523,"Virginia & Mt Vernon",35.361435,-118.968155,"http://eta.getbus.org/RTT/Public/RoutePositionET.aspx?PlatformTag=51"
52,21903,"River & Acacia",35.405098,-118.985434,"http://eta.getbus.org/RTT/Public/RoutePositionET.aspx?PlatformTag=52"
53,20553,"Virginia & Tanner",35.361346,-118.972995,"http://eta.getbus.org/RTT/Public/RoutePositionET.aspx?PlatformTag=53"
57,20414,"Virginia & Owens",35.361256,-118.990468,"http://eta.getbus.org/RTT/Public/RoutePositionET.aspx?PlatformTag=57"
58,21919,"River & University",35.402102,-118.985362,"http://eta.getbus.org/RTT/Public/RoutePositionET.aspx?PlatformTag=58"
59,20451,"Virginia & King",35.361246,-118.993501,"http://eta.getbus.org/RTT/Public/RoutePositionET.aspx?PlatformTag=59"
60,20479,"East 4th & Rodman",35.360814,-118.998636,"http://eta.getbus.org/RTT/Public/RoutePositionET.aspx?PlatformTag=60"
61,20467,"East 4th & Villa",35.360819,-119.000293,"http://eta.getbus.org/RTT/Public/RoutePositionET.aspx?PlatformTag=61"
62,20498,"East 4th & Union",35.360824,-119.002287,"http://eta.getbus.org/RTT/Public/RoutePositionET.aspx?PlatformTag=62"
63,20943,"4th & P",35.360867,-119.011603,"http://eta.getbus.org/RTT/Public/RoutePositionET.aspx?PlatformTag=63"
64,20480,"4th @ Bakersfield Senior Center",35.360849,-119.008160,"http://eta.getbus.org/RTT/Public/RoutePositionET.aspx?PlatformTag=64"
65,21864,"River & Skyline",35.399064,-118.985314,"http://eta.getbus.org/RTT/Public/RoutePositionET.aspx?PlatformTag=65"
66,13157,"Truxtun & L",35.373468,-119.016851,"http://eta.getbus.org/RTT/Public/RoutePositionET.aspx?PlatformTag=66"
67,11350,"Columbus & River",35.397638,-118.985784,"http://eta.getbus.org/RTT/Public/RoutePositionET.aspx?PlatformTag=67"
68,18741,"California & Oak",35.368741,-119.037692,"http://eta.getbus.org/RTT/Public/RoutePositionET.aspx?PlatformTag=68"
69,18756,"California & Chester Lane",35.367485,-119.049168,"http://eta.getbus.org/RTT/Public/RoutePositionET.aspx?PlatformTag=69"
70,18718,"California & Mohawk",35.360785,-119.060420,"http://eta.getbus.org/RTT/Public/RoutePositionET.aspx?PlatformTag=70"
71,14727,"California & Business Center Drive",35.356726,-119.061298,"http://eta.getbus.org/RTT/Public/RoutePositionET.aspx?PlatformTag=71"
72,14715,"New Stine & Stockdale",35.353366,-119.061320,"http://eta.getbus.org/RTT/Public/RoutePositionET.aspx?PlatformTag=72"
73,11366,"Columbus & North Baker",35.397636,-118.987455,"http://eta.getbus.org/RTT/Public/RoutePositionET.aspx?PlatformTag=73"
74,14770,"New Stine & Demaret",35.351331,-119.061313,"http://eta.getbus.org/RTT/Public/RoutePositionET.aspx?PlatformTag=74"
75,13415,"New Stine & Gorham",35.349497,-119.061314,"http://eta.getbus.org/RTT/Public/RoutePositionET.aspx?PlatformTag=75"
76,17847,"New Stine & Belle Terrace",35.346500,-119.061307,"http://eta.getbus.org/RTT/Public/RoutePositionET.aspx?PlatformTag=76"
77,11378,"Columbus & North Tulare",35.397594,-118.990537,"http://eta.getbus.org/RTT/Public/RoutePositionET.aspx?PlatformTag=77"
78,15737,"Ashe & Bronson",35.326626,-119.074550,"http://eta.getbus.org/RTT/Public/RoutePositionET.aspx?PlatformTag=78"
79,15700,"Ashe & Herb",35.324359,-119.074645,"http://eta.getbus.org/RTT/Public/RoutePositionET.aspx?PlatformTag=79"
80,14990,"Half Moon & Ashe",35.321889,-119.074940,"http://eta.getbus.org/RTT/Public/RoutePositionET.aspx?PlatformTag=80"
81,14903,"Half Moon & Gunnison",35.322085,-119.078433,"http://eta.getbus.org/RTT/Public/RoutePositionET.aspx?PlatformTag=81"
82,14919,"Half Moon & Olympia",35.323909,-119.080958,"http://eta.getbus.org/RTT/Public/RoutePositionET.aspx?PlatformTag=82"
83,14926,"Half Moon & Pullman",35.326153,-119.081400,"http://eta.getbus.org/RTT/Public/RoutePositionET.aspx?PlatformTag=83"
84,11494,"Columbus & Alta Vista",35.397570,-118.993387,"http://eta.getbus.org/RTT/Public/RoutePositionET.aspx?PlatformTag=84"
85,14935,"Half Moon & Innisfree",35.329680,-119.078998,"http://eta.getbus.org/RTT/Public/RoutePositionET.aspx?PlatformTag=85"
86,15728,"Half Moon & Ashe",35.330038,-119.075420,"http://eta.getbus.org/RTT/Public/RoutePositionET.aspx?PlatformTag=86"
87,11460,"Columbus & Alturas",35.397557,-118.995976,"http://eta.getbus.org/RTT/Public/RoutePositionET.aspx?PlatformTag=87"
88,14237,"New Stine & Nordic",35.345278,-119.061009,"http://eta.getbus.org/RTT/Public/RoutePositionET.aspx?PlatformTag=88"
89,14228,"New Stine & Belle Terrace",35.347267,-119.061016,"http://eta.getbus.org/RTT/Public/RoutePositionET.aspx?PlatformTag=89"
90,16009,"New Stine & Gorham",35.349511,-119.061017,"http://eta.getbus.org/RTT/Public/RoutePositionET.aspx?PlatformTag=90"
91,14244,"New Stine & Stockdale",35.353325,-119.061001,"http://eta.getbus.org/RTT/Public/RoutePositionET.aspx?PlatformTag=91"
92,14259,"California & Business Center Drive",35.355587,-119.060938,"http://eta.getbus.org/RTT/Public/RoutePositionET.aspx?PlatformTag=92"
93,15970,"California & Mohawk",35.361481,-119.059604,"http://eta.getbus.org/RTT/Public/RoutePositionET.aspx?PlatformTag=93"
94,11439,"Columbus & Loma Linda",35.397556,-118.998961,"http://eta.getbus.org/RTT/Public/RoutePositionET.aspx?PlatformTag=94"
95,15958,"California & Chester Lane",35.367283,-119.047267,"http://eta.getbus.org/RTT/Public/RoutePositionET.aspx?PlatformTag=95"
96,18610,"California & Oak",35.368496,-119.038006,"http://eta.getbus.org/RTT/Public/RoutePositionET.aspx?PlatformTag=96"
97,11473,"Columbus & Union",35.397560,-119.002392,"http://eta.getbus.org/RTT/Public/RoutePositionET.aspx?PlatformTag=97"
98,14484,"Truxtun & Chester",35.373210,-119.018320,"http://eta.getbus.org/RTT/Public/RoutePositionET.aspx?PlatformTag=98"
100,14421,"Truxtun & N",35.373195,-119.014971,"http://eta.getbus.org/RTT/Public/RoutePositionET.aspx?PlatformTag=100"
101,14318,"Truxtun @ Rabo Bank Arena",35.373185,-119.012407,"http://eta.getbus.org/RTT/Public/RoutePositionET.aspx?PlatformTag=101"
102,11487,"West Columbus & San Dimas",35.397724,-119.007663,"http://eta.getbus.org/RTT/Public/RoutePositionET.aspx?PlatformTag=102"
103,20856,"4th & P",35.360693,-119.011307,"http://eta.getbus.org/RTT/Public/RoutePositionET.aspx?PlatformTag=103"
104,20841,"4th & R",35.360687,-119.009212,"http://eta.getbus.org/RTT/Public/RoutePositionET.aspx?PlatformTag=104"
105,21620,"East 4th & Union",35.360725,-119.001918,"http://eta.getbus.org/RTT/Public/RoutePositionET.aspx?PlatformTag=105"
106,20361,"East 4th & Rodman",35.360718,-118.998752,"http://eta.getbus.org/RTT/Public/RoutePositionET.aspx?PlatformTag=106"
107,20303,"East 4th & King",35.361113,-118.993691,"http://eta.getbus.org/RTT/Public/RoutePositionET.aspx?PlatformTag=107"
108,20357,"Virginia & Owens",35.361155,-118.990332,"http://eta.getbus.org/RTT/Public/RoutePositionET.aspx?PlatformTag=108"
111,20374,"Virginia & Washington",35.361210,-118.975832,"http://eta.getbus.org/RTT/Public/RoutePositionET.aspx?PlatformTag=111"
112,20319,"Virginia & Mt Vernon",35.361268,-118.966193,"http://eta.getbus.org/RTT/Public/RoutePositionET.aspx?PlatformTag=112"
113,12703,"West Columbus & Q",35.398203,-119.011082,"http://eta.getbus.org/RTT/Public/RoutePositionET.aspx?PlatformTag=113"
114,20326,"Virginia & Hazel",35.361307,-118.963075,"http://eta.getbus.org/RTT/Public/RoutePositionET.aspx?PlatformTag=114"
115,20335,"Virginia & Quantico",35.361322,-118.959388,"http://eta.getbus.org/RTT/Public/RoutePositionET.aspx?PlatformTag=115"
116,18532,"Virginia & Richards",35.361353,-118.955916,"http://eta.getbus.org/RTT/Public/RoutePositionET.aspx?PlatformTag=116"
117,18513,"Virginia & Oswell",35.361334,-118.950483,"http://eta.getbus.org/RTT/Public/RoutePositionET.aspx?PlatformTag=117"
118,18578,"Pioneer & Oswell",35.368624,-118.948834,"http://eta.getbus.org/RTT/Public/RoutePositionET.aspx?PlatformTag=118"
119,18597,"Pioneer & Hill",35.368640,-118.946519,"http://eta.getbus.org/RTT/Public/RoutePositionET.aspx?PlatformTag=119"
120,21421,"Pioneer & Sterling",35.368647,-118.941538,"http://eta.getbus.org/RTT/Public/RoutePositionET.aspx?PlatformTag=120"
121,12788,"West Columbus & Jewett",35.398213,-119.014013,"http://eta.getbus.org/RTT/Public/RoutePositionET.aspx?PlatformTag=121"
122,21432,"Pioneer & Shalimar",35.368727,-118.936031,"http://eta.getbus.org/RTT/Public/RoutePositionET.aspx?PlatformTag=122"
123,18550,"Pioneer & Fairfax",35.368730,-118.930826,"http://eta.getbus.org/RTT/Public/RoutePositionET.aspx?PlatformTag=123"
124,18584,"Pioneer & Tangerine",35.368753,-118.927862,"http://eta.getbus.org/RTT/Public/RoutePositionET.aspx?PlatformTag=124"
125,18545,"Pioneer & Brentwood",35.368819,-118.923232,"http://eta.getbus.org/RTT/Public/RoutePositionET.aspx?PlatformTag=125"
126,21497,"Hughes & Wilson",35.331768,-119.030206,"http://eta.getbus.org/RTT/Public/RoutePositionET.aspx?PlatformTag=126"
127,19459,"Hughes & Westhaven",35.330081,-119.030209,"http://eta.getbus.org/RTT/Public/RoutePositionET.aspx?PlatformTag=127"
128,19471,"Hughes & Belvedere",35.327909,-119.030207,"http://eta.getbus.org/RTT/Public/RoutePositionET.aspx?PlatformTag=128"
129,19463,"Hughes & Planz",35.323438,-119.030214,"http://eta.getbus.org/RTT/Public/RoutePositionET.aspx?PlatformTag=129"
130,12719,"West Columbus @ Bethel Academy",35.398220,-119.016251,"http://eta.getbus.org/RTT/Public/RoutePositionET.aspx?PlatformTag=130"
131,19400,"Hughes & Bea",35.321362,-119.030215,"http://eta.getbus.org/RTT/Public/RoutePositionET.aspx?PlatformTag=131"
132,19416,"Hughes & Patti",35.318921,-119.030214,"http://eta.getbus.org/RTT/Public/RoutePositionET.aspx?PlatformTag=132"
133,12790,"Chester & West Columbus",35.399036,-119.018554,"http://eta.getbus.org/RTT/Public/RoutePositionET.aspx?PlatformTag=133"
137,12052,"Panama Lane & Castleford",35.296028,-119.041506,"http://eta.getbus.org/RTT/Public/RoutePositionET.aspx?PlatformTag=137"
139,12034,"Panama Lane & Akers",35.296046,-119.047129,"http://eta.getbus.org/RTT/Public/RoutePositionET.aspx?PlatformTag=139"
140,12145,"Stine & Pine Castle",35.298850,-119.056540,"http://eta.getbus.org/RTT/Public/RoutePositionET.aspx?PlatformTag=140"
141,12150,"Stine & Baybrook",35.301599,-119.056539,"http://eta.getbus.org/RTT/Public/RoutePositionET.aspx?PlatformTag=141"
142,14151,"Stine & Harris",35.303862,-119.056543,"http://eta.getbus.org/RTT/Public/RoutePositionET.aspx?PlatformTag=142"
143,14179,"Stine & Fountainview",35.306285,-119.056540,"http://eta.getbus.org/RTT/Public/RoutePositionET.aspx?PlatformTag=143"
144,14180,"Stine & Country Place",35.308822,-119.056534,"http://eta.getbus.org/RTT/Public/RoutePositionET.aspx?PlatformTag=144"
145,14114,"Stine & District",35.312764,-119.056539,"http://eta.getbus.org/RTT/Public/RoutePositionET.aspx?PlatformTag=145"
146,13692,"Roberts & Chester",35.408727,-119.022348,"http://eta.getbus.org/RTT/Public/RoutePositionET.aspx?PlatformTag=146"
147,14105,"Stine & New Horizon",35.316258,-119.056532,"http://eta.getbus.org/RTT/Public/RoutePositionET.aspx?PlatformTag=147"
148,14122,"Stine & White Lane",35.318570,-119.056525,"http://eta.getbus.org/RTT/Public/RoutePositionET.aspx?PlatformTag=148"
149,14133,"Stine & Beechwood",35.322964,-119.056538,"http://eta.getbus.org/RTT/Public/RoutePositionET.aspx?PlatformTag=149"
150,13709,"Roberts & Plymouth",35.408724,-119.025932,"http://eta.getbus.org/RTT/Public/RoutePositionET.aspx?PlatformTag=150"
151,15031,"Old River @ Mercy Southwest Hospital",35.351783,-119.114588,"http://eta.getbus.org/RTT/Public/RoutePositionET.aspx?PlatformTag=151"
152,15008,"Camino Media & Old River",35.344091,-119.112866,"http://eta.getbus.org/RTT/Public/RoutePositionET.aspx?PlatformTag=152"
153,15012,"Camino Media & Roadrunner",35.342813,-119.103847,"http://eta.getbus.org/RTT/Public/RoutePositionET.aspx?PlatformTag=153"
154,17059,"Haggin Oaks @ The Marketplace",35.341471,-119.101246,"http://eta.getbus.org/RTT/Public/RoutePositionET.aspx?PlatformTag=154"
155,17071,"Ming @ Southwest Library",35.339627,-119.095514,"http://eta.getbus.org/RTT/Public/RoutePositionET.aspx?PlatformTag=155"
156,13685,"Roberts & Oildale",35.408723,-119.030389,"http://eta.getbus.org/RTT/Public/RoutePositionET.aspx?PlatformTag=156"
157,17063,"Ming & Ashe",35.334612,-119.073300,"http://eta.getbus.org/RTT/Public/RoutePositionET.aspx?PlatformTag=157"
158,11070,"Ming & New Stine",35.338388,-119.059912,"http://eta.getbus.org/RTT/Public/RoutePositionET.aspx?PlatformTag=158"
159,11015,"Ming & Hasti Acres",35.339458,-119.051720,"http://eta.getbus.org/RTT/Public/RoutePositionET.aspx?PlatformTag=159"
160,10298,"Ming & South Chester",35.339330,-119.017769,"http://eta.getbus.org/RTT/Public/RoutePositionET.aspx?PlatformTag=160"
161,15480,"Ming & South M",35.339406,-119.014344,"http://eta.getbus.org/RTT/Public/RoutePositionET.aspx?PlatformTag=161"
162,15498,"Ming & South P",35.339394,-119.011280,"http://eta.getbus.org/RTT/Public/RoutePositionET.aspx?PlatformTag=162"
163,15451,"Ming & Allens",35.339391,-119.007123,"http://eta.getbus.org/RTT/Public/RoutePositionET.aspx?PlatformTag=163"
164,13713,"Roberts & Sequoia",35.408714,-119.034568,"http://eta.getbus.org/RTT/Public/RoutePositionET.aspx?PlatformTag=164"
165,15467,"South Union & Casa Loma",35.340101,-119.002888,"http://eta.getbus.org/RTT/Public/RoutePositionET.aspx?PlatformTag=165"
166,15479,"South Union & Adams",35.344228,-119.002869,"http://eta.getbus.org/RTT/Public/RoutePositionET.aspx?PlatformTag=166"
167,15422,"Union & East Brundage",35.354782,-119.002833,"http://eta.getbus.org/RTT/Public/RoutePositionET.aspx?PlatformTag=167"
168,13721,"Roberts & Airport",35.408718,-119.038267,"http://eta.getbus.org/RTT/Public/RoutePositionET.aspx?PlatformTag=168"
169,15433,"Union & Texas",35.357961,-119.002820,"http://eta.getbus.org/RTT/Public/RoutePositionET.aspx?PlatformTag=169"
170,15405,"Union & East 4th",35.361285,-119.002809,"http://eta.getbus.org/RTT/Public/RoutePositionET.aspx?PlatformTag=170"
171,15414,"Union & East 8th",35.365053,-119.002796,"http://eta.getbus.org/RTT/Public/RoutePositionET.aspx?PlatformTag=171"
172,15825,"Union & East 11th",35.367625,-119.002778,"http://eta.getbus.org/RTT/Public/RoutePositionET.aspx?PlatformTag=172"
173,15802,"Union & East California",35.369248,-119.002776,"http://eta.getbus.org/RTT/Public/RoutePositionET.aspx?PlatformTag=173"
174,15818,"Union & East 17th",35.374121,-119.002754,"http://eta.getbus.org/RTT/Public/RoutePositionET.aspx?PlatformTag=174"
175,15894,"East 19th & Union",35.376129,-119.002460,"http://eta.getbus.org/RTT/Public/RoutePositionET.aspx?PlatformTag=175"
176,15887,"East 19th & Sonora",35.376200,-119.000066,"http://eta.getbus.org/RTT/Public/RoutePositionET.aspx?PlatformTag=176"
177,12941,"Airport & Roberts Lane",35.409107,-119.038748,"http://eta.getbus.org/RTT/Public/RoutePositionET.aspx?PlatformTag=177"
178,14547,"Baker & East 21st",35.375642,-118.993233,"http://eta.getbus.org/RTT/Public/RoutePositionET.aspx?PlatformTag=178"
179,14568,"Baker & Monterey",35.380730,-118.991436,"http://eta.getbus.org/RTT/Public/RoutePositionET.aspx?PlatformTag=179"
180,14581,"Baker & Niles",35.382284,-118.990885,"http://eta.getbus.org/RTT/Public/RoutePositionET.aspx?PlatformTag=180"
181,14575,"Baker & Pacific",35.383964,-118.990287,"http://eta.getbus.org/RTT/Public/RoutePositionET.aspx?PlatformTag=181"
182,14552,"Baker & Flower",35.385764,-118.989641,"http://eta.getbus.org/RTT/Public/RoutePositionET.aspx?PlatformTag=182"
183,10976,"Flower & Beale",35.385323,-118.986015,"http://eta.getbus.org/RTT/Public/RoutePositionET.aspx?PlatformTag=183"
184,10924,"Flower & Gage",35.384627,-118.983117,"http://eta.getbus.org/RTT/Public/RoutePositionET.aspx?PlatformTag=184"
185,13732,"Olive & Airport",35.412380,-119.040192,"http://eta.getbus.org/RTT/Public/RoutePositionET.aspx?PlatformTag=185"
186,10911,"Flower & Haley",35.383644,-118.979020,"http://eta.getbus.org/RTT/Public/RoutePositionET.aspx?PlatformTag=186"
187,16740,"Flower & Williams",35.383028,-118.976442,"http://eta.getbus.org/RTT/Public/RoutePositionET.aspx?PlatformTag=187"
188,13637,"Olive & Sanford",35.412384,-119.042731,"http://eta.getbus.org/RTT/Public/RoutePositionET.aspx?PlatformTag=188"
189,16468,"Haley & Columbus",35.397975,-118.976229,"http://eta.getbus.org/RTT/Public/RoutePositionET.aspx?PlatformTag=189"
191,16423,"Haley & Dartmouth",35.403015,-118.976291,"http://eta.getbus.org/RTT/Public/RoutePositionET.aspx?PlatformTag=191"
192,16410,"Haley & University",35.404584,-118.976306,"http://eta.getbus.org/RTT/Public/RoutePositionET.aspx?PlatformTag=192"
193,13659,"Olive @ Olive Drive Towne Center",35.412403,-119.045072,"http://eta.getbus.org/RTT/Public/RoutePositionET.aspx?PlatformTag=193"
194,21228,"Flower & Williams",35.383136,-118.976271,"http://eta.getbus.org/RTT/Public/RoutePositionET.aspx?PlatformTag=194"
195,13616,"Olive & Roberts",35.412546,-119.048294,"http://eta.getbus.org/RTT/Public/RoutePositionET.aspx?PlatformTag=195"
196,16646,"Flower & Haley",35.383883,-118.979366,"http://eta.getbus.org/RTT/Public/RoutePositionET.aspx?PlatformTag=196"
197,16605,"Flower & Gage",35.384902,-118.983625,"http://eta.getbus.org/RTT/Public/RoutePositionET.aspx?PlatformTag=197"
198,16622,"Flower & Beale",35.385449,-118.985951,"http://eta.getbus.org/RTT/Public/RoutePositionET.aspx?PlatformTag=198"
199,16614,"Baker & Flower",35.385500,-118.989906,"http://eta.getbus.org/RTT/Public/RoutePositionET.aspx?PlatformTag=199"
200,16633,"Baker & Oregon",35.383445,-118.990642,"http://eta.getbus.org/RTT/Public/RoutePositionET.aspx?PlatformTag=200"
201,16508,"Baker & Niles",35.381814,-118.991225,"http://eta.getbus.org/RTT/Public/RoutePositionET.aspx?PlatformTag=201"
202,16512,"Baker & Monterey",35.380672,-118.991636,"http://eta.getbus.org/RTT/Public/RoutePositionET.aspx?PlatformTag=202"
203,13663,"Olive & State",35.412480,-119.051186,"http://eta.getbus.org/RTT/Public/RoutePositionET.aspx?PlatformTag=203"
204,16531,"Baker & East 21st",35.375660,-118.993438,"http://eta.getbus.org/RTT/Public/RoutePositionET.aspx?PlatformTag=204"
205,16520,"East 19th & Tulare",35.375563,-118.996539,"http://eta.getbus.org/RTT/Public/RoutePositionET.aspx?PlatformTag=205"
206,16577,"East 19th & Sonora",35.376325,-119.001052,"http://eta.getbus.org/RTT/Public/RoutePositionET.aspx?PlatformTag=206"
207,15678,"Union & 17th",35.373878,-119.003112,"http://eta.getbus.org/RTT/Public/RoutePositionET.aspx?PlatformTag=207"
208,21271,"Union & California",35.367191,-119.003123,"http://eta.getbus.org/RTT/Public/RoutePositionET.aspx?PlatformTag=208"
209,15697,"Union & 8th",35.364855,-119.003128,"http://eta.getbus.org/RTT/Public/RoutePositionET.aspx?PlatformTag=209"
210,12757,"Olive & Knudsen",35.412471,-119.060714,"http://eta.getbus.org/RTT/Public/RoutePositionET.aspx?PlatformTag=210"
211,15684,"Union & 4th",35.360383,-119.003149,"http://eta.getbus.org/RTT/Public/RoutePositionET.aspx?PlatformTag=211"
212,15650,"Union & 2nd",35.357155,-119.003164,"http://eta.getbus.org/RTT/Public/RoutePositionET.aspx?PlatformTag=212"
213,21872,"Olive & Victor",35.412483,-119.064155,"http://eta.getbus.org/RTT/Public/RoutePositionET.aspx?PlatformTag=213"
214,15621,"South Union & Amador",35.343781,-119.003197,"http://eta.getbus.org/RTT/Public/RoutePositionET.aspx?PlatformTag=214"
215,15609,"South Union & Ming",35.340402,-119.003219,"http://eta.getbus.org/RTT/Public/RoutePositionET.aspx?PlatformTag=215"
217,12828,"Ming & South P",35.339556,-119.012422,"http://eta.getbus.org/RTT/Public/RoutePositionET.aspx?PlatformTag=217"
218,16050,"Ming & South M",35.339556,-119.015557,"http://eta.getbus.org/RTT/Public/RoutePositionET.aspx?PlatformTag=218"
219,13283,"Ming & Real",35.339641,-119.044678,"http://eta.getbus.org/RTT/Public/RoutePositionET.aspx?PlatformTag=219"
220,13265,"Ming & New Stine",35.337654,-119.062671,"http://eta.getbus.org/RTT/Public/RoutePositionET.aspx?PlatformTag=220"
221,13644,"Olive & Mohawk",35.412491,-119.066537,"http://eta.getbus.org/RTT/Public/RoutePositionET.aspx?PlatformTag=221"
222,13277,"Ming & Stine",35.339702,-119.051468,"http://eta.getbus.org/RTT/Public/RoutePositionET.aspx?PlatformTag=222"
223,15083,"Ming & Ashe",35.334877,-119.075102,"http://eta.getbus.org/RTT/Public/RoutePositionET.aspx?PlatformTag=223"
224,12761,"Olive & Oakhaven",35.412505,-119.070510,"http://eta.getbus.org/RTT/Public/RoutePositionET.aspx?PlatformTag=224"
225,15077,"Ming @ Southwest Library",35.339870,-119.095460,"http://eta.getbus.org/RTT/Public/RoutePositionET.aspx?PlatformTag=225"
226,13600,"Olive & Fruitvale",35.412511,-119.072519,"http://eta.getbus.org/RTT/Public/RoutePositionET.aspx?PlatformTag=226"
227,15065,"Haggin Oaks & Liberty Park",35.341423,-119.101004,"http://eta.getbus.org/RTT/Public/RoutePositionET.aspx?PlatformTag=227"
228,15049,"Camino Media & Roadrunner",35.342997,-119.103601,"http://eta.getbus.org/RTT/Public/RoutePositionET.aspx?PlatformTag=228"
229,15054,"Old River @ State Farm",35.347139,-119.114225,"http://eta.getbus.org/RTT/Public/RoutePositionET.aspx?PlatformTag=229"
230,15020,"Old River @ Mercy Southwest Hospital",35.351954,-119.114315,"http://eta.getbus.org/RTT/Public/RoutePositionET.aspx?PlatformTag=230"
231,14758,"Commercial Way & Commerce Drive",35.367346,-119.060470,"http://eta.getbus.org/RTT/Public/RoutePositionET.aspx?PlatformTag=231"
232,21082,"Office Park Drive & Commercial Way",35.366233,-119.059902,"http://eta.getbus.org/RTT/Public/RoutePositionET.aspx?PlatformTag=232"
233,10752,"F & 28th",35.384500,-119.023374,"http://eta.getbus.org/RTT/Public/RoutePositionET.aspx?PlatformTag=233"
234,10799,"F & 30th",35.386404,-119.023364,"http://eta.getbus.org/RTT/Public/RoutePositionET.aspx?PlatformTag=234"
235,11281,"F @ DMV",35.388202,-119.023354,"http://eta.getbus.org/RTT/Public/RoutePositionET.aspx?PlatformTag=235"
236,11299,"Golden State & F",35.390074,-119.023080,"http://eta.getbus.org/RTT/Public/RoutePositionET.aspx?PlatformTag=236"
238,10440,"F & Golden State",35.388416,-119.023575,"http://eta.getbus.org/RTT/Public/RoutePositionET.aspx?PlatformTag=238"
239,10438,"F & 30th",35.386458,-119.023570,"http://eta.getbus.org/RTT/Public/RoutePositionET.aspx?PlatformTag=239"
240,10429,"F & 28th",35.384246,-119.023585,"http://eta.getbus.org/RTT/Public/RoutePositionET.aspx?PlatformTag=240"
241,10417,"F & 26th",35.383168,-119.023604,"http://eta.getbus.org/RTT/Public/RoutePositionET.aspx?PlatformTag=241"
243,16084,"Wible & Wilson",35.331744,-119.039120,"http://eta.getbus.org/RTT/Public/RoutePositionET.aspx?PlatformTag=243"
244,16078,"Wible & Grassotti",35.329351,-119.039982,"http://eta.getbus.org/RTT/Public/RoutePositionET.aspx?PlatformTag=244"
245,16097,"Wible & Kennedy",35.327836,-119.039919,"http://eta.getbus.org/RTT/Public/RoutePositionET.aspx?PlatformTag=245"
246,20609,"White Lane @ Fallas Store",35.317791,-119.026910,"http://eta.getbus.org/RTT/Public/RoutePositionET.aspx?PlatformTag=246"
247,19428,"South H & White Lane",35.317060,-119.021403,"http://eta.getbus.org/RTT/Public/RoutePositionET.aspx?PlatformTag=247"
248,19519,"South H & Calcutta",35.313867,-119.021418,"http://eta.getbus.org/RTT/Public/RoutePositionET.aspx?PlatformTag=248"
249,19535,"South H & Pacheco Road",35.309855,-119.021420,"http://eta.getbus.org/RTT/Public/RoutePositionET.aspx?PlatformTag=249"
250,19557,"South H & Faith",35.306544,-119.021441,"http://eta.getbus.org/RTT/Public/RoutePositionET.aspx?PlatformTag=250"
251,19526,"South H & Fairview",35.303812,-119.021390,"http://eta.getbus.org/RTT/Public/RoutePositionET.aspx?PlatformTag=251"
252,19503,"South H & Maurice",35.299920,-119.021391,"http://eta.getbus.org/RTT/Public/RoutePositionET.aspx?PlatformTag=252"
253,19588,"South H & William F Halsey",35.297627,-119.021393,"http://eta.getbus.org/RTT/Public/RoutePositionET.aspx?PlatformTag=253"
254,10061,"Panama Lane & Finch",35.295757,-119.016155,"http://eta.getbus.org/RTT/Public/RoutePositionET.aspx?PlatformTag=254"
256,21478,"South Union & Hudson",35.277359,-119.003236,"http://eta.getbus.org/RTT/Public/RoutePositionET.aspx?PlatformTag=256"
257,21568,"South Union & McKee",35.274497,-119.003234,"http://eta.getbus.org/RTT/Public/RoutePositionET.aspx?PlatformTag=257"
259,23219,"Taft & South H",35.266700,-119.020269,"http://eta.getbus.org/RTT/Public/RoutePositionET.aspx?PlatformTag=259"
260,23226,"Taft & La Jolla",35.266709,-119.016146,"http://eta.getbus.org/RTT/Public/RoutePositionET.aspx?PlatformTag=260"
261,23235,"Taft & Ramos",35.266713,-119.007822,"http://eta.getbus.org/RTT/Public/RoutePositionET.aspx?PlatformTag=261"
262,23242,"Taft & Bace",35.266768,-119.004683,"http://eta.getbus.org/RTT/Public/RoutePositionET.aspx?PlatformTag=262"
263,23257,"South Union & Panama Road",35.267170,-119.002901,"http://eta.getbus.org/RTT/Public/RoutePositionET.aspx?PlatformTag=263"
264,23261,"South Union & Barton",35.270096,-119.002901,"http://eta.getbus.org/RTT/Public/RoutePositionET.aspx?PlatformTag=264"
265,23274,"South Union @ Trailer Court",35.271611,-119.002925,"http://eta.getbus.org/RTT/Public/RoutePositionET.aspx?PlatformTag=265"
266,23363,"South Union & McKee",35.273997,-119.002950,"http://eta.getbus.org/RTT/Public/RoutePositionET.aspx?PlatformTag=266"
267,23290,"South Union & Hudson",35.275590,-119.002940,"http://eta.getbus.org/RTT/Public/RoutePositionET.aspx?PlatformTag=267"
268,19746,"Panama Lane & Union",35.295959,-119.003724,"http://eta.getbus.org/RTT/Public/RoutePositionET.aspx?PlatformTag=268"
269,19664,"Panama Lane & Betty",35.296023,-119.008393,"http://eta.getbus.org/RTT/Public/RoutePositionET.aspx?PlatformTag=269"
270,10088,"Panama Lane & Monitor",35.296007,-119.012530,"http://eta.getbus.org/RTT/Public/RoutePositionET.aspx?PlatformTag=270"
271,10057,"Panama Lane & Finch",35.296002,-119.015576,"http://eta.getbus.org/RTT/Public/RoutePositionET.aspx?PlatformTag=271"
272,10019,"Panama Lane & Springbrook",35.296000,-119.018902,"http://eta.getbus.org/RTT/Public/RoutePositionET.aspx?PlatformTag=272"
273,18219,"South H & William F Halsey",35.298172,-119.021200,"http://eta.getbus.org/RTT/Public/RoutePositionET.aspx?PlatformTag=273"
274,18235,"South H & Maurice",35.299800,-119.021199,"http://eta.getbus.org/RTT/Public/RoutePositionET.aspx?PlatformTag=274"
275,18242,"South H & Fairview",35.303597,-119.021197,"http://eta.getbus.org/RTT/Public/RoutePositionET.aspx?PlatformTag=275"
276,18274,"South H & Faith",35.307105,-119.021192,"http://eta.getbus.org/RTT/Public/RoutePositionET.aspx?PlatformTag=276"
277,18051,"South H & Calcutta",35.313851,-119.021184,"http://eta.getbus.org/RTT/Public/RoutePositionET.aspx?PlatformTag=277"
278,18392,"South H & Pacheco Road",35.310790,-119.021172,"http://eta.getbus.org/RTT/Public/RoutePositionET.aspx?PlatformTag=278"
279,20645,"White Lane & South H",35.317771,-119.022306,"http://eta.getbus.org/RTT/Public/RoutePositionET.aspx?PlatformTag=279"
280,20632,"White Lane & Hughes",35.317796,-119.028905,"http://eta.getbus.org/RTT/Public/RoutePositionET.aspx?PlatformTag=280"
281,15841,"Wible & Kennedy",35.328154,-119.039713,"http://eta.getbus.org/RTT/Public/RoutePositionET.aspx?PlatformTag=281"
283,18521,"Oswell & Potomac",35.363617,-118.949629,"http://eta.getbus.org/RTT/Public/RoutePositionET.aspx?PlatformTag=283"
285,13914,"Rosedale @ Vista West High School",35.383257,-119.083652,"http://eta.getbus.org/RTT/Public/RoutePositionET.aspx?PlatformTag=285"
286,12197,"Rosedale & Coffee",35.383601,-119.094846,"http://eta.getbus.org/RTT/Public/RoutePositionET.aspx?PlatformTag=286"
287,12184,"Coffee & Granite Falls",35.386177,-119.092339,"http://eta.getbus.org/RTT/Public/RoutePositionET.aspx?PlatformTag=287"
288,13967,"Rosedale & Calloway",35.383347,-119.109069,"http://eta.getbus.org/RTT/Public/RoutePositionET.aspx?PlatformTag=288"
291,13922,"Rosedale  & Camino Del Rio",35.383047,-119.048506,"http://eta.getbus.org/RTT/Public/RoutePositionET.aspx?PlatformTag=291"
292,10562,"21st & Oak",35.378284,-119.037817,"http://eta.getbus.org/RTT/Public/RoutePositionET.aspx?PlatformTag=292"
293,12624,"Olive & Roberts",35.412304,-119.047592,"http://eta.getbus.org/RTT/Public/RoutePositionET.aspx?PlatformTag=293"
294,10493,"21st & F",35.378236,-119.024313,"http://eta.getbus.org/RTT/Public/RoutePositionET.aspx?PlatformTag=294"
295,10775,"F & 24th",35.382194,-119.023388,"http://eta.getbus.org/RTT/Public/RoutePositionET.aspx?PlatformTag=295"
296,10472,"21st & Spruce",35.378271,-119.033230,"http://eta.getbus.org/RTT/Public/RoutePositionET.aspx?PlatformTag=296"
297,10464,"21st & Cedar",35.378256,-119.030768,"http://eta.getbus.org/RTT/Public/RoutePositionET.aspx?PlatformTag=297"
298,10486,"21st & B",35.378252,-119.028658,"http://eta.getbus.org/RTT/Public/RoutePositionET.aspx?PlatformTag=298"
299,14743,"Mohawk & Truxtun",35.364044,-119.065061,"http://eta.getbus.org/RTT/Public/RoutePositionET.aspx?PlatformTag=299"
300,12669,"Olive @ Olive Drive Towne Center",35.412209,-119.044310,"http://eta.getbus.org/RTT/Public/RoutePositionET.aspx?PlatformTag=300"
301,14736,"Mohawk & Greenhaven",35.362316,-119.063047,"http://eta.getbus.org/RTT/Public/RoutePositionET.aspx?PlatformTag=301"
302,14704,"Mohawk & California",35.361347,-119.060799,"http://eta.getbus.org/RTT/Public/RoutePositionET.aspx?PlatformTag=302"
303,13375,"Mohawk & California",35.361602,-119.060765,"http://eta.getbus.org/RTT/Public/RoutePositionET.aspx?PlatformTag=303"
304,15716,"Mohawk & Tower Way",35.362341,-119.062501,"http://eta.getbus.org/RTT/Public/RoutePositionET.aspx?PlatformTag=304"
305,10641,"Ming & Hughes",35.339581,-119.030850,"http://eta.getbus.org/RTT/Public/RoutePositionET.aspx?PlatformTag=305"
307,10536,"19th & Oak",35.376260,-119.039437,"http://eta.getbus.org/RTT/Public/RoutePositionET.aspx?PlatformTag=307"
308,10589,"Westwind & 19th",35.376654,-119.042602,"http://eta.getbus.org/RTT/Public/RoutePositionET.aspx?PlatformTag=308"
309,10570,"21st & Westwind",35.378250,-119.041800,"http://eta.getbus.org/RTT/Public/RoutePositionET.aspx?PlatformTag=309"
310,15272,"Rosedale @ Costco",35.383417,-119.048401,"http://eta.getbus.org/RTT/Public/RoutePositionET.aspx?PlatformTag=310"
311,12611,"Olive & Airport",35.412192,-119.039649,"http://eta.getbus.org/RTT/Public/RoutePositionET.aspx?PlatformTag=311"
312,15201,"Rosedale & Patton",35.383510,-119.083843,"http://eta.getbus.org/RTT/Public/RoutePositionET.aspx?PlatformTag=312"
313,21974,"Roberts & Belmont",35.408527,-119.036862,"http://eta.getbus.org/RTT/Public/RoutePositionET.aspx?PlatformTag=313"
314,14789,"Office Park Drive & Truxtun",35.365941,-119.063592,"http://eta.getbus.org/RTT/Public/RoutePositionET.aspx?PlatformTag=314"
315,14762,"Office Park Drive @ Social Security Office",35.365783,-119.061459,"http://eta.getbus.org/RTT/Public/RoutePositionET.aspx?PlatformTag=315"
316,12695,"Roberts & Sequoia",35.408529,-119.035156,"http://eta.getbus.org/RTT/Public/RoutePositionET.aspx?PlatformTag=316"
317,21007,"Roberts & MacArthur",35.408530,-119.032180,"http://eta.getbus.org/RTT/Public/RoutePositionET.aspx?PlatformTag=317"
318,16717,"Bernard & Alta Vista",35.390143,-118.994345,"http://eta.getbus.org/RTT/Public/RoutePositionET.aspx?PlatformTag=318"
319,14961,"Bernard & Inyo",35.390329,-118.993435,"http://eta.getbus.org/RTT/Public/RoutePositionET.aspx?PlatformTag=319"
320,13933,"New Stine & Demaret",35.351312,-119.061022,"http://eta.getbus.org/RTT/Public/RoutePositionET.aspx?PlatformTag=320"
321,21484,"Feliz & Franco",35.350362,-118.979828,"http://eta.getbus.org/RTT/Public/RoutePositionET.aspx?PlatformTag=321"
322,12653,"Roberts & Oildale",35.408536,-119.029467,"http://eta.getbus.org/RTT/Public/RoutePositionET.aspx?PlatformTag=322"
324,18566,"Pioneer & Pesante",35.368639,-118.943664,"http://eta.getbus.org/RTT/Public/RoutePositionET.aspx?PlatformTag=324"
326,12630,"Roberts & Plymouth",35.408542,-119.024730,"http://eta.getbus.org/RTT/Public/RoutePositionET.aspx?PlatformTag=326"
327,15293,"Rosedale @ Target",35.383639,-119.105348,"http://eta.getbus.org/RTT/Public/RoutePositionET.aspx?PlatformTag=327"
328,15666,"South Union & Belle Terrace",35.345389,-119.003196,"http://eta.getbus.org/RTT/Public/RoutePositionET.aspx?PlatformTag=328"
330,10074,"Panama Lane & Hammond",35.295755,-119.018086,"http://eta.getbus.org/RTT/Public/RoutePositionET.aspx?PlatformTag=330"
331,15238,"Rosedale & Calloway",35.383632,-119.110787,"http://eta.getbus.org/RTT/Public/RoutePositionET.aspx?PlatformTag=331"
332,12648,"North Chester & Roberts",35.408195,-119.021167,"http://eta.getbus.org/RTT/Public/RoutePositionET.aspx?PlatformTag=332"
333,15264,"Rosedale & Mosasco",35.383602,-119.113054,"http://eta.getbus.org/RTT/Public/RoutePositionET.aspx?PlatformTag=333"
334,15240,"Rosedale & Verdugo",35.383609,-119.119440,"http://eta.getbus.org/RTT/Public/RoutePositionET.aspx?PlatformTag=334"
335,15229,"Rosedale & La Cresenta",35.383625,-119.121754,"http://eta.getbus.org/RTT/Public/RoutePositionET.aspx?PlatformTag=335"
336,13824,"Allen & Palm",35.376733,-119.145392,"http://eta.getbus.org/RTT/Public/RoutePositionET.aspx?PlatformTag=336"
337,13811,"Allen & Dove Creek",35.378953,-119.145386,"http://eta.getbus.org/RTT/Public/RoutePositionET.aspx?PlatformTag=337"
338,13882,"Rosedale & Allen",35.383420,-119.144719,"http://eta.getbus.org/RTT/Public/RoutePositionET.aspx?PlatformTag=338"
339,13895,"Rosedale & Old Farm",35.383427,-119.137254,"http://eta.getbus.org/RTT/Public/RoutePositionET.aspx?PlatformTag=339"
340,13807,"Rosedale & Jewetta",35.383392,-119.131933,"http://eta.getbus.org/RTT/Public/RoutePositionET.aspx?PlatformTag=340"
341,13980,"Rosedale & La Cresenta",35.383372,-119.122565,"http://eta.getbus.org/RTT/Public/RoutePositionET.aspx?PlatformTag=341"
342,15175,"Hageman & Verdugo",35.397876,-119.120263,"http://eta.getbus.org/RTT/Public/RoutePositionET.aspx?PlatformTag=342"
343,12682,"West Columbus & Chester",35.398036,-119.017723,"http://eta.getbus.org/RTT/Public/RoutePositionET.aspx?PlatformTag=343"
344,15147,"Hageman & Brittany",35.397937,-119.111997,"http://eta.getbus.org/RTT/Public/RoutePositionET.aspx?PlatformTag=344"
345,15199,"Hageman & Calloway",35.397932,-119.109301,"http://eta.getbus.org/RTT/Public/RoutePositionET.aspx?PlatformTag=345"
346,21855,"Coffee & Hageman",35.400652,-119.092401,"http://eta.getbus.org/RTT/Public/RoutePositionET.aspx?PlatformTag=346"
347,12132,"Coffee & Downing",35.390206,-119.092347,"http://eta.getbus.org/RTT/Public/RoutePositionET.aspx?PlatformTag=347"
348,12291,"Granite Falls & NW Promenade",35.387057,-119.096816,"http://eta.getbus.org/RTT/Public/RoutePositionET.aspx?PlatformTag=348"
350,21095,"Brimhall & Aldershot",35.369074,-119.133037,"http://eta.getbus.org/RTT/Public/RoutePositionET.aspx?PlatformTag=350"
351,12742,"West Columbus & Jewett",35.398025,-119.013831,"http://eta.getbus.org/RTT/Public/RoutePositionET.aspx?PlatformTag=351"
352,15134,"Hageman & Sovereign",35.397865,-119.122718,"http://eta.getbus.org/RTT/Public/RoutePositionET.aspx?PlatformTag=352"
353,13174,"Truxtun @ Rabo Bank Arena",35.373457,-119.013379,"http://eta.getbus.org/RTT/Public/RoutePositionET.aspx?PlatformTag=353"
354,13119,"Truxtun & Q",35.373446,-119.011191,"http://eta.getbus.org/RTT/Public/RoutePositionET.aspx?PlatformTag=354"
355,21942,"Coffee & Meaney",35.393134,-119.092356,"http://eta.getbus.org/RTT/Public/RoutePositionET.aspx?PlatformTag=355"
356,12726,"West Columbus & Q",35.398007,-119.010052,"http://eta.getbus.org/RTT/Public/RoutePositionET.aspx?PlatformTag=356"
357,13766,"Stockdale @ Millenium Surgery Center",35.354558,-119.104992,"http://eta.getbus.org/RTT/Public/RoutePositionET.aspx?PlatformTag=357"
358,21677,"Feliz & Franco",35.350454,-118.980487,"http://eta.getbus.org/RTT/Public/RoutePositionET.aspx?PlatformTag=358"
359,21011,"West Columbus & San Dimas",35.397493,-119.007637,"http://eta.getbus.org/RTT/Public/RoutePositionET.aspx?PlatformTag=359"
360,11456,"Foothill & Park",35.367029,-118.918505,"http://eta.getbus.org/RTT/Public/RoutePositionET.aspx?PlatformTag=360"
361,13436,"New Stine & Sundale",35.343756,-119.061302,"http://eta.getbus.org/RTT/Public/RoutePositionET.aspx?PlatformTag=361"
362,17875,"New Stine @ Olive Garden",35.339943,-119.061290,"http://eta.getbus.org/RTT/Public/RoutePositionET.aspx?PlatformTag=362"
363,11004,"Ming & Real",35.339386,-119.043828,"http://eta.getbus.org/RTT/Public/RoutePositionET.aspx?PlatformTag=363"
364,14271,"Clay Patrick Farr & Jenna Kathryn",35.387760,-119.100949,"http://eta.getbus.org/RTT/Public/RoutePositionET.aspx?PlatformTag=364"
365,14263,"Clay Patrick Farr & Winlock",35.390051,-119.101424,"http://eta.getbus.org/RTT/Public/RoutePositionET.aspx?PlatformTag=365"
366,12735,"West Columbus & Isla Verde",35.397148,-119.005506,"http://eta.getbus.org/RTT/Public/RoutePositionET.aspx?PlatformTag=366"
367,15943,"Stockdale & El Rio",35.354473,-119.083350,"http://eta.getbus.org/RTT/Public/RoutePositionET.aspx?PlatformTag=367"
368,21341,"East California & Washington",35.368667,-118.976776,"http://eta.getbus.org/RTT/Public/RoutePositionET.aspx?PlatformTag=368"
369,12774,"West Columbus & Union",35.397376,-119.003841,"http://eta.getbus.org/RTT/Public/RoutePositionET.aspx?PlatformTag=369"
370,19831,"East California & Beverly",35.368401,-118.975287,"http://eta.getbus.org/RTT/Public/RoutePositionET.aspx?PlatformTag=370"
371,12420,"Gosford @ Denny's",35.315219,-119.092020,"http://eta.getbus.org/RTT/Public/RoutePositionET.aspx?PlatformTag=371"
372,21466,"South Union & Hosking",35.280822,-119.003241,"http://eta.getbus.org/RTT/Public/RoutePositionET.aspx?PlatformTag=372"
373,19910,"Columbus & Loma Linda",35.397410,-118.998925,"http://eta.getbus.org/RTT/Public/RoutePositionET.aspx?PlatformTag=373"
376,11559,"Foothill & Morning Drive",35.367055,-118.914948,"http://eta.getbus.org/RTT/Public/RoutePositionET.aspx?PlatformTag=376"
377,11275,"Columbus & Alturas",35.397408,-118.996188,"http://eta.getbus.org/RTT/Public/RoutePositionET.aspx?PlatformTag=377"
378,10354,"Monitor & Pacheco",35.310830,-119.012021,"http://eta.getbus.org/RTT/Public/RoutePositionET.aspx?PlatformTag=378"
379,10365,"Monitor & Capitola",35.307063,-119.012029,"http://eta.getbus.org/RTT/Public/RoutePositionET.aspx?PlatformTag=379"
380,10003,"Monitor & Fairview",35.302752,-119.012027,"http://eta.getbus.org/RTT/Public/RoutePositionET.aspx?PlatformTag=380"
381,10035,"Monitor & Adelaide",35.299382,-119.012029,"http://eta.getbus.org/RTT/Public/RoutePositionET.aspx?PlatformTag=381"
382,12317,"Gosford & District",35.312687,-119.092327,"http://eta.getbus.org/RTT/Public/RoutePositionET.aspx?PlatformTag=382"
383,12338,"Gosford @ Gosford Village",35.308700,-119.092328,"http://eta.getbus.org/RTT/Public/RoutePositionET.aspx?PlatformTag=383"
384,12301,"Harris & Gosford",35.303304,-119.091363,"http://eta.getbus.org/RTT/Public/RoutePositionET.aspx?PlatformTag=384"
385,11268,"Columbus & Alta Vista",35.397422,-118.993517,"http://eta.getbus.org/RTT/Public/RoutePositionET.aspx?PlatformTag=385"
386,11544,"Harris & Wilderness",35.303571,-119.088319,"http://eta.getbus.org/RTT/Public/RoutePositionET.aspx?PlatformTag=386"
387,11500,"Harris & Silvergate",35.304432,-119.085594,"http://eta.getbus.org/RTT/Public/RoutePositionET.aspx?PlatformTag=387"
388,11592,"Harris & Reliance",35.303732,-119.079262,"http://eta.getbus.org/RTT/Public/RoutePositionET.aspx?PlatformTag=388"
389,11571,"Harris & White Frost",35.303278,-119.077600,"http://eta.getbus.org/RTT/Public/RoutePositionET.aspx?PlatformTag=389"
390,11206,"Columbus & North Tulare",35.397469,-118.990568,"http://eta.getbus.org/RTT/Public/RoutePositionET.aspx?PlatformTag=390"
391,12340,"Harris & Reliance",35.304368,-119.080157,"http://eta.getbus.org/RTT/Public/RoutePositionET.aspx?PlatformTag=391"
392,12355,"Harris & Silvergate",35.304832,-119.084975,"http://eta.getbus.org/RTT/Public/RoutePositionET.aspx?PlatformTag=392"
393,12386,"Harris & Spring Creek Loop",35.303634,-119.088900,"http://eta.getbus.org/RTT/Public/RoutePositionET.aspx?PlatformTag=393"
394,12393,"Harris & Gosford",35.303522,-119.090973,"http://eta.getbus.org/RTT/Public/RoutePositionET.aspx?PlatformTag=394"
395,12412,"Gosford @ Gosford Village",35.308886,-119.092026,"http://eta.getbus.org/RTT/Public/RoutePositionET.aspx?PlatformTag=395"
396,12431,"Gosford & District",35.312093,-119.092022,"http://eta.getbus.org/RTT/Public/RoutePositionET.aspx?PlatformTag=396"
397,21758,"Cottonwood & Watts",35.332837,-118.985410,"http://eta.getbus.org/RTT/Public/RoutePositionET.aspx?PlatformTag=397"
398,11210,"Columbus & North Baker",35.397475,-118.987876,"http://eta.getbus.org/RTT/Public/RoutePositionET.aspx?PlatformTag=398"
399,21791,"Cottonwood & Watts",35.331851,-118.985631,"http://eta.getbus.org/RTT/Public/RoutePositionET.aspx?PlatformTag=399"
400,21683,"Cottonwood & Bradshaw",35.333863,-118.985600,"http://eta.getbus.org/RTT/Public/RoutePositionET.aspx?PlatformTag=400"
401,21608,"Cottonwood & Bradshaw",35.334599,-118.985408,"http://eta.getbus.org/RTT/Public/RoutePositionET.aspx?PlatformTag=401"
402,12166,"Coffee & Entrance",35.395953,-119.092358,"http://eta.getbus.org/RTT/Public/RoutePositionET.aspx?PlatformTag=402"
403,11223,"River & Skyline",35.398075,-118.985086,"http://eta.getbus.org/RTT/Public/RoutePositionET.aspx?PlatformTag=403"
406,11234,"River & University",35.401148,-118.985129,"http://eta.getbus.org/RTT/Public/RoutePositionET.aspx?PlatformTag=406"
407,15904,"Laval & Dennis McCarthy",34.984046,-118.949839,"http://eta.getbus.org/RTT/Public/RoutePositionET.aspx?PlatformTag=407"
408,21292,"Industrial Parkway Drive @ IKEA",34.976628,-118.946787,"http://eta.getbus.org/RTT/Public/RoutePositionET.aspx?PlatformTag=408"
409,12871,"North Chester & Bedford",35.429327,-119.021418,"http://eta.getbus.org/RTT/Public/RoutePositionET.aspx?PlatformTag=409"
410,12800,"North Chester & China Grade Loop",35.427137,-119.021414,"http://eta.getbus.org/RTT/Public/RoutePositionET.aspx?PlatformTag=410"
411,15915,"Laval & Dennis McCarthy",34.983800,-118.949828,"http://eta.getbus.org/RTT/Public/RoutePositionET.aspx?PlatformTag=411"
412,21838,"River & Acacia",35.403983,-118.985184,"http://eta.getbus.org/RTT/Public/RoutePositionET.aspx?PlatformTag=412"
413,18005,"Stine & Panama Lane",35.293698,-119.056849,"http://eta.getbus.org/RTT/Public/RoutePositionET.aspx?PlatformTag=413"
414,17806,"Stine & Clear Crystal",35.284599,-119.056834,"http://eta.getbus.org/RTT/Public/RoutePositionET.aspx?PlatformTag=414"
415,21801,"River & Panorama",35.408129,-118.985239,"http://eta.getbus.org/RTT/Public/RoutePositionET.aspx?PlatformTag=415"
416,12006,"Panama Lane & Summerfield",35.296066,-119.052265,"http://eta.getbus.org/RTT/Public/RoutePositionET.aspx?PlatformTag=416"
417,12113,"Stine & Maybrook",35.297072,-119.056512,"http://eta.getbus.org/RTT/Public/RoutePositionET.aspx?PlatformTag=417"
418,16032,"Wible & Planz",35.325474,-119.039124,"http://eta.getbus.org/RTT/Public/RoutePositionET.aspx?PlatformTag=418"
419,16045,"Wible @ Southwest Lanes",35.322046,-119.039119,"http://eta.getbus.org/RTT/Public/RoutePositionET.aspx?PlatformTag=419"
420,15860,"Wible & Alum",35.319069,-119.038823,"http://eta.getbus.org/RTT/Public/RoutePositionET.aspx?PlatformTag=420"
421,15856,"Wible @ Southwest Lanes",35.321682,-119.038826,"http://eta.getbus.org/RTT/Public/RoutePositionET.aspx?PlatformTag=421"
422,15839,"Wible & Planz",35.323535,-119.038827,"http://eta.getbus.org/RTT/Public/RoutePositionET.aspx?PlatformTag=422"
423,10042,"Panama Lane & South H",35.296001,-119.022280,"http://eta.getbus.org/RTT/Public/RoutePositionET.aspx?PlatformTag=423"
424,10026,"Panama Lane & Pebble Point",35.296002,-119.025031,"http://eta.getbus.org/RTT/Public/RoutePositionET.aspx?PlatformTag=424"
425,11397,"Panorama & River",35.409012,-118.983902,"http://eta.getbus.org/RTT/Public/RoutePositionET.aspx?PlatformTag=425"
426,10090,"Panama Lane & Colony",35.295756,-119.025749,"http://eta.getbus.org/RTT/Public/RoutePositionET.aspx?PlatformTag=426"
427,15255,"Clay Patrick Farr @ Target",35.385381,-119.101179,"http://eta.getbus.org/RTT/Public/RoutePositionET.aspx?PlatformTag=427"
428,21387,"Truxtun Plaza West @ CBCC",35.361836,-119.073144,"http://eta.getbus.org/RTT/Public/RoutePositionET.aspx?PlatformTag=428"
429,14791,"Mohawk & Truxtun",35.364643,-119.065044,"http://eta.getbus.org/RTT/Public/RoutePositionET.aspx?PlatformTag=429"
430,19444,"White Lane & Hughes",35.317550,-119.028290,"http://eta.getbus.org/RTT/Public/RoutePositionET.aspx?PlatformTag=430"
431,16698,"Columbus & Occidental",35.397647,-118.970292,"http://eta.getbus.org/RTT/Public/RoutePositionET.aspx?PlatformTag=431"
433,15927,"Laval Road & Wheeler Ridge Road",34.990803,-118.941022,"http://eta.getbus.org/RTT/Public/RoutePositionET.aspx?PlatformTag=433"
434,18509,"Virginia & Dorrance",35.361473,-118.955888,"http://eta.getbus.org/RTT/Public/RoutePositionET.aspx?PlatformTag=434"
435,21302,"Tejon Industrial & Industrial Parkway",34.978835,-118.952231,"http://eta.getbus.org/RTT/Public/RoutePositionET.aspx?PlatformTag=435"
436,21534,"4th & N",35.360859,-119.013925,"http://eta.getbus.org/RTT/Public/RoutePositionET.aspx?PlatformTag=436"
437,21510,"4th & N",35.360713,-119.014441,"http://eta.getbus.org/RTT/Public/RoutePositionET.aspx?PlatformTag=437"
448,17125,"Allen & Dove Creek",35.378826,-119.145684,"http://eta.getbus.org/RTT/Public/RoutePositionET.aspx?PlatformTag=448"
449,13830,"Allen & Old Town",35.373760,-119.145394,"http://eta.getbus.org/RTT/Public/RoutePositionET.aspx?PlatformTag=449"
450,13998,"Allen & Palm",35.375793,-119.145718,"http://eta.getbus.org/RTT/Public/RoutePositionET.aspx?PlatformTag=450"
451,14612,"Ashe & White Lane",35.318885,-119.074297,"http://eta.getbus.org/RTT/Public/RoutePositionET.aspx?PlatformTag=451"
452,15744,"Ashe & Half Moon",35.321452,-119.074620,"http://eta.getbus.org/RTT/Public/RoutePositionET.aspx?PlatformTag=452"
453,21325,"Auburn & Auburn Court",35.397694,-118.945414,"http://eta.getbus.org/RTT/Public/RoutePositionET.aspx?PlatformTag=453"
454,13502,"Auburn & La Costa",35.397737,-118.940440,"http://eta.getbus.org/RTT/Public/RoutePositionET.aspx?PlatformTag=454"
455,13539,"Auburn & Oswell",35.397636,-118.949160,"http://eta.getbus.org/RTT/Public/RoutePositionET.aspx?PlatformTag=455"
456,13334,"North Chester & Wilson",35.417467,-119.021323,"http://eta.getbus.org/RTT/Public/RoutePositionET.aspx?PlatformTag=456"
457,13869,"Brimhall & Allen",35.369089,-119.143715,"http://eta.getbus.org/RTT/Public/RoutePositionET.aspx?PlatformTag=457"
458,16107,"Brimhall & Allen",35.368809,-119.144795,"http://eta.getbus.org/RTT/Public/RoutePositionET.aspx?PlatformTag=458"
459,16195,"Brimhall & Invermay",35.368807,-119.131930,"http://eta.getbus.org/RTT/Public/RoutePositionET.aspx?PlatformTag=459"
460,13853,"Brimhall & Old Farm Road",35.369095,-119.137445,"http://eta.getbus.org/RTT/Public/RoutePositionET.aspx?PlatformTag=460"
461,16130,"Brimhall & Old Farm Road",35.368798,-119.136022,"http://eta.getbus.org/RTT/Public/RoutePositionET.aspx?PlatformTag=461"
462,13876,"Brimhall & Sparland",35.369075,-119.141175,"http://eta.getbus.org/RTT/Public/RoutePositionET.aspx?PlatformTag=462"
463,16111,"Brimhall & Sparland",35.368819,-119.140154,"http://eta.getbus.org/RTT/Public/RoutePositionET.aspx?PlatformTag=463"
464,18725,"California & Eye",35.368627,-119.020370,"http://eta.getbus.org/RTT/Public/RoutePositionET.aspx?PlatformTag=464"
465,11117,"Cernan & White Lane",35.317618,-119.089576,"http://eta.getbus.org/RTT/Public/RoutePositionET.aspx?PlatformTag=465"
466,12844,"China Grade Loop & North Chester",35.426964,-119.022648,"http://eta.getbus.org/RTT/Public/RoutePositionET.aspx?PlatformTag=466"
468,12567,"Coffee & Brimhall",35.369748,-119.092078,"http://eta.getbus.org/RTT/Public/RoutePositionET.aspx?PlatformTag=468"
469,12289,"Coffee & Brimhall",35.368289,-119.092399,"http://eta.getbus.org/RTT/Public/RoutePositionET.aspx?PlatformTag=469"
470,12329,"Coffee & Downing",35.391076,-119.092060,"http://eta.getbus.org/RTT/Public/RoutePositionET.aspx?PlatformTag=470"
471,12580,"Coffee & Entrance",35.396895,-119.092058,"http://eta.getbus.org/RTT/Public/RoutePositionET.aspx?PlatformTag=471"
472,12579,"Coffee & Hageman",35.402057,-119.092064,"http://eta.getbus.org/RTT/Public/RoutePositionET.aspx?PlatformTag=472"
473,21840,"Coffee & Willow Creek",35.403284,-119.092386,"http://eta.getbus.org/RTT/Public/RoutePositionET.aspx?PlatformTag=473"
474,19369,"College & Burton",35.383020,-118.957565,"http://eta.getbus.org/RTT/Public/RoutePositionET.aspx?PlatformTag=474"
475,19382,"College & Cypress",35.382979,-118.961606,"http://eta.getbus.org/RTT/Public/RoutePositionET.aspx?PlatformTag=475"
476,19353,"College & Mt Vernon",35.382984,-118.966777,"http://eta.getbus.org/RTT/Public/RoutePositionET.aspx?PlatformTag=476"
477,17187,"Commercial & Commerce Drive",35.367071,-119.060359,"http://eta.getbus.org/RTT/Public/RoutePositionET.aspx?PlatformTag=477"
478,21696,"Cottonwood & East Casa Loma",35.339787,-118.985569,"http://eta.getbus.org/RTT/Public/RoutePositionET.aspx?PlatformTag=478"
479,19485,"Cottonwood & East Belle Terrace",35.347095,-118.985242,"http://eta.getbus.org/RTT/Public/RoutePositionET.aspx?PlatformTag=479"
480,18862,"Cottonwood & Reese",35.341573,-118.985284,"http://eta.getbus.org/RTT/Public/RoutePositionET.aspx?PlatformTag=480"
481,12918,"Cottonwood & Reese",35.342140,-118.985608,"http://eta.getbus.org/RTT/Public/RoutePositionET.aspx?PlatformTag=481"
482,12902,"Cottonwood & East Belle Terrace",35.347236,-118.985538,"http://eta.getbus.org/RTT/Public/RoutePositionET.aspx?PlatformTag=482"
483,17037,"Decatur & Sequoia",35.413685,-119.034054,"http://eta.getbus.org/RTT/Public/RoutePositionET.aspx?PlatformTag=483"
484,11091,"East Belle Terrace & Enterprise",35.346906,-118.974158,"http://eta.getbus.org/RTT/Public/RoutePositionET.aspx?PlatformTag=484"
485,14341,"East Truxtun & Tulare",35.373144,-118.997914,"http://eta.getbus.org/RTT/Public/RoutePositionET.aspx?PlatformTag=485"
486,13103,"East Truxtun & East 18th",35.373730,-118.994587,"http://eta.getbus.org/RTT/Public/RoutePositionET.aspx?PlatformTag=486"
487,13161,"East Truxtun & Tulare",35.373382,-118.998000,"http://eta.getbus.org/RTT/Public/RoutePositionET.aspx?PlatformTag=487"
488,12496,"Gosford & Kroll",35.350264,-119.092100,"http://eta.getbus.org/RTT/Public/RoutePositionET.aspx?PlatformTag=488"
489,12243,"Gosford & Kroll",35.349389,-119.092384,"http://eta.getbus.org/RTT/Public/RoutePositionET.aspx?PlatformTag=489"
490,13323,"Chester & West Columbus",35.397747,-119.018899,"http://eta.getbus.org/RTT/Public/RoutePositionET.aspx?PlatformTag=490"
491,12465,"Gosford & Ming",35.340350,-119.092071,"http://eta.getbus.org/RTT/Public/RoutePositionET.aspx?PlatformTag=491"
492,12204,"Gosford & Ming",35.339308,-119.092393,"http://eta.getbus.org/RTT/Public/RoutePositionET.aspx?PlatformTag=492"
493,12449,"Gosford & North Laurelglen",35.334235,-119.092051,"http://eta.getbus.org/RTT/Public/RoutePositionET.aspx?PlatformTag=493"
494,12270,"Gosford & North Laurelglen",35.333378,-119.092336,"http://eta.getbus.org/RTT/Public/RoutePositionET.aspx?PlatformTag=494"
495,12477,"Gosford & South Laurelglen",35.325675,-119.092026,"http://eta.getbus.org/RTT/Public/RoutePositionET.aspx?PlatformTag=495"
496,12215,"Gosford & South Laurelglen",35.324632,-119.092306,"http://eta.getbus.org/RTT/Public/RoutePositionET.aspx?PlatformTag=496"
497,12454,"Gosford & White Lane",35.318851,-119.091997,"http://eta.getbus.org/RTT/Public/RoutePositionET.aspx?PlatformTag=497"
498,16273,"Hageman & Calloway",35.398209,-119.111749,"http://eta.getbus.org/RTT/Public/RoutePositionET.aspx?PlatformTag=498"
499,10821,"Hageman & Drakes Passage",35.398215,-119.107443,"http://eta.getbus.org/RTT/Public/RoutePositionET.aspx?PlatformTag=499"
500,16239,"Hageman & Jewetta",35.398098,-119.126234,"http://eta.getbus.org/RTT/Public/RoutePositionET.aspx?PlatformTag=500"
501,15152,"Hageman & Jewetta",35.397887,-119.126978,"http://eta.getbus.org/RTT/Public/RoutePositionET.aspx?PlatformTag=501"
502,16225,"Hageman & Verdugo",35.398148,-119.120647,"http://eta.getbus.org/RTT/Public/RoutePositionET.aspx?PlatformTag=502"
503,11516,"Harris @ Seasons Park",35.303172,-119.062187,"http://eta.getbus.org/RTT/Public/RoutePositionET.aspx?PlatformTag=503"
504,18033,"Harris & Akers",35.303104,-119.048447,"http://eta.getbus.org/RTT/Public/RoutePositionET.aspx?PlatformTag=504"
505,21990,"Harris & Ashe",35.303420,-119.075277,"http://eta.getbus.org/RTT/Public/RoutePositionET.aspx?PlatformTag=505"
506,21957,"Harris & Ashe",35.303228,-119.073616,"http://eta.getbus.org/RTT/Public/RoutePositionET.aspx?PlatformTag=506"
507,11528,"Harris & California Spring",35.303199,-119.067602,"http://eta.getbus.org/RTT/Public/RoutePositionET.aspx?PlatformTag=507"
508,18046,"Harris & Julie",35.303124,-119.051826,"http://eta.getbus.org/RTT/Public/RoutePositionET.aspx?PlatformTag=508"
509,18337,"Harris & Stine",35.303136,-119.055469,"http://eta.getbus.org/RTT/Public/RoutePositionET.aspx?PlatformTag=509"
512,12372,"Harris & White Frost",35.303528,-119.078012,"http://eta.getbus.org/RTT/Public/RoutePositionET.aspx?PlatformTag=512"
513,18300,"Hosking & Fighting Irish",35.281323,-119.049892,"http://eta.getbus.org/RTT/Public/RoutePositionET.aspx?PlatformTag=513"
514,18316,"Hosking & Normanton",35.281303,-119.043560,"http://eta.getbus.org/RTT/Public/RoutePositionET.aspx?PlatformTag=514"
515,18098,"Hosking & Aspen Creek",35.281543,-119.042645,"http://eta.getbus.org/RTT/Public/RoutePositionET.aspx?PlatformTag=515"
516,13310,"Chester & 36th",35.392739,-119.018894,"http://eta.getbus.org/RTT/Public/RoutePositionET.aspx?PlatformTag=516"
517,18363,"Hosking & Hughes",35.281312,-119.031874,"http://eta.getbus.org/RTT/Public/RoutePositionET.aspx?PlatformTag=517"
519,18080,"Hosking & South H",35.281439,-119.022261,"http://eta.getbus.org/RTT/Public/RoutePositionET.aspx?PlatformTag=519"
520,18371,"Hosking & South H",35.281280,-119.021810,"http://eta.getbus.org/RTT/Public/RoutePositionET.aspx?PlatformTag=520"
521,18014,"Hosking & Stine",35.281308,-119.055708,"http://eta.getbus.org/RTT/Public/RoutePositionET.aspx?PlatformTag=521"
522,18385,"Hosking & Wible",35.281265,-119.037938,"http://eta.getbus.org/RTT/Public/RoutePositionET.aspx?PlatformTag=522"
523,20613,"Hughes & Bea",35.321606,-119.029992,"http://eta.getbus.org/RTT/Public/RoutePositionET.aspx?PlatformTag=523"
524,20650,"Hughes & Woolard",35.330003,-119.029989,"http://eta.getbus.org/RTT/Public/RoutePositionET.aspx?PlatformTag=524"
525,20666,"Hughes & Planz",35.324214,-119.029987,"http://eta.getbus.org/RTT/Public/RoutePositionET.aspx?PlatformTag=525"
526,20621,"Hughes & Patti",35.319319,-119.029988,"http://eta.getbus.org/RTT/Public/RoutePositionET.aspx?PlatformTag=526"
527,13848,"Jewetta @ Liberty High School",35.367083,-119.127811,"http://eta.getbus.org/RTT/Public/RoutePositionET.aspx?PlatformTag=527"
528,16176,"Jewetta & Eagle Rock",35.363776,-119.128040,"http://eta.getbus.org/RTT/Public/RoutePositionET.aspx?PlatformTag=528"
529,16260,"Jewetta & Milverton",35.358617,-119.130230,"http://eta.getbus.org/RTT/Public/RoutePositionET.aspx?PlatformTag=529"
530,16169,"Jewetta & Milverton",35.358212,-119.131318,"http://eta.getbus.org/RTT/Public/RoutePositionET.aspx?PlatformTag=530"
531,16256,"Jewetta & Stockdale",35.354387,-119.136490,"http://eta.getbus.org/RTT/Public/RoutePositionET.aspx?PlatformTag=531"
532,16241,"Jewetta & Wincanton",35.356856,-119.133846,"http://eta.getbus.org/RTT/Public/RoutePositionET.aspx?PlatformTag=532"
533,16153,"Jewetta & Wincanton",35.356506,-119.134812,"http://eta.getbus.org/RTT/Public/RoutePositionET.aspx?PlatformTag=533"
534,14285,"Clay Patrick Farr & Abbott",35.396388,-119.105067,"http://eta.getbus.org/RTT/Public/RoutePositionET.aspx?PlatformTag=534"
535,10813,"Clay Patrick Farr & Hageman",35.397410,-119.105640,"http://eta.getbus.org/RTT/Public/RoutePositionET.aspx?PlatformTag=535"
536,10878,"Clay Patrick Farr & Icicle Creek",35.388433,-119.101252,"http://eta.getbus.org/RTT/Public/RoutePositionET.aspx?PlatformTag=536"
537,14292,"Clay Patrick Farr & Meacham",35.392610,-119.102918,"http://eta.getbus.org/RTT/Public/RoutePositionET.aspx?PlatformTag=537"
538,10850,"Clay Patrick Farr & Meacham",35.392402,-119.103048,"http://eta.getbus.org/RTT/Public/RoutePositionET.aspx?PlatformTag=538"
539,21285,"McCray & China Grade Loop",35.427866,-119.030036,"http://eta.getbus.org/RTT/Public/RoutePositionET.aspx?PlatformTag=539"
540,12816,"McCray & Douglas",35.426636,-119.030249,"http://eta.getbus.org/RTT/Public/RoutePositionET.aspx?PlatformTag=540"
541,12885,"McCray & Norris",35.419953,-119.030176,"http://eta.getbus.org/RTT/Public/RoutePositionET.aspx?PlatformTag=541"
542,21105,"McCray & Ray",35.422743,-119.030183,"http://eta.getbus.org/RTT/Public/RoutePositionET.aspx?PlatformTag=542"
543,10128,"Merrimac & Monitor",35.321255,-119.011533,"http://eta.getbus.org/RTT/Public/RoutePositionET.aspx?PlatformTag=543"
544,13306,"Chester & 28th",35.385267,-119.018926,"http://eta.getbus.org/RTT/Public/RoutePositionET.aspx?PlatformTag=544"
545,10100,"Monitor & Capitola",35.307134,-119.011805,"http://eta.getbus.org/RTT/Public/RoutePositionET.aspx?PlatformTag=545"
546,10116,"Monitor & Adelaide",35.299424,-119.011807,"http://eta.getbus.org/RTT/Public/RoutePositionET.aspx?PlatformTag=546"
548,19542,"Monitor & Berkshire",35.288246,-119.012055,"http://eta.getbus.org/RTT/Public/RoutePositionET.aspx?PlatformTag=548"
549,23300,"Monitor & Berryessa",35.285273,-119.011805,"http://eta.getbus.org/RTT/Public/RoutePositionET.aspx?PlatformTag=549"
550,19590,"Monitor & Berryessa",35.285362,-119.012029,"http://eta.getbus.org/RTT/Public/RoutePositionET.aspx?PlatformTag=550"
551,18203,"Monitor & Ivy Trae",35.292678,-119.011811,"http://eta.getbus.org/RTT/Public/RoutePositionET.aspx?PlatformTag=551"
552,19574,"Monitor & Ivy Trae",35.292744,-119.012033,"http://eta.getbus.org/RTT/Public/RoutePositionET.aspx?PlatformTag=552"
553,11441,"Morning Drive & Polaris",35.374834,-118.914090,"http://eta.getbus.org/RTT/Public/RoutePositionET.aspx?PlatformTag=553"
554,11585,"Morning Drive & Pioneer",35.368166,-118.914398,"http://eta.getbus.org/RTT/Public/RoutePositionET.aspx?PlatformTag=554"
555,11402,"Morning Drive & Rosewood",35.372965,-118.914093,"http://eta.getbus.org/RTT/Public/RoutePositionET.aspx?PlatformTag=555"
556,13905,"New Stine & Ming",35.338549,-119.060787,"http://eta.getbus.org/RTT/Public/RoutePositionET.aspx?PlatformTag=556"
557,13347,"New Stine & Ming",35.337260,-119.060617,"http://eta.getbus.org/RTT/Public/RoutePositionET.aspx?PlatformTag=557"
558,14200,"New Stine & Wilson",35.332767,-119.058246,"http://eta.getbus.org/RTT/Public/RoutePositionET.aspx?PlatformTag=558"
559,13399,"New Stine & Wilson",35.331630,-119.058034,"http://eta.getbus.org/RTT/Public/RoutePositionET.aspx?PlatformTag=559"
560,21122,"Niles & Fairfax",35.376224,-118.930815,"http://eta.getbus.org/RTT/Public/RoutePositionET.aspx?PlatformTag=560"
561,11252,"Niles & Mt Vernon",35.376187,-118.966131,"http://eta.getbus.org/RTT/Public/RoutePositionET.aspx?PlatformTag=561"
562,11309,"Niles & Orange",35.377752,-118.972856,"http://eta.getbus.org/RTT/Public/RoutePositionET.aspx?PlatformTag=562"
564,11313,"Niles & Williams",35.378608,-118.976414,"http://eta.getbus.org/RTT/Public/RoutePositionET.aspx?PlatformTag=564"
565,21935,"Oak & Brundage",35.354770,-119.038799,"http://eta.getbus.org/RTT/Public/RoutePositionET.aspx?PlatformTag=565"
566,10515,"Oak & Verde",35.355827,-119.039011,"http://eta.getbus.org/RTT/Public/RoutePositionET.aspx?PlatformTag=566"
567,12892,"Oildale & Wilson",35.417848,-119.030122,"http://eta.getbus.org/RTT/Public/RoutePositionET.aspx?PlatformTag=567"
568,21114,"Oildale & Lincoln",35.414905,-119.030174,"http://eta.getbus.org/RTT/Public/RoutePositionET.aspx?PlatformTag=568"
569,16202,"Old Farm & El Capitan",35.403451,-119.136583,"http://eta.getbus.org/RTT/Public/RoutePositionET.aspx?PlatformTag=569"
570,15123,"Old Farm & Mauna Loa",35.401674,-119.136811,"http://eta.getbus.org/RTT/Public/RoutePositionET.aspx?PlatformTag=570"
571,15181,"Old Farm & Reina",35.411909,-119.136784,"http://eta.getbus.org/RTT/Public/RoutePositionET.aspx?PlatformTag=571"
573,21394,"Old Farm & Reina",35.413041,-119.136542,"http://eta.getbus.org/RTT/Public/RoutePositionET.aspx?PlatformTag=573"
574,15106,"Old Farm & Noriega",35.404622,-119.136819,"http://eta.getbus.org/RTT/Public/RoutePositionET.aspx?PlatformTag=574"
575,15168,"Old Farm & Sundance Canyon",35.407013,-119.136796,"http://eta.getbus.org/RTT/Public/RoutePositionET.aspx?PlatformTag=575"
576,14534,"Old Farm & Trackside",35.409686,-119.136559,"http://eta.getbus.org/RTT/Public/RoutePositionET.aspx?PlatformTag=576"
577,12514,"Olive & Mohawk",35.412246,-119.065728,"http://eta.getbus.org/RTT/Public/RoutePositionET.aspx?PlatformTag=577"
578,12598,"Olive & Patton",35.412298,-119.085097,"http://eta.getbus.org/RTT/Public/RoutePositionET.aspx?PlatformTag=578"
579,14506,"Olive & Luciano",35.419851,-119.140301,"http://eta.getbus.org/RTT/Public/RoutePositionET.aspx?PlatformTag=579"
580,12121,"Olive & Urner",35.412549,-119.088366,"http://eta.getbus.org/RTT/Public/RoutePositionET.aspx?PlatformTag=580"
581,16583,"Chester & Truxtun",35.372947,-119.018980,"http://eta.getbus.org/RTT/Public/RoutePositionET.aspx?PlatformTag=581"
582,21961,"Olive & Fruitvale",35.412272,-119.073900,"http://eta.getbus.org/RTT/Public/RoutePositionET.aspx?PlatformTag=582"
583,12505,"Olive & Jordan",35.412285,-119.078390,"http://eta.getbus.org/RTT/Public/RoutePositionET.aspx?PlatformTag=583"
584,14523,"Olive & Old Farm",35.419864,-119.137194,"http://eta.getbus.org/RTT/Public/RoutePositionET.aspx?PlatformTag=584"
585,13628,"Olive & Ronald",35.412531,-119.080583,"http://eta.getbus.org/RTT/Public/RoutePositionET.aspx?PlatformTag=585"
586,12533,"Olive & Victor",35.412233,-119.061620,"http://eta.getbus.org/RTT/Public/RoutePositionET.aspx?PlatformTag=586"
587,20927,"Palmer & Marsha",35.352211,-119.059564,"http://eta.getbus.org/RTT/Public/RoutePositionET.aspx?PlatformTag=587"
588,12047,"Panama Lane & Wible",35.296016,-119.037919,"http://eta.getbus.org/RTT/Public/RoutePositionET.aspx?PlatformTag=588"
590,12023,"Panama Lane & Wible",35.295761,-119.037343,"http://eta.getbus.org/RTT/Public/RoutePositionET.aspx?PlatformTag=590"
591,12099,"Panama Lane & Stine",35.295806,-119.054291,"http://eta.getbus.org/RTT/Public/RoutePositionET.aspx?PlatformTag=591"
592,16565,"Chester & California",35.368005,-119.019006,"http://eta.getbus.org/RTT/Public/RoutePositionET.aspx?PlatformTag=592"
593,12075,"Panama Lane & Akers",35.295796,-119.047160,"http://eta.getbus.org/RTT/Public/RoutePositionET.aspx?PlatformTag=593"
594,12010,"Panama Lane & Castleford",35.295778,-119.042416,"http://eta.getbus.org/RTT/Public/RoutePositionET.aspx?PlatformTag=594"
595,13541,"Panorama & Fairfax",35.402917,-118.930675,"http://eta.getbus.org/RTT/Public/RoutePositionET.aspx?PlatformTag=595"
596,17092,"Q & 23rd",35.379827,-119.010499,"http://eta.getbus.org/RTT/Public/RoutePositionET.aspx?PlatformTag=596"
597,14817,"Q & 23rd",35.379633,-119.010721,"http://eta.getbus.org/RTT/Public/RoutePositionET.aspx?PlatformTag=597"
598,14829,"Q & 30th",35.386873,-119.010685,"http://eta.getbus.org/RTT/Public/RoutePositionET.aspx?PlatformTag=598"
599,10137,"Raider & Planz",35.324521,-119.010722,"http://eta.getbus.org/RTT/Public/RoutePositionET.aspx?PlatformTag=599"
600,14599,"Reina & Abe",35.412371,-119.142903,"http://eta.getbus.org/RTT/Public/RoutePositionET.aspx?PlatformTag=600"
601,15110,"Reina & Coyote Canyon",35.412355,-119.138309,"http://eta.getbus.org/RTT/Public/RoutePositionET.aspx?PlatformTag=601"
602,13946,"Rosedale & Mosasco",35.383356,-119.113120,"http://eta.getbus.org/RTT/Public/RoutePositionET.aspx?PlatformTag=602"
603,15217,"Rosedale & Old Farm",35.383674,-119.137355,"http://eta.getbus.org/RTT/Public/RoutePositionET.aspx?PlatformTag=603"
604,10163,"South Chester & Geneva",35.328094,-119.011212,"http://eta.getbus.org/RTT/Public/RoutePositionET.aspx?PlatformTag=604"
605,18901,"South Union @ Truck Parking Lot",35.313779,-119.002925,"http://eta.getbus.org/RTT/Public/RoutePositionET.aspx?PlatformTag=605"
606,19798,"South Union across from Truck Parking",35.313869,-119.003209,"http://eta.getbus.org/RTT/Public/RoutePositionET.aspx?PlatformTag=606"
607,21770,"South Union & Price",35.304766,-119.002894,"http://eta.getbus.org/RTT/Public/RoutePositionET.aspx?PlatformTag=607"
608,19780,"South Union & Price",35.304680,-119.003217,"http://eta.getbus.org/RTT/Public/RoutePositionET.aspx?PlatformTag=608"
609,12973,"North Sillect & Arrow",35.395950,-119.038226,"http://eta.getbus.org/RTT/Public/RoutePositionET.aspx?PlatformTag=609"
610,21146,"North Sillect & Community School",35.391968,-119.035973,"http://eta.getbus.org/RTT/Public/RoutePositionET.aspx?PlatformTag=610"
611,21053,"North Sillect @ Corrections Department",35.391710,-119.036406,"http://eta.getbus.org/RTT/Public/RoutePositionET.aspx?PlatformTag=611"
612,14394,"North Sillect & Arrow",35.395767,-119.038248,"http://eta.getbus.org/RTT/Public/RoutePositionET.aspx?PlatformTag=612"
614,21445,"Stine & Hosking",35.282907,-119.056513,"http://eta.getbus.org/RTT/Public/RoutePositionET.aspx?PlatformTag=614"
615,14146,"Stine & District",35.312617,-119.056836,"http://eta.getbus.org/RTT/Public/RoutePositionET.aspx?PlatformTag=615"
616,14216,"Stine & Planz",35.325792,-119.056535,"http://eta.getbus.org/RTT/Public/RoutePositionET.aspx?PlatformTag=616"
617,13381,"Stine & Planz",35.324486,-119.056834,"http://eta.getbus.org/RTT/Public/RoutePositionET.aspx?PlatformTag=617"
618,18344,"Stine & Poppyseed",35.291641,-119.056528,"http://eta.getbus.org/RTT/Public/RoutePositionET.aspx?PlatformTag=618"
619,12068,"Stine & Seasons",35.298003,-119.056846,"http://eta.getbus.org/RTT/Public/RoutePositionET.aspx?PlatformTag=619"
620,14167,"Stine & Woodmere",35.307543,-119.056834,"http://eta.getbus.org/RTT/Public/RoutePositionET.aspx?PlatformTag=620"
621,21599,"Stockdale & Montclair",35.354084,-119.053465,"http://eta.getbus.org/RTT/Public/RoutePositionET.aspx?PlatformTag=621"
622,19640,"Stockdale & Buena Vista",35.349384,-119.128309,"http://eta.getbus.org/RTT/Public/RoutePositionET.aspx?PlatformTag=622"
623,16124,"Stockdale & Buena Vista",35.348537,-119.126292,"http://eta.getbus.org/RTT/Public/RoutePositionET.aspx?PlatformTag=623"
624,16554,"Chester & 4th",35.360340,-119.019052,"http://eta.getbus.org/RTT/Public/RoutePositionET.aspx?PlatformTag=624"
625,13784,"Stockdale & Calloway",35.353224,-119.115866,"http://eta.getbus.org/RTT/Public/RoutePositionET.aspx?PlatformTag=625"
626,16148,"Stockdale & Jewetta",35.353489,-119.136298,"http://eta.getbus.org/RTT/Public/RoutePositionET.aspx?PlatformTag=626"
627,20904,"Stockdale & Montclair",35.354330,-119.053883,"http://eta.getbus.org/RTT/Public/RoutePositionET.aspx?PlatformTag=627"
628,20989,"Stockdale & North Stine",35.354305,-119.048338,"http://eta.getbus.org/RTT/Public/RoutePositionET.aspx?PlatformTag=628"
629,20936,"Stockdale & Stine",35.354058,-119.046833,"http://eta.getbus.org/RTT/Public/RoutePositionET.aspx?PlatformTag=629"
630,18261,"Taft & Chevalier",35.266960,-119.010435,"http://eta.getbus.org/RTT/Public/RoutePositionET.aspx?PlatformTag=630"
631,18257,"Taft & South H",35.266929,-119.020571,"http://eta.getbus.org/RTT/Public/RoutePositionET.aspx?PlatformTag=631"
632,14339,"Truxtun @ Amtrak",35.373170,-119.008933,"http://eta.getbus.org/RTT/Public/RoutePositionET.aspx?PlatformTag=632"
633,13135,"Truxtun @ Amtrak",35.373441,-119.008687,"http://eta.getbus.org/RTT/Public/RoutePositionET.aspx?PlatformTag=633"
634,15632,"Union & Brundage",35.354760,-119.003185,"http://eta.getbus.org/RTT/Public/RoutePositionET.aspx?PlatformTag=634"
635,15446,"South Union & Terrace Way",35.349766,-119.002842,"http://eta.getbus.org/RTT/Public/RoutePositionET.aspx?PlatformTag=635"
636,15645,"South Union & Terrace Way",35.349988,-119.003185,"http://eta.getbus.org/RTT/Public/RoutePositionET.aspx?PlatformTag=636"
637,13296,"Universe & Stockton",35.431160,-119.025041,"http://eta.getbus.org/RTT/Public/RoutePositionET.aspx?PlatformTag=637"
638,13518,"University & Camden",35.405252,-118.943797,"http://eta.getbus.org/RTT/Public/RoutePositionET.aspx?PlatformTag=638"
639,13525,"University & Panorama",35.405628,-118.938368,"http://eta.getbus.org/RTT/Public/RoutePositionET.aspx?PlatformTag=639"
640,15873,"White Lane & Estate",35.317591,-119.043258,"http://eta.getbus.org/RTT/Public/RoutePositionET.aspx?PlatformTag=640"
641,15548,"White Lane & Real",35.317834,-119.043315,"http://eta.getbus.org/RTT/Public/RoutePositionET.aspx?PlatformTag=641"
642,11129,"White Lane & Akers",35.317866,-119.048648,"http://eta.getbus.org/RTT/Public/RoutePositionET.aspx?PlatformTag=642"
643,15553,"White Lane & Akers",35.317616,-119.049135,"http://eta.getbus.org/RTT/Public/RoutePositionET.aspx?PlatformTag=643"
644,11193,"White Lane & Grissom",35.318246,-119.061913,"http://eta.getbus.org/RTT/Public/RoutePositionET.aspx?PlatformTag=644"
645,11155,"White Lane & Grissom",35.318002,-119.060912,"http://eta.getbus.org/RTT/Public/RoutePositionET.aspx?PlatformTag=645"
646,21200,"White Lane & Wible",35.317826,-119.040954,"http://eta.getbus.org/RTT/Public/RoutePositionET.aspx?PlatformTag=646"
647,14608,"White Lane & Wilson",35.318293,-119.069630,"http://eta.getbus.org/RTT/Public/RoutePositionET.aspx?PlatformTag=647"
648,16066,"White Lane & Wilson",35.318043,-119.068550,"http://eta.getbus.org/RTT/Public/RoutePositionET.aspx?PlatformTag=648"
649,10723,"19th & Oak",35.376368,-119.039295,"http://eta.getbus.org/RTT/Public/RoutePositionET.aspx?PlatformTag=649"
650,10734,"Westwind & 19th",35.376747,-119.042475,"http://eta.getbus.org/RTT/Public/RoutePositionET.aspx?PlatformTag=650"
651,10747,"21st & Oak",35.378142,-119.037623,"http://eta.getbus.org/RTT/Public/RoutePositionET.aspx?PlatformTag=651"
652,16549,"Chester & Brundage",35.354527,-119.019089,"http://eta.getbus.org/RTT/Public/RoutePositionET.aspx?PlatformTag=652"
653,10781,"21st & C",35.378100,-119.026525,"http://eta.getbus.org/RTT/Public/RoutePositionET.aspx?PlatformTag=653"
654,10768,"21st & F",35.378089,-119.023189,"http://eta.getbus.org/RTT/Public/RoutePositionET.aspx?PlatformTag=654"
655,21727,"White Lane & South Union",35.317814,-119.001300,"http://eta.getbus.org/RTT/Public/RoutePositionET.aspx?PlatformTag=655"
656,12262,"Stockdale & Town & Country",35.354267,-119.095437,"http://eta.getbus.org/RTT/Public/RoutePositionET.aspx?PlatformTag=656"
657,13055,"McCray & Quail Rock",35.432437,-119.030064,"http://eta.getbus.org/RTT/Public/RoutePositionET.aspx?PlatformTag=657"
658,13040,"McCray & Sunset Meadow",35.436747,-119.030089,"http://eta.getbus.org/RTT/Public/RoutePositionET.aspx?PlatformTag=658"
660,13001,"North Chester & Merle Haggard Drive",35.439499,-119.021571,"http://eta.getbus.org/RTT/Public/RoutePositionET.aspx?PlatformTag=660"
661,12837,"North Chester & Day",35.436730,-119.021518,"http://eta.getbus.org/RTT/Public/RoutePositionET.aspx?PlatformTag=661"
662,12859,"North Chester & Universe",35.431752,-119.021447,"http://eta.getbus.org/RTT/Public/RoutePositionET.aspx?PlatformTag=662"
664,16596,"South Chester & Belle Terrace",35.346043,-119.019064,"http://eta.getbus.org/RTT/Public/RoutePositionET.aspx?PlatformTag=664"
665,10694,"Ming & South Chester",35.339567,-119.019372,"http://eta.getbus.org/RTT/Public/RoutePositionET.aspx?PlatformTag=665"
668,10832,"Hughes & Ming",35.338189,-119.030204,"http://eta.getbus.org/RTT/Public/RoutePositionET.aspx?PlatformTag=668"
669,10845,"Hughes & Holden",35.336550,-119.030200,"http://eta.getbus.org/RTT/Public/RoutePositionET.aspx?PlatformTag=669"
670,10866,"Wilson & Hughes",35.332266,-119.031226,"http://eta.getbus.org/RTT/Public/RoutePositionET.aspx?PlatformTag=670"
671,10884,"Wilson & Castro",35.332302,-119.034815,"http://eta.getbus.org/RTT/Public/RoutePositionET.aspx?PlatformTag=671"
672,16021,"Wible & Wilson",35.333017,-119.038829,"http://eta.getbus.org/RTT/Public/RoutePositionET.aspx?PlatformTag=672"
674,10267,"Ming & Anita",35.339329,-119.025465,"http://eta.getbus.org/RTT/Public/RoutePositionET.aspx?PlatformTag=674"
676,10222,"South Chester & Ming",35.339145,-119.018724,"http://eta.getbus.org/RTT/Public/RoutePositionET.aspx?PlatformTag=676"
677,10214,"South Chester & Southgate",35.336335,-119.016978,"http://eta.getbus.org/RTT/Public/RoutePositionET.aspx?PlatformTag=677"
678,10233,"South Chester & South M",35.334583,-119.015825,"http://eta.getbus.org/RTT/Public/RoutePositionET.aspx?PlatformTag=678"
679,10280,"South Chester & Wilson",35.332435,-119.014414,"http://eta.getbus.org/RTT/Public/RoutePositionET.aspx?PlatformTag=679"
681,10312,"South Chester & Sylvia",35.327277,-119.011020,"http://eta.getbus.org/RTT/Public/RoutePositionET.aspx?PlatformTag=681"
682,10308,"South Chester & Planz",35.325459,-119.009821,"http://eta.getbus.org/RTT/Public/RoutePositionET.aspx?PlatformTag=682"
683,10320,"Raider & Planz",35.324492,-119.010852,"http://eta.getbus.org/RTT/Public/RoutePositionET.aspx?PlatformTag=683"
684,10331,"Raider & Chateau",35.321839,-119.010854,"http://eta.getbus.org/RTT/Public/RoutePositionET.aspx?PlatformTag=684"
685,10349,"Monitor & Merrimac",35.320853,-119.011961,"http://eta.getbus.org/RTT/Public/RoutePositionET.aspx?PlatformTag=685"
686,10396,"Monitor & Plantation",35.319262,-119.011965,"http://eta.getbus.org/RTT/Public/RoutePositionET.aspx?PlatformTag=686"
687,10383,"Monitor & White Lane",35.317256,-119.012019,"http://eta.getbus.org/RTT/Public/RoutePositionET.aspx?PlatformTag=687"
688,10377,"Monitor & Calcutta",35.314335,-119.012020,"http://eta.getbus.org/RTT/Public/RoutePositionET.aspx?PlatformTag=688"
689,18929,"Panama Lane & Tiburon",35.295755,-119.005098,"http://eta.getbus.org/RTT/Public/RoutePositionET.aspx?PlatformTag=689"
690,10185,"Monitor & Pacheco",35.310823,-119.011802,"http://eta.getbus.org/RTT/Public/RoutePositionET.aspx?PlatformTag=690"
691,10144,"Monitor & Camile",35.314505,-119.011799,"http://eta.getbus.org/RTT/Public/RoutePositionET.aspx?PlatformTag=691"
692,10192,"Monitor & White Lane",35.317156,-119.011797,"http://eta.getbus.org/RTT/Public/RoutePositionET.aspx?PlatformTag=692"
693,10279,"South Chester & South M",35.334325,-119.015310,"http://eta.getbus.org/RTT/Public/RoutePositionET.aspx?PlatformTag=693"
694,10159,"South Chester & Southgate",35.336170,-119.016524,"http://eta.getbus.org/RTT/Public/RoutePositionET.aspx?PlatformTag=694"
695,10687,"South Chester & Ming",35.338432,-119.018014,"http://eta.getbus.org/RTT/Public/RoutePositionET.aspx?PlatformTag=695"
696,21237,"South Chester & El Sereno",35.340713,-119.018837,"http://eta.getbus.org/RTT/Public/RoutePositionET.aspx?PlatformTag=696"
697,11027,"South Chester & Belle Terrace",35.347203,-119.018844,"http://eta.getbus.org/RTT/Public/RoutePositionET.aspx?PlatformTag=697"
698,11058,"Chester & Brundage",35.354826,-119.018795,"http://eta.getbus.org/RTT/Public/RoutePositionET.aspx?PlatformTag=698"
699,11062,"Chester & 3rd",35.358661,-119.018774,"http://eta.getbus.org/RTT/Public/RoutePositionET.aspx?PlatformTag=699"
700,11036,"Chester & California",35.368880,-119.018699,"http://eta.getbus.org/RTT/Public/RoutePositionET.aspx?PlatformTag=700"
701,13188,"Chester & 17th",35.374117,-119.018677,"http://eta.getbus.org/RTT/Public/RoutePositionET.aspx?PlatformTag=701"
702,11043,"Chester & 27th",35.384214,-119.018628,"http://eta.getbus.org/RTT/Public/RoutePositionET.aspx?PlatformTag=702"
703,13254,"Chester & 34th",35.390897,-119.018582,"http://eta.getbus.org/RTT/Public/RoutePositionET.aspx?PlatformTag=703"
704,13249,"North Chester & Roberts",35.409079,-119.020857,"http://eta.getbus.org/RTT/Public/RoutePositionET.aspx?PlatformTag=704"
705,13231,"North Chester @ Standard School",35.416902,-119.021016,"http://eta.getbus.org/RTT/Public/RoutePositionET.aspx?PlatformTag=705"
707,13587,"24th & Bay",35.381130,-119.027779,"http://eta.getbus.org/RTT/Public/RoutePositionET.aspx?PlatformTag=707"
708,13458,"24th & Olive",35.381165,-119.037691,"http://eta.getbus.org/RTT/Public/RoutePositionET.aspx?PlatformTag=708"
709,13470,"Buck Owens & Sillect",35.384695,-119.043066,"http://eta.getbus.org/RTT/Public/RoutePositionET.aspx?PlatformTag=709"
710,13462,"Sillect & Buck Owens",35.386145,-119.041815,"http://eta.getbus.org/RTT/Public/RoutePositionET.aspx?PlatformTag=710"
711,12939,"Sillect @ Heart Hospital",35.386111,-119.039213,"http://eta.getbus.org/RTT/Public/RoutePositionET.aspx?PlatformTag=711"
712,12925,"North Sillect @ Kern Regional Center",35.388395,-119.037396,"http://eta.getbus.org/RTT/Public/RoutePositionET.aspx?PlatformTag=712"
715,12960,"Airport & State Road",35.403393,-119.040392,"http://eta.getbus.org/RTT/Public/RoutePositionET.aspx?PlatformTag=715"
716,12956,"Decatur & Airport",35.412273,-119.037879,"http://eta.getbus.org/RTT/Public/RoutePositionET.aspx?PlatformTag=716"
717,12994,"Decatur & Sequoia",35.413568,-119.034160,"http://eta.getbus.org/RTT/Public/RoutePositionET.aspx?PlatformTag=717"
719,21151,"Oildale & Woodrow",35.416681,-119.029972,"http://eta.getbus.org/RTT/Public/RoutePositionET.aspx?PlatformTag=719"
720,21167,"Oildale & El Tejon",35.418515,-119.029982,"http://eta.getbus.org/RTT/Public/RoutePositionET.aspx?PlatformTag=720"
721,13017,"McCray & Norris",35.419954,-119.030008,"http://eta.getbus.org/RTT/Public/RoutePositionET.aspx?PlatformTag=721"
722,13072,"McCray & Ray",35.422063,-119.030032,"http://eta.getbus.org/RTT/Public/RoutePositionET.aspx?PlatformTag=722"
723,13086,"McCray & Francis",35.424058,-119.030047,"http://eta.getbus.org/RTT/Public/RoutePositionET.aspx?PlatformTag=723"
724,17016,"Airport & State Road",35.403432,-119.040751,"http://eta.getbus.org/RTT/Public/RoutePositionET.aspx?PlatformTag=724"
726,14413,"North Sillect @ Kern Regional Center",35.388089,-119.037628,"http://eta.getbus.org/RTT/Public/RoutePositionET.aspx?PlatformTag=726"
727,14497,"North Sillect @ Heart Hospital",35.386734,-119.038412,"http://eta.getbus.org/RTT/Public/RoutePositionET.aspx?PlatformTag=727"
728,14409,"Sillect & Buck Owens",35.386241,-119.040963,"http://eta.getbus.org/RTT/Public/RoutePositionET.aspx?PlatformTag=728"
729,14445,"Buck Owens & Sillect",35.385101,-119.043310,"http://eta.getbus.org/RTT/Public/RoutePositionET.aspx?PlatformTag=729"
730,14450,"24th & Oak",35.380892,-119.037765,"http://eta.getbus.org/RTT/Public/RoutePositionET.aspx?PlatformTag=730"
731,14478,"23rd & F",35.379994,-119.023748,"http://eta.getbus.org/RTT/Public/RoutePositionET.aspx?PlatformTag=731"
732,17139,"21st & L",35.378067,-119.016765,"http://eta.getbus.org/RTT/Public/RoutePositionET.aspx?PlatformTag=732"
733,17085,"Q & 30th",35.386989,-119.010465,"http://eta.getbus.org/RTT/Public/RoutePositionET.aspx?PlatformTag=733"
734,15326,"Q & 34th",35.390092,-119.010449,"http://eta.getbus.org/RTT/Public/RoutePositionET.aspx?PlatformTag=734"
736,15335,"34th @ Memorial Hospital",35.390389,-119.006852,"http://eta.getbus.org/RTT/Public/RoutePositionET.aspx?PlatformTag=736"
737,18917,"South Union & Pacheco",35.309878,-119.002913,"http://eta.getbus.org/RTT/Public/RoutePositionET.aspx?PlatformTag=737"
738,13491,"Adult School",35.349492,-118.967735,"http://eta.getbus.org/RTT/Public/RoutePositionET.aspx?PlatformTag=738"
739,15303,"Bernard & Union",35.390127,-119.001952,"http://eta.getbus.org/RTT/Public/RoutePositionET.aspx?PlatformTag=739"
740,19767,"South Union & Pacheco",35.309667,-119.003217,"http://eta.getbus.org/RTT/Public/RoutePositionET.aspx?PlatformTag=740"
741,15319,"Bernard & Magnolia",35.390104,-118.997323,"http://eta.getbus.org/RTT/Public/RoutePositionET.aspx?PlatformTag=741"
743,13594,"Auburn & Fairfax",35.397831,-118.931323,"http://eta.getbus.org/RTT/Public/RoutePositionET.aspx?PlatformTag=743"
744,16755,"Bernard & Baker",35.390186,-118.988641,"http://eta.getbus.org/RTT/Public/RoutePositionET.aspx?PlatformTag=744"
745,21069,"Bernard & North King",35.390194,-118.986070,"http://eta.getbus.org/RTT/Public/RoutePositionET.aspx?PlatformTag=745"
746,16452,"River & Knotts",35.391649,-118.985062,"http://eta.getbus.org/RTT/Public/RoutePositionET.aspx?PlatformTag=746"
747,10171,"South Chester & Planz",35.325572,-119.009554,"http://eta.getbus.org/RTT/Public/RoutePositionET.aspx?PlatformTag=747"
748,16447,"River & Water",35.396028,-118.985071,"http://eta.getbus.org/RTT/Public/RoutePositionET.aspx?PlatformTag=748"
749,21829,"Columbus & River",35.397406,-118.984559,"http://eta.getbus.org/RTT/Public/RoutePositionET.aspx?PlatformTag=749"
750,16475,"Columbus @ Sagebrush Center",35.397400,-118.981546,"http://eta.getbus.org/RTT/Public/RoutePositionET.aspx?PlatformTag=750"
751,21076,"Office Park Drive @ Social Security Office",35.365973,-119.061294,"http://eta.getbus.org/RTT/Public/RoutePositionET.aspx?PlatformTag=751"
752,10969,"Mt Vernon & Columbus",35.398045,-118.967395,"http://eta.getbus.org/RTT/Public/RoutePositionET.aspx?PlatformTag=752"
753,10953,"Mt Vernon & Noble",35.400335,-118.967413,"http://eta.getbus.org/RTT/Public/RoutePositionET.aspx?PlatformTag=753"
754,10982,"Mt Vernon & Renegade",35.403258,-118.967429,"http://eta.getbus.org/RTT/Public/RoutePositionET.aspx?PlatformTag=754"
755,15511,"White Lane & Stine",35.317902,-119.055840,"http://eta.getbus.org/RTT/Public/RoutePositionET.aspx?PlatformTag=755"
756,16406,"Mt Vernon & Duke",35.404331,-118.967683,"http://eta.getbus.org/RTT/Public/RoutePositionET.aspx?PlatformTag=756"
757,16499,"Mt Vernon & Renegade",35.402511,-118.967670,"http://eta.getbus.org/RTT/Public/RoutePositionET.aspx?PlatformTag=757"
758,16481,"Mt Vernon & Noble",35.399825,-118.967651,"http://eta.getbus.org/RTT/Public/RoutePositionET.aspx?PlatformTag=758"
759,15096,"Columbus & Mt Vernon",35.397652,-118.967983,"http://eta.getbus.org/RTT/Public/RoutePositionET.aspx?PlatformTag=759"
760,11101,"White Lane & Stine",35.318081,-119.054936,"http://eta.getbus.org/RTT/Public/RoutePositionET.aspx?PlatformTag=760"
761,11138,"McNair & Gosford",35.316696,-119.091180,"http://eta.getbus.org/RTT/Public/RoutePositionET.aspx?PlatformTag=761"
762,16680,"Columbus & Pomona",35.397641,-118.973106,"http://eta.getbus.org/RTT/Public/RoutePositionET.aspx?PlatformTag=762"
763,16738,"Columbus & Haley",35.397638,-118.976808,"http://eta.getbus.org/RTT/Public/RoutePositionET.aspx?PlatformTag=763"
764,17028,"Airport & Olive",35.411937,-119.039138,"http://eta.getbus.org/RTT/Public/RoutePositionET.aspx?PlatformTag=764"
765,16729,"Columbus & Bucknell",35.397626,-118.981559,"http://eta.getbus.org/RTT/Public/RoutePositionET.aspx?PlatformTag=765"
766,13142,"Beale & Niles",35.380937,-118.988208,"http://eta.getbus.org/RTT/Public/RoutePositionET.aspx?PlatformTag=766"
767,16764,"River & Columbus",35.396823,-118.985291,"http://eta.getbus.org/RTT/Public/RoutePositionET.aspx?PlatformTag=767"
768,16701,"River & Water",35.395791,-118.985285,"http://eta.getbus.org/RTT/Public/RoutePositionET.aspx?PlatformTag=768"
769,16679,"River & Height",35.394022,-118.985278,"http://eta.getbus.org/RTT/Public/RoutePositionET.aspx?PlatformTag=769"
770,14988,"River & Bernard",35.390809,-118.985226,"http://eta.getbus.org/RTT/Public/RoutePositionET.aspx?PlatformTag=770"
771,14942,"Bernard & North Kern",35.390333,-118.988870,"http://eta.getbus.org/RTT/Public/RoutePositionET.aspx?PlatformTag=771"
772,14974,"Bernard & Tulare",35.390343,-118.991349,"http://eta.getbus.org/RTT/Public/RoutePositionET.aspx?PlatformTag=772"
773,14957,"Bernard & Goodman",35.390302,-118.996908,"http://eta.getbus.org/RTT/Public/RoutePositionET.aspx?PlatformTag=773"
774,14893,"Bernard & Stockton",35.390289,-119.000372,"http://eta.getbus.org/RTT/Public/RoutePositionET.aspx?PlatformTag=774"
775,14886,"Bernard & Union",35.390346,-119.002212,"http://eta.getbus.org/RTT/Public/RoutePositionET.aspx?PlatformTag=775"
776,14838,"34th & Union",35.390562,-119.004847,"http://eta.getbus.org/RTT/Public/RoutePositionET.aspx?PlatformTag=776"
777,14872,"34th @ Memorial Hospital",35.390572,-119.007405,"http://eta.getbus.org/RTT/Public/RoutePositionET.aspx?PlatformTag=777"
778,13352,"Stine & White Lane",35.317079,-119.056834,"http://eta.getbus.org/RTT/Public/RoutePositionET.aspx?PlatformTag=778"
779,14864,"Q & 34th",35.389851,-119.010669,"http://eta.getbus.org/RTT/Public/RoutePositionET.aspx?PlatformTag=779"
780,14840,"Q & 32nd",35.388541,-119.010676,"http://eta.getbus.org/RTT/Public/RoutePositionET.aspx?PlatformTag=780"
781,14855,"21st & L",35.378210,-119.016844,"http://eta.getbus.org/RTT/Public/RoutePositionET.aspx?PlatformTag=781"
782,18702,"California & G",35.368347,-119.022130,"http://eta.getbus.org/RTT/Public/RoutePositionET.aspx?PlatformTag=782"
783,18739,"California & Chester Avenue",35.368328,-119.018307,"http://eta.getbus.org/RTT/Public/RoutePositionET.aspx?PlatformTag=783"
784,18681,"California & P",35.368305,-119.011378,"http://eta.getbus.org/RTT/Public/RoutePositionET.aspx?PlatformTag=784"
785,18699,"East California & Union",35.368304,-119.001968,"http://eta.getbus.org/RTT/Public/RoutePositionET.aspx?PlatformTag=785"
786,21318,"East California & King",35.368323,-118.993634,"http://eta.getbus.org/RTT/Public/RoutePositionET.aspx?PlatformTag=786"
787,20873,"East California & Martin Luther King",35.368352,-118.984958,"http://eta.getbus.org/RTT/Public/RoutePositionET.aspx?PlatformTag=787"
788,20894,"Mt Vernon & East California",35.369235,-118.967380,"http://eta.getbus.org/RTT/Public/RoutePositionET.aspx?PlatformTag=788"
789,21356,"Mt Vernon & Lake",35.374325,-118.967360,"http://eta.getbus.org/RTT/Public/RoutePositionET.aspx?PlatformTag=789"
790,18634,"Mt Vernon & Niles",35.377046,-118.967327,"http://eta.getbus.org/RTT/Public/RoutePositionET.aspx?PlatformTag=790"
791,19348,"Mt Vernon & Pacific",35.378851,-118.967321,"http://eta.getbus.org/RTT/Public/RoutePositionET.aspx?PlatformTag=791"
792,18675,"Mt Vernon & Flower",35.381287,-118.967322,"http://eta.getbus.org/RTT/Public/RoutePositionET.aspx?PlatformTag=792"
793,16772,"Mt Vernon & College",35.383456,-118.967317,"http://eta.getbus.org/RTT/Public/RoutePositionET.aspx?PlatformTag=793"
794,10930,"Mt Vernon & Ridge",35.386996,-118.967322,"http://eta.getbus.org/RTT/Public/RoutePositionET.aspx?PlatformTag=794"
795,10948,"Mt Vernon & Heritage",35.388947,-118.967318,"http://eta.getbus.org/RTT/Public/RoutePositionET.aspx?PlatformTag=795"
796,10907,"Mt Vernon & Del Amo",35.391401,-118.967341,"http://eta.getbus.org/RTT/Public/RoutePositionET.aspx?PlatformTag=796"
797,10995,"Mt Vernon @ Albertsons",35.396029,-118.967360,"http://eta.getbus.org/RTT/Public/RoutePositionET.aspx?PlatformTag=797"
798,16963,"Oswell & Mall View",35.394686,-118.949957,"http://eta.getbus.org/RTT/Public/RoutePositionET.aspx?PlatformTag=798"
799,21339,"East Hills Mall",35.394778,-118.956648,"http://eta.getbus.org/RTT/Public/RoutePositionET.aspx?PlatformTag=799"
800,19324,"Bernard & New Market Way",35.392091,-118.956840,"http://eta.getbus.org/RTT/Public/RoutePositionET.aspx?PlatformTag=800"
801,20792,"Bernard & Cleo",35.392162,-118.951737,"http://eta.getbus.org/RTT/Public/RoutePositionET.aspx?PlatformTag=801"
802,13556,"Oswell & Mall View",35.394254,-118.949644,"http://eta.getbus.org/RTT/Public/RoutePositionET.aspx?PlatformTag=802"
803,13560,"University & Columbus",35.405179,-118.950402,"http://eta.getbus.org/RTT/Public/RoutePositionET.aspx?PlatformTag=803"
804,20771,"University & Rally",35.405145,-118.955483,"http://eta.getbus.org/RTT/Public/RoutePositionET.aspx?PlatformTag=804"
806,20785,"University & Wenatchee",35.405120,-118.959037,"http://eta.getbus.org/RTT/Public/RoutePositionET.aspx?PlatformTag=806"
807,20759,"University & Eton",35.405093,-118.962029,"http://eta.getbus.org/RTT/Public/RoutePositionET.aspx?PlatformTag=807"
808,20744,"University & Dana",35.405065,-118.965216,"http://eta.getbus.org/RTT/Public/RoutePositionET.aspx?PlatformTag=808"
809,20728,"University & Dana",35.404911,-118.964163,"http://eta.getbus.org/RTT/Public/RoutePositionET.aspx?PlatformTag=809"
810,19376,"University & Eton",35.404932,-118.961339,"http://eta.getbus.org/RTT/Public/RoutePositionET.aspx?PlatformTag=810"
811,20700,"University & Wenatchee",35.404939,-118.959045,"http://eta.getbus.org/RTT/Public/RoutePositionET.aspx?PlatformTag=811"
812,15388,"University & Rally",35.404958,-118.955386,"http://eta.getbus.org/RTT/Public/RoutePositionET.aspx?PlatformTag=812"
813,15342,"University & Columbus",35.404996,-118.950255,"http://eta.getbus.org/RTT/Public/RoutePositionET.aspx?PlatformTag=813"
815,16358,"Mt Vernon & Columbus",35.396876,-118.967659,"http://eta.getbus.org/RTT/Public/RoutePositionET.aspx?PlatformTag=815"
817,16287,"Mt Vernon & Del Amo",35.391211,-118.967629,"http://eta.getbus.org/RTT/Public/RoutePositionET.aspx?PlatformTag=817"
818,16294,"Mt Vernon & Bernard",35.389557,-118.967615,"http://eta.getbus.org/RTT/Public/RoutePositionET.aspx?PlatformTag=818"
819,16343,"Mt Vernon & Ridge",35.386091,-118.967611,"http://eta.getbus.org/RTT/Public/RoutePositionET.aspx?PlatformTag=819"
820,16304,"Mt Vernon & College",35.382549,-118.967598,"http://eta.getbus.org/RTT/Public/RoutePositionET.aspx?PlatformTag=820"
821,21704,"Mt Vernon & Quincy",35.380205,-118.967611,"http://eta.getbus.org/RTT/Public/RoutePositionET.aspx?PlatformTag=821"
822,18794,"Mt Vernon & Pacific",35.378377,-118.967615,"http://eta.getbus.org/RTT/Public/RoutePositionET.aspx?PlatformTag=822"
823,18668,"Mt Vernon & Niles",35.375514,-118.967638,"http://eta.getbus.org/RTT/Public/RoutePositionET.aspx?PlatformTag=823"
825,18652,"East California & King",35.368592,-118.993815,"http://eta.getbus.org/RTT/Public/RoutePositionET.aspx?PlatformTag=825"
826,18623,"East California & Union",35.368577,-119.001301,"http://eta.getbus.org/RTT/Public/RoutePositionET.aspx?PlatformTag=826"
827,18760,"California & P",35.368607,-119.012630,"http://eta.getbus.org/RTT/Public/RoutePositionET.aspx?PlatformTag=827"
830,12109,"Coffee & Olive Drive",35.411822,-119.092421,"http://eta.getbus.org/RTT/Public/RoutePositionET.aspx?PlatformTag=830"
831,12522,"Coffee & Olive Drive",35.411257,-119.092088,"http://eta.getbus.org/RTT/Public/RoutePositionET.aspx?PlatformTag=831"
832,11537,"Stine & Harris",35.302683,-119.056869,"http://eta.getbus.org/RTT/Public/RoutePositionET.aspx?PlatformTag=832"
833,18328,"Hosking & Akers",35.281301,-119.047205,"http://eta.getbus.org/RTT/Public/RoutePositionET.aspx?PlatformTag=833"
834,19561,"Hosking @ Golden Valley High School",35.281243,-119.007214,"http://eta.getbus.org/RTT/Public/RoutePositionET.aspx?PlatformTag=834"
835,18226,"Hosking @ Golden Valley High School",35.281488,-119.008352,"http://eta.getbus.org/RTT/Public/RoutePositionET.aspx?PlatformTag=835"
836,18290,"South Union & Taft Highway",35.267599,-119.003244,"http://eta.getbus.org/RTT/Public/RoutePositionET.aspx?PlatformTag=836"
837,18359,"Hosking & Tobias Creek",35.281481,-119.049556,"http://eta.getbus.org/RTT/Public/RoutePositionET.aspx?PlatformTag=837"
838,21450,"Akers & Panama",35.296571,-119.047943,"http://eta.getbus.org/RTT/Public/RoutePositionET.aspx?PlatformTag=838"
839,12258,"CSUB",35.351738,-119.104138,"http://eta.getbus.org/RTT/Public/RoutePositionET.aspx?PlatformTag=839"
840,15936,"Stockdale & El Rio",35.354224,-119.081979,"http://eta.getbus.org/RTT/Public/RoutePositionET.aspx?PlatformTag=840"
841,15989,"Stockdale & Ashe",35.354185,-119.073080,"http://eta.getbus.org/RTT/Public/RoutePositionET.aspx?PlatformTag=841"
842,20915,"Village Lane & Stockdale",35.353333,-119.057718,"http://eta.getbus.org/RTT/Public/RoutePositionET.aspx?PlatformTag=842"
843,20970,"Brundage & Cypress",35.354208,-119.036677,"http://eta.getbus.org/RTT/Public/RoutePositionET.aspx?PlatformTag=843"
844,20839,"Stockdale & Real",35.354040,-119.042823,"http://eta.getbus.org/RTT/Public/RoutePositionET.aspx?PlatformTag=844"
845,20825,"Brundage & Wible",35.354044,-119.037500,"http://eta.getbus.org/RTT/Public/RoutePositionET.aspx?PlatformTag=845"
846,20860,"Brundage & Myrtle",35.354024,-119.034478,"http://eta.getbus.org/RTT/Public/RoutePositionET.aspx?PlatformTag=846"
847,20802,"Brundage & Hughes",35.353915,-119.029008,"http://eta.getbus.org/RTT/Public/RoutePositionET.aspx?PlatformTag=847"
848,21506,"Brundage & Oleander",35.353902,-119.026187,"http://eta.getbus.org/RTT/Public/RoutePositionET.aspx?PlatformTag=848"
849,20818,"Brundage & South H",35.353917,-119.020471,"http://eta.getbus.org/RTT/Public/RoutePositionET.aspx?PlatformTag=849"
850,19492,"Cottonwood & McNew Court",35.349177,-118.985210,"http://eta.getbus.org/RTT/Public/RoutePositionET.aspx?PlatformTag=850"
851,21612,"Feliz & Simpson",35.350282,-118.983596,"http://eta.getbus.org/RTT/Public/RoutePositionET.aspx?PlatformTag=851"
852,20716,"Mt Vernon & East Brundage",35.354663,-118.967382,"http://eta.getbus.org/RTT/Public/RoutePositionET.aspx?PlatformTag=852"
853,20763,"Mt Vernon & Texas",35.356678,-118.967384,"http://eta.getbus.org/RTT/Public/RoutePositionET.aspx?PlatformTag=853"
854,21373,"Mt Vernon & Virginia",35.361962,-118.967381,"http://eta.getbus.org/RTT/Public/RoutePositionET.aspx?PlatformTag=854"
855,21360,"Oswell & College",35.383741,-118.949566,"http://eta.getbus.org/RTT/Public/RoutePositionET.aspx?PlatformTag=855"
856,19330,"Oswell & Jade",35.386193,-118.949585,"http://eta.getbus.org/RTT/Public/RoutePositionET.aspx?PlatformTag=856"
857,19311,"Oswell & Kent",35.388579,-118.949600,"http://eta.getbus.org/RTT/Public/RoutePositionET.aspx?PlatformTag=857"
858,19307,"Oswell & Pico",35.390973,-118.949608,"http://eta.getbus.org/RTT/Public/RoutePositionET.aspx?PlatformTag=858"
859,16842,"University & Camden",35.405050,-118.945019,"http://eta.getbus.org/RTT/Public/RoutePositionET.aspx?PlatformTag=859"
860,16992,"University & Panorama",35.405449,-118.938279,"http://eta.getbus.org/RTT/Public/RoutePositionET.aspx?PlatformTag=860"
861,16900,"Panorama & Rancho Sierra",35.402794,-118.933064,"http://eta.getbus.org/RTT/Public/RoutePositionET.aspx?PlatformTag=861"
862,15390,"Panorama & Fairfax",35.402736,-118.930646,"http://eta.getbus.org/RTT/Public/RoutePositionET.aspx?PlatformTag=862"
863,16916,"Auburn & Fairfax",35.398033,-118.930840,"http://eta.getbus.org/RTT/Public/RoutePositionET.aspx?PlatformTag=863"
