stop_id,stop_code,stop_name,stop_lat,stop_lon,stop_url
2,817564,"Carpenter Rd & Ohara Ave",37.975943,-121.714371,"http://70.232.147.132/RTT/Public/RoutePositionET.aspx?PlatformTag=2"
3,817572,"Brown Rd & Neroly Rd",37.969541,-121.721665,"http://70.232.147.132/RTT/Public/RoutePositionET.aspx?PlatformTag=3"
4,817586,"Neroly Rd & Brown Rd",37.968965,-121.720050,"http://70.232.147.132/RTT/Public/RoutePositionET.aspx?PlatformTag=4"
5,817555,"Ohara Ave & Atherton Blvd",37.966732,-121.714266,"http://70.232.147.132/RTT/Public/RoutePositionET.aspx?PlatformTag=5"
6,817540,"Lone Tree Wy & Giannini Rnch",37.961801,-121.729459,"http://70.232.147.132/RTT/Public/RoutePositionET.aspx?PlatformTag=6"
7,818787,"Lone Tree Wy & Empire Ave",37.961776,-121.733348,"http://70.232.147.132/RTT/Public/RoutePositionET.aspx?PlatformTag=7"
8,817529,"Lone Tree Wy & Slatten Ranch Rd",37.961810,-121.737865,"http://70.232.147.132/RTT/Public/RoutePositionET.aspx?PlatformTag=8"
9,817517,"Lone Tree Wy & Hwy 4",37.961827,-121.745516,"http://70.232.147.132/RTT/Public/RoutePositionET.aspx?PlatformTag=9"
10,817501,"Lone Tree Wy & Canada Valley Rd",37.961860,-121.748546,"http://70.232.147.132/RTT/Public/RoutePositionET.aspx?PlatformTag=10"
11,817490,"Lone Tree Wy & Vista Grande Dr",37.961874,-121.755946,"http://70.232.147.132/RTT/Public/RoutePositionET.aspx?PlatformTag=11"
12,817488,"Lone Tree Wy & Hillcrest Ave",37.961863,-121.761474,"http://70.232.147.132/RTT/Public/RoutePositionET.aspx?PlatformTag=12"
13,817474,"Lone Tree Wy & Prewett Prk",37.964789,-121.775868,"http://70.232.147.132/RTT/Public/RoutePositionET.aspx?PlatformTag=13"
14,817461,"Deer Valley Rd & Lone Tree Wy",37.966433,-121.779861,"http://70.232.147.132/RTT/Public/RoutePositionET.aspx?PlatformTag=14"
15,817457,"Deer Valley Rd & Country Hills Dr",37.971582,-121.782515,"http://70.232.147.132/RTT/Public/RoutePositionET.aspx?PlatformTag=15"
16,817593,"Ohara Ave & Covered Wagon Dr",37.989549,-121.713867,"http://70.232.147.132/RTT/Public/RoutePositionET.aspx?PlatformTag=16"
17,817636,"West Cypress Rd & Ohara Ave",37.990469,-121.713567,"http://70.232.147.132/RTT/Public/RoutePositionET.aspx?PlatformTag=17"
18,817615,"West Cypress Rd & Rose Ave",37.990535,-121.704637,"http://70.232.147.132/RTT/Public/RoutePositionET.aspx?PlatformTag=18"
19,817658,"West Cypress Rd & Alder Dr",37.990606,-121.725901,"http://70.232.147.132/RTT/Public/RoutePositionET.aspx?PlatformTag=19"
20,817662,"West Cypress Rd & Lorenzetti Dr",37.990606,-121.722126,"http://70.232.147.132/RTT/Public/RoutePositionET.aspx?PlatformTag=20"
21,817627,"West Cypress Rd & Orchard Prk Dr",37.990500,-121.711338,"http://70.232.147.132/RTT/Public/RoutePositionET.aspx?PlatformTag=21"
22,817604,"West Cypress Rd & Fall Ln",37.990529,-121.699459,"http://70.232.147.132/RTT/Public/RoutePositionET.aspx?PlatformTag=22"
23,817670,"Vintage Pky & Main St",37.998816,-121.719001,"http://70.232.147.132/RTT/Public/RoutePositionET.aspx?PlatformTag=23"
24,813709,"West Cypress Rd & Ponderosa Wy",37.990492,-121.726768,"http://70.232.147.132/RTT/Public/RoutePositionET.aspx?PlatformTag=24"
25,813692,"West Cypress Rd & Lorenzetti Dr",37.990489,-121.722039,"http://70.232.147.132/RTT/Public/RoutePositionET.aspx?PlatformTag=25"
27,813659,"Empire Ave & Sauterne Wy",37.992385,-121.732237,"http://70.232.147.132/RTT/Public/RoutePositionET.aspx?PlatformTag=27"
28,813713,"West Cypress Rd & Ohara Ave",37.990606,-121.713793,"http://70.232.147.132/RTT/Public/RoutePositionET.aspx?PlatformTag=28"
29,813721,"West Cypress Rd & Orchard Prk Dr",37.990624,-121.711095,"http://70.232.147.132/RTT/Public/RoutePositionET.aspx?PlatformTag=29"
30,813732,"West Cypress Rd & Rose Ave",37.990646,-121.704777,"http://70.232.147.132/RTT/Public/RoutePositionET.aspx?PlatformTag=30"
31,813745,"West Cypress Rd & Mellowood Dr",37.990670,-121.699920,"http://70.232.147.132/RTT/Public/RoutePositionET.aspx?PlatformTag=31"
32,818760,"Empire Ave & Gamay Dr",37.994319,-121.732229,"http://70.232.147.132/RTT/Public/RoutePositionET.aspx?PlatformTag=32"
33,813644,"Main St & Empire Ave",37.997858,-121.730597,"http://70.232.147.132/RTT/Public/RoutePositionET.aspx?PlatformTag=33"
34,813628,"Main St & Teakwood Dr",37.997942,-121.726598,"http://70.232.147.132/RTT/Public/RoutePositionET.aspx?PlatformTag=34"
35,813637,"Main St & Teakwood Dr",37.997717,-121.725735,"http://70.232.147.132/RTT/Public/RoutePositionET.aspx?PlatformTag=35"
36,817398,"Hillcrest Ave & Larkspur Dr",37.995242,-121.784724,"http://70.232.147.132/RTT/Public/RoutePositionET.aspx?PlatformTag=36"
37,817380,"Hillcrest Ave & East Tregallas Rd",37.994002,-121.784506,"http://70.232.147.132/RTT/Public/RoutePositionET.aspx?PlatformTag=37"
38,817379,"Deer Valley Rd & Hillcrest Tce Ct",37.988968,-121.785644,"http://70.232.147.132/RTT/Public/RoutePositionET.aspx?PlatformTag=38"
39,817403,"Deer Valley Rd & Hillcrest Tce Ct",37.987695,-121.785560,"http://70.232.147.132/RTT/Public/RoutePositionET.aspx?PlatformTag=39"
40,817367,"Deer Valley Rd & Wildflower Dr",37.986510,-121.785906,"http://70.232.147.132/RTT/Public/RoutePositionET.aspx?PlatformTag=40"
41,817419,"Deer Valley Rd & Carpinteria Dr",37.984010,-121.784498,"http://70.232.147.132/RTT/Public/RoutePositionET.aspx?PlatformTag=41"
42,817351,"Deer Valley Rd & Carpinteria Dr",37.983074,-121.784240,"http://70.232.147.132/RTT/Public/RoutePositionET.aspx?PlatformTag=42"
43,817346,"Deer Valley Rd & Bluerock Dr",37.980299,-121.784949,"http://70.232.147.132/RTT/Public/RoutePositionET.aspx?PlatformTag=43"
44,817426,"Deer Valley Rd & Bluerock Dr",37.980548,-121.784324,"http://70.232.147.132/RTT/Public/RoutePositionET.aspx?PlatformTag=44"
45,817435,"Deer Valley Rd & Rocky Point Dr",37.977328,-121.786226,"http://70.232.147.132/RTT/Public/RoutePositionET.aspx?PlatformTag=45"
46,817333,"Deer Valley Rd & Rocky Point Dr",37.977062,-121.786455,"http://70.232.147.132/RTT/Public/RoutePositionET.aspx?PlatformTag=46"
47,817442,"Deer Valley Rd & Asilomar Dr",37.973922,-121.784410,"http://70.232.147.132/RTT/Public/RoutePositionET.aspx?PlatformTag=47"
48,817322,"Deer Valley Rd & Asilomar Dr",37.972797,-121.783901,"http://70.232.147.132/RTT/Public/RoutePositionET.aspx?PlatformTag=48"
49,817314,"Deer Valley Rd & Country Hills Dr",37.970606,-121.781772,"http://70.232.147.132/RTT/Public/RoutePositionET.aspx?PlatformTag=49"
50,817305,"Deer Valley Rd & Lone Tree Wy",37.966525,-121.780121,"http://70.232.147.132/RTT/Public/RoutePositionET.aspx?PlatformTag=50"
51,817295,"Lone Tree Wy & Deer Valley Rd",37.965423,-121.779520,"http://70.232.147.132/RTT/Public/RoutePositionET.aspx?PlatformTag=51"
52,813830,"Lone Tree Wy & Sagebrush Dr",37.963572,-121.771898,"http://70.232.147.132/RTT/Public/RoutePositionET.aspx?PlatformTag=52"
53,817282,"Lone Tree Wy & Deer Valley High",37.964068,-121.774086,"http://70.232.147.132/RTT/Public/RoutePositionET.aspx?PlatformTag=53"
54,813824,"Lone Tree Wy & Indian Hill Dr",37.961712,-121.764053,"http://70.232.147.132/RTT/Public/RoutePositionET.aspx?PlatformTag=54"
55,813811,"Lone Tree Wy & Hillcrest Ave",37.961580,-121.758896,"http://70.232.147.132/RTT/Public/RoutePositionET.aspx?PlatformTag=55"
56,813807,"Lone Tree Wy & Vista Grande Dr",37.961587,-121.754435,"http://70.232.147.132/RTT/Public/RoutePositionET.aspx?PlatformTag=56"
57,813797,"Lone Tree Wy & Canada Valley Rd",37.961497,-121.748934,"http://70.232.147.132/RTT/Public/RoutePositionET.aspx?PlatformTag=57"
58,813784,"Lone Tree Wy & Shady Willow Ln",37.961450,-121.737252,"http://70.232.147.132/RTT/Public/RoutePositionET.aspx?PlatformTag=58"
59,813778,"Lone Tree Wy & Empire Ave",37.961448,-121.731749,"http://70.232.147.132/RTT/Public/RoutePositionET.aspx?PlatformTag=59"
60,813766,"Lone Tree Wy & Giannini Rnch",37.961474,-121.729846,"http://70.232.147.132/RTT/Public/RoutePositionET.aspx?PlatformTag=60"
61,813525,"Lone Tree Wy & Bluerock Dr",37.977616,-121.802896,"http://70.232.147.132/RTT/Public/RoutePositionET.aspx?PlatformTag=61"
62,813518,"Lone Tree Wy & Sutter Delta",37.982628,-121.805496,"http://70.232.147.132/RTT/Public/RoutePositionET.aspx?PlatformTag=62"
63,813491,"Lone Tree Wy & Clearbrook Rd",37.987631,-121.806733,"http://70.232.147.132/RTT/Public/RoutePositionET.aspx?PlatformTag=63"
64,813502,"Lone Tree Wy & Sunset Ln",37.985489,-121.805757,"http://70.232.147.132/RTT/Public/RoutePositionET.aspx?PlatformTag=64"
65,813489,"Lone Tree Wy & Walton Ln",37.991451,-121.807558,"http://70.232.147.132/RTT/Public/RoutePositionET.aspx?PlatformTag=65"
66,813470,"Lone Tree Wy & Worrell Rd",37.994044,-121.807697,"http://70.232.147.132/RTT/Public/RoutePositionET.aspx?PlatformTag=66"
67,813462,"Lone Tree Wy & East Tregallas Rd",37.995819,-121.806537,"http://70.232.147.132/RTT/Public/RoutePositionET.aspx?PlatformTag=67"
69,813436,"A St & Belshaw St",38.001553,-121.805872,"http://70.232.147.132/RTT/Public/RoutePositionET.aspx?PlatformTag=69"
70,813161,"A St & East 16th St",38.006161,-121.805918,"http://70.232.147.132/RTT/Public/RoutePositionET.aspx?PlatformTag=70"
71,816679,"Hillcrest Ave & Renwick Ln",38.000252,-121.787636,"http://70.232.147.132/RTT/Public/RoutePositionET.aspx?PlatformTag=71"
72,814302,"Hillcrest Ave & Yellowstone Dr",38.003281,-121.787641,"http://70.232.147.132/RTT/Public/RoutePositionET.aspx?PlatformTag=72"
73,813296,"East 18th St & Hargrove St",38.004998,-121.782936,"http://70.232.147.132/RTT/Public/RoutePositionET.aspx?PlatformTag=73"
74,813157,"A St & East 13th St",38.008782,-121.805925,"http://70.232.147.132/RTT/Public/RoutePositionET.aspx?PlatformTag=74"
75,813306,"East 18th St & St Claire Dr",38.005017,-121.778751,"http://70.232.147.132/RTT/Public/RoutePositionET.aspx?PlatformTag=75"
76,813323,"East 18th St & Viera Ave",38.005056,-121.773172,"http://70.232.147.132/RTT/Public/RoutePositionET.aspx?PlatformTag=76"
77,813352,"East 18th St & Drive In Way",38.005247,-121.756023,"http://70.232.147.132/RTT/Public/RoutePositionET.aspx?PlatformTag=77"
78,819025,"Main St & East 18th St",38.005222,-121.752237,"http://70.232.147.132/RTT/Public/RoutePositionET.aspx?PlatformTag=78"
79,817950,"Main St & Big Break Rd",38.004830,-121.733495,"http://70.232.147.132/RTT/Public/RoutePositionET.aspx?PlatformTag=79"
80,813381,"Vintage Pky & Almaden Cir",38.007276,-121.731598,"http://70.232.147.132/RTT/Public/RoutePositionET.aspx?PlatformTag=80"
81,813415,"Vintage Pky & Rutherford",38.004451,-121.719887,"http://70.232.147.132/RTT/Public/RoutePositionET.aspx?PlatformTag=81"
82,813404,"Vintage Pky & Concannon Dr",38.005060,-121.725422,"http://70.232.147.132/RTT/Public/RoutePositionET.aspx?PlatformTag=82"
83,813399,"Concannon Dr & Vintage Pky",38.006283,-121.728943,"http://70.232.147.132/RTT/Public/RoutePositionET.aspx?PlatformTag=83"
84,819311,"Vintage Pky & Main St",37.998344,-121.718757,"http://70.232.147.132/RTT/Public/RoutePositionET.aspx?PlatformTag=84"
85,813265,"Wildflower Dr & Deer Valley Rd",37.986848,-121.784705,"http://70.232.147.132/RTT/Public/RoutePositionET.aspx?PlatformTag=85"
86,813254,"Hillcrest Ave & Wildflower Dr",37.987003,-121.780357,"http://70.232.147.132/RTT/Public/RoutePositionET.aspx?PlatformTag=86"
87,813249,"Hillcrest Ave & Via Dora Dr",37.983098,-121.772853,"http://70.232.147.132/RTT/Public/RoutePositionET.aspx?PlatformTag=87"
88,813212,"Hillcrest Ave & Bellflower Dr",37.983115,-121.770023,"http://70.232.147.132/RTT/Public/RoutePositionET.aspx?PlatformTag=88"
89,813208,"Hillcrest Ave & Golden Bear Dr",37.977018,-121.762877,"http://70.232.147.132/RTT/Public/RoutePositionET.aspx?PlatformTag=89"
90,813539,"Lone Tree Wy & Eagleridge Dr",37.971399,-121.795931,"http://70.232.147.132/RTT/Public/RoutePositionET.aspx?PlatformTag=90"
91,813556,"Lone Tree Wy & Country Hills Dr",37.968447,-121.786546,"http://70.232.147.132/RTT/Public/RoutePositionET.aspx?PlatformTag=91"
92,813541,"Lone Tree Wy & Muirwood Wy",37.970022,-121.791272,"http://70.232.147.132/RTT/Public/RoutePositionET.aspx?PlatformTag=92"
93,819297,"Hillcrest Ave & Deerfield Dr",37.973134,-121.762925,"http://70.232.147.132/RTT/Public/RoutePositionET.aspx?PlatformTag=93"
94,813188,"Hillcrest Ave & Sterling Hill Dr",37.970710,-121.760945,"http://70.232.147.132/RTT/Public/RoutePositionET.aspx?PlatformTag=94"
95,813174,"Hillcrest Ave & Country Hills Dr",37.966083,-121.760159,"http://70.232.147.132/RTT/Public/RoutePositionET.aspx?PlatformTag=95"
96,813560,"Lone Tree Wy & Deer Valley Rd",37.966339,-121.781001,"http://70.232.147.132/RTT/Public/RoutePositionET.aspx?PlatformTag=96"
97,818938,"Deer Valley Rd & Prewett Ranch Dr",37.960613,-121.778773,"http://70.232.147.132/RTT/Public/RoutePositionET.aspx?PlatformTag=97"
98,815856,"Deer Valley Rd & Prewett Ranch Dr",37.960684,-121.778498,"http://70.232.147.132/RTT/Public/RoutePositionET.aspx?PlatformTag=98"
99,813443,"Deer Valley Rd & Prewett Ranch Dr",37.957745,-121.778110,"http://70.232.147.132/RTT/Public/RoutePositionET.aspx?PlatformTag=99"
100,813587,"Deer Valley Rd & Kaiser",37.951553,-121.778018,"http://70.232.147.132/RTT/Public/RoutePositionET.aspx?PlatformTag=100"
101,813594,"Sand Creek Rd & Deer Valley Rd",37.949520,-121.775722,"http://70.232.147.132/RTT/Public/RoutePositionET.aspx?PlatformTag=101"
106,812546,"Willow Pass Rd & Crivello Ave",38.026858,-121.933621,"http://70.232.147.132/RTT/Public/RoutePositionET.aspx?PlatformTag=106"
107,812551,"Willow Pass Rd & Seasons Dr",38.026891,-121.928779,"http://70.232.147.132/RTT/Public/RoutePositionET.aspx?PlatformTag=107"
108,812567,"Willow Pass Rd & Balclutha Wy",38.026826,-121.923242,"http://70.232.147.132/RTT/Public/RoutePositionET.aspx?PlatformTag=108"
109,812579,"Polaris Dr & Range Rd",38.023346,-121.917617,"http://70.232.147.132/RTT/Public/RoutePositionET.aspx?PlatformTag=109"
110,812580,"Polaris Dr & East Catamaran Cir",38.023320,-121.915079,"http://70.232.147.132/RTT/Public/RoutePositionET.aspx?PlatformTag=110"
111,812598,"Polaris Dr & Brickyard Ave",38.023331,-121.910361,"http://70.232.147.132/RTT/Public/RoutePositionET.aspx?PlatformTag=111"
112,819143,"Power Ave & Jorgensen Dr",38.021849,-121.903963,"http://70.232.147.132/RTT/Public/RoutePositionET.aspx?PlatformTag=112"
113,819278,"Power Ave & Andrew Ave",38.020107,-121.900204,"http://70.232.147.132/RTT/Public/RoutePositionET.aspx?PlatformTag=113"
114,812624,"17th West St & Bruno Ave",38.022601,-121.896068,"http://70.232.147.132/RTT/Public/RoutePositionET.aspx?PlatformTag=114"
115,812630,"Civic Ave & Davi Ave",38.021570,-121.891523,"http://70.232.147.132/RTT/Public/RoutePositionET.aspx?PlatformTag=115"
116,812648,"Civic Ave & Railroad Ave",38.021081,-121.889472,"http://70.232.147.132/RTT/Public/RoutePositionET.aspx?PlatformTag=116"
117,812800,"Railroad Ave & East 17th St",38.021828,-121.887677,"http://70.232.147.132/RTT/Public/RoutePositionET.aspx?PlatformTag=117"
118,812816,"Railroad Ave & Central Ave",38.024973,-121.886744,"http://70.232.147.132/RTT/Public/RoutePositionET.aspx?PlatformTag=118"
119,812837,"Harbor St & East 10th St",38.026358,-121.878432,"http://70.232.147.132/RTT/Public/RoutePositionET.aspx?PlatformTag=119"
120,812844,"Harbor St & East 12th St",38.024598,-121.878977,"http://70.232.147.132/RTT/Public/RoutePositionET.aspx?PlatformTag=120"
121,812859,"East 12th St & Pine St",38.023579,-121.876550,"http://70.232.147.132/RTT/Public/RoutePositionET.aspx?PlatformTag=121"
122,812863,"East 12th St & Columbia St",38.022573,-121.872916,"http://70.232.147.132/RTT/Public/RoutePositionET.aspx?PlatformTag=122"
123,812828,"East 10th St & Los Medanos St",38.027550,-121.883331,"http://70.232.147.132/RTT/Public/RoutePositionET.aspx?PlatformTag=123"
124,812871,"Columbia St & East 14th St",38.020113,-121.873553,"http://70.232.147.132/RTT/Public/RoutePositionET.aspx?PlatformTag=124"
125,812653,"Railroad Ave & Bliss Ave",38.015989,-121.889641,"http://70.232.147.132/RTT/Public/RoutePositionET.aspx?PlatformTag=125"
126,812790,"Railroad Ave & Bliss Ave",38.015251,-121.890245,"http://70.232.147.132/RTT/Public/RoutePositionET.aspx?PlatformTag=126"
129,812669,"Railroad Ave & East Leland Rd",38.013312,-121.890655,"http://70.232.147.132/RTT/Public/RoutePositionET.aspx?PlatformTag=129"
130,812719,"Harbor St & Garcia Ave",38.012474,-121.885707,"http://70.232.147.132/RTT/Public/RoutePositionET.aspx?PlatformTag=130"
131,812788,"Railroad Ave & West Leland Rd",38.011707,-121.891600,"http://70.232.147.132/RTT/Public/RoutePositionET.aspx?PlatformTag=131"
132,812742,"Harbor St & East Leland Rd",38.011448,-121.885801,"http://70.232.147.132/RTT/Public/RoutePositionET.aspx?PlatformTag=132"
133,812676,"Railroad Ave & Alvarado Ave",38.010761,-121.891634,"http://70.232.147.132/RTT/Public/RoutePositionET.aspx?PlatformTag=133"
134,818901,"Harbor St & Leland Ln",38.010524,-121.886452,"http://70.232.147.132/RTT/Public/RoutePositionET.aspx?PlatformTag=134"
135,812757,"Harbor St & East Leland Rd",38.010364,-121.886202,"http://70.232.147.132/RTT/Public/RoutePositionET.aspx?PlatformTag=135"
136,812695,"Harbor St & Presidio Ln",38.009195,-121.887161,"http://70.232.147.132/RTT/Public/RoutePositionET.aspx?PlatformTag=136"
137,812682,"Atlantic Ave & Atlantic Cir",38.007997,-121.891395,"http://70.232.147.132/RTT/Public/RoutePositionET.aspx?PlatformTag=137"
138,812774,"Atlantic Ave & Atlantic Cir",38.007693,-121.890825,"http://70.232.147.132/RTT/Public/RoutePositionET.aspx?PlatformTag=138"
139,812761,"Atlantic Ave & Atlantic Cir",38.007997,-121.888573,"http://70.232.147.132/RTT/Public/RoutePositionET.aspx?PlatformTag=139"
140,812885,"Pittsburg Antioch Hwy & Loveridge Rd",38.015361,-121.860508,"http://70.232.147.132/RTT/Public/RoutePositionET.aspx?PlatformTag=140"
141,812892,"Loveridge Rd & California Ave",38.012635,-121.864151,"http://70.232.147.132/RTT/Public/RoutePositionET.aspx?PlatformTag=141"
142,812902,"Loveridge Rd & Hwy 4",38.011095,-121.868197,"http://70.232.147.132/RTT/Public/RoutePositionET.aspx?PlatformTag=142"
143,817997,"Loveridge Rd & East Leland Rd",38.009319,-121.870304,"http://70.232.147.132/RTT/Public/RoutePositionET.aspx?PlatformTag=143"
144,812925,"East Leland Rd & Loveridge Rd",38.008081,-121.869694,"http://70.232.147.132/RTT/Public/RoutePositionET.aspx?PlatformTag=144"
145,812939,"East Leland Rd & Gladstone Dr",38.008534,-121.865642,"http://70.232.147.132/RTT/Public/RoutePositionET.aspx?PlatformTag=145"
146,819444,"East Leland Rd & Lakeview Cir",38.007256,-121.862094,"http://70.232.147.132/RTT/Public/RoutePositionET.aspx?PlatformTag=146"
147,812960,"Delta Fair Blvd & School St",38.003769,-121.850018,"http://70.232.147.132/RTT/Public/RoutePositionET.aspx?PlatformTag=147"
148,819094,"Delta Fair Blvd & Kendree St",38.003196,-121.847145,"http://70.232.147.132/RTT/Public/RoutePositionET.aspx?PlatformTag=148"
149,812987,"Delta Fair Blvd & Kaiser",38.004146,-121.842735,"http://70.232.147.132/RTT/Public/RoutePositionET.aspx?PlatformTag=149"
150,812994,"Auto Center Dr & Century Blvd",38.006340,-121.834819,"http://70.232.147.132/RTT/Public/RoutePositionET.aspx?PlatformTag=150"
151,813017,"Sycamore Dr & Canal",38.005733,-121.830889,"http://70.232.147.132/RTT/Public/RoutePositionET.aspx?PlatformTag=151"
152,813029,"Sycamore Dr & Spanos St",38.005404,-121.827796,"http://70.232.147.132/RTT/Public/RoutePositionET.aspx?PlatformTag=152"
153,813038,"Sycamore Dr & Banyan Wy",38.005077,-121.825446,"http://70.232.147.132/RTT/Public/RoutePositionET.aspx?PlatformTag=153"
154,813040,"Sycamore Dr & Peppertree Wy",38.004223,-121.821432,"http://70.232.147.132/RTT/Public/RoutePositionET.aspx?PlatformTag=154"
155,813055,"L St & West 18th St",38.005036,-121.819938,"http://70.232.147.132/RTT/Public/RoutePositionET.aspx?PlatformTag=155"
156,813064,"L St & West 9th St",38.011654,-121.819898,"http://70.232.147.132/RTT/Public/RoutePositionET.aspx?PlatformTag=156"
157,813072,"L St & West 5th St",38.015110,-121.819894,"http://70.232.147.132/RTT/Public/RoutePositionET.aspx?PlatformTag=157"
158,813086,"West 4th St & J St",38.015539,-121.817777,"http://70.232.147.132/RTT/Public/RoutePositionET.aspx?PlatformTag=158"
159,813093,"West 4th St & H St",38.015540,-121.815392,"http://70.232.147.132/RTT/Public/RoutePositionET.aspx?PlatformTag=159"
160,813103,"West 6th St & B St",38.014106,-121.807409,"http://70.232.147.132/RTT/Public/RoutePositionET.aspx?PlatformTag=160"
161,813119,"A St & West 6th St",38.013776,-121.806125,"http://70.232.147.132/RTT/Public/RoutePositionET.aspx?PlatformTag=161"
162,812483,"West Leland Rd & Oak Hills Dr",38.015432,-121.943492,"http://70.232.147.132/RTT/Public/RoutePositionET.aspx?PlatformTag=162"
163,819266,"Bailey Rd & Maylard St",38.016165,-121.942116,"http://70.232.147.132/RTT/Public/RoutePositionET.aspx?PlatformTag=163"
164,814259,"Bailey Rd & Maylard St",38.017257,-121.941809,"http://70.232.147.132/RTT/Public/RoutePositionET.aspx?PlatformTag=164"
165,812505,"Bailey Rd & Canal Rd",38.020849,-121.942030,"http://70.232.147.132/RTT/Public/RoutePositionET.aspx?PlatformTag=165"
166,812431,"Bailey Rd & Canal Rd",38.021004,-121.941729,"http://70.232.147.132/RTT/Public/RoutePositionET.aspx?PlatformTag=166"
167,812514,"Bailey Rd & Mary Ann Ln",38.024632,-121.942064,"http://70.232.147.132/RTT/Public/RoutePositionET.aspx?PlatformTag=167"
168,819087,"Bailey Rd & Placer Dr",38.024787,-121.941795,"http://70.232.147.132/RTT/Public/RoutePositionET.aspx?PlatformTag=168"
169,812522,"Willow Pass Rd & Nth Broadway Ave",38.026860,-121.940606,"http://70.232.147.132/RTT/Public/RoutePositionET.aspx?PlatformTag=169"
170,812412,"Willow Pass Rd & Poinsettia Ave",38.026676,-121.938908,"http://70.232.147.132/RTT/Public/RoutePositionET.aspx?PlatformTag=170"
171,812533,"Willow Pass Rd & Madison Ave",38.026849,-121.936898,"http://70.232.147.132/RTT/Public/RoutePositionET.aspx?PlatformTag=171"
172,812408,"Willow Pass Rd & Bella Vista Ave",38.026678,-121.934048,"http://70.232.147.132/RTT/Public/RoutePositionET.aspx?PlatformTag=172"
173,812386,"Willow Pass Rd & Winter Wy",38.026709,-121.930857,"http://70.232.147.132/RTT/Public/RoutePositionET.aspx?PlatformTag=173"
174,812372,"Willow Pass Rd & Loftus Rd",38.026674,-121.927778,"http://70.232.147.132/RTT/Public/RoutePositionET.aspx?PlatformTag=174"
175,812364,"Willow Pass Rd & Balclutha Wy",38.026675,-121.923713,"http://70.232.147.132/RTT/Public/RoutePositionET.aspx?PlatformTag=175"
176,812317,"Polaris Dr & Range Rd",38.023161,-121.917789,"http://70.232.147.132/RTT/Public/RoutePositionET.aspx?PlatformTag=176"
177,812301,"Polaris Dr & East Catamaran Cir",38.023146,-121.915093,"http://70.232.147.132/RTT/Public/RoutePositionET.aspx?PlatformTag=177"
178,812291,"Polaris Dr & Brickyard Ave",38.023167,-121.911356,"http://70.232.147.132/RTT/Public/RoutePositionET.aspx?PlatformTag=178"
179,812289,"Power Ave & Case Dr",38.022271,-121.905680,"http://70.232.147.132/RTT/Public/RoutePositionET.aspx?PlatformTag=179"
180,812270,"Power Ave & Jorgensen Dr",38.021323,-121.903544,"http://70.232.147.132/RTT/Public/RoutePositionET.aspx?PlatformTag=180"
181,812262,"Andrew Ave & Power Ave",38.020138,-121.899278,"http://70.232.147.132/RTT/Public/RoutePositionET.aspx?PlatformTag=181"
182,818843,"Andrew Ave & 17th West St",38.022506,-121.898368,"http://70.232.147.132/RTT/Public/RoutePositionET.aspx?PlatformTag=182"
183,812243,"17th West St & Bruno Ave",38.022509,-121.896184,"http://70.232.147.132/RTT/Public/RoutePositionET.aspx?PlatformTag=183"
184,819382,"Civic Ave & 17th West St",38.021348,-121.891622,"http://70.232.147.132/RTT/Public/RoutePositionET.aspx?PlatformTag=184"
185,812227,"Civic Ave & Railroad Ave",38.020857,-121.889538,"http://70.232.147.132/RTT/Public/RoutePositionET.aspx?PlatformTag=185"
186,812215,"Railroad Ave & School St",38.021297,-121.887587,"http://70.232.147.132/RTT/Public/RoutePositionET.aspx?PlatformTag=186"
187,812145,"Columbia St & East 14th St",38.019841,-121.873846,"http://70.232.147.132/RTT/Public/RoutePositionET.aspx?PlatformTag=187"
188,815744,"East 12th St & Columbia St",38.022377,-121.872753,"http://70.232.147.132/RTT/Public/RoutePositionET.aspx?PlatformTag=188"
189,812166,"East 12th St & Pine St",38.023319,-121.876156,"http://70.232.147.132/RTT/Public/RoutePositionET.aspx?PlatformTag=189"
190,812178,"Harbor St & East Santa Fe Ave",38.024756,-121.879245,"http://70.232.147.132/RTT/Public/RoutePositionET.aspx?PlatformTag=190"
191,812204,"Railroad Ave & Central Ave",38.025058,-121.886408,"http://70.232.147.132/RTT/Public/RoutePositionET.aspx?PlatformTag=191"
192,812197,"East 10th St & Los Medanos St",38.027265,-121.882841,"http://70.232.147.132/RTT/Public/RoutePositionET.aspx?PlatformTag=192"
193,812184,"Harbor St & 10th St",38.026283,-121.878767,"http://70.232.147.132/RTT/Public/RoutePositionET.aspx?PlatformTag=193"
194,812132,"Pittsburg Antioch Hwy & Loveridge Rd",38.015176,-121.860563,"http://70.232.147.132/RTT/Public/RoutePositionET.aspx?PlatformTag=194"
195,812121,"Loveridge Rd & Hwy 4",38.011007,-121.869082,"http://70.232.147.132/RTT/Public/RoutePositionET.aspx?PlatformTag=195"
196,812113,"East Leland Rd & Loveridge Rd",38.007926,-121.870225,"http://70.232.147.132/RTT/Public/RoutePositionET.aspx?PlatformTag=196"
197,812109,"East Leland Rd & Commerce Pl",38.008195,-121.864655,"http://70.232.147.132/RTT/Public/RoutePositionET.aspx?PlatformTag=197"
198,819073,"East Leland Rd & Lakeview Cir",38.007838,-121.861525,"http://70.232.147.132/RTT/Public/RoutePositionET.aspx?PlatformTag=198"
199,812081,"Delta Fair Blvd & Belle Dr",38.005453,-121.854222,"http://70.232.147.132/RTT/Public/RoutePositionET.aspx?PlatformTag=199"
200,812075,"Delta Fair Blvd & School St",38.003651,-121.850311,"http://70.232.147.132/RTT/Public/RoutePositionET.aspx?PlatformTag=200"
201,812068,"Delta Fair Blvd & Kendree St",38.003001,-121.847186,"http://70.232.147.132/RTT/Public/RoutePositionET.aspx?PlatformTag=201"
202,812052,"Delta Fair Blvd & Somersville Towne Center",38.003644,-121.841802,"http://70.232.147.132/RTT/Public/RoutePositionET.aspx?PlatformTag=202"
203,812047,"Auto Center Dr & Sycamore Dr",38.005931,-121.834741,"http://70.232.147.132/RTT/Public/RoutePositionET.aspx?PlatformTag=203"
204,812034,"Sycamore Dr & Canal",38.005570,-121.830745,"http://70.232.147.132/RTT/Public/RoutePositionET.aspx?PlatformTag=204"
205,812023,"Sycamore Dr & Spanos St",38.005291,-121.827580,"http://70.232.147.132/RTT/Public/RoutePositionET.aspx?PlatformTag=205"
206,812010,"Sycamore Dr & Banyan Wy",38.004881,-121.825108,"http://70.232.147.132/RTT/Public/RoutePositionET.aspx?PlatformTag=206"
207,812006,"Sycamore Dr & Lemontree Wy",38.004201,-121.821887,"http://70.232.147.132/RTT/Public/RoutePositionET.aspx?PlatformTag=207"
208,811996,"L St & William Reed Dr",38.004339,-121.819901,"http://70.232.147.132/RTT/Public/RoutePositionET.aspx?PlatformTag=208"
209,811983,"L St & West 18th St",38.005945,-121.819629,"http://70.232.147.132/RTT/Public/RoutePositionET.aspx?PlatformTag=209"
210,811965,"L St & West 9th St",38.011809,-121.819615,"http://70.232.147.132/RTT/Public/RoutePositionET.aspx?PlatformTag=210"
211,811954,"L St & West 5th St",38.015018,-121.819615,"http://70.232.147.132/RTT/Public/RoutePositionET.aspx?PlatformTag=211"
212,811949,"West 4th St & J St",38.015427,-121.817763,"http://70.232.147.132/RTT/Public/RoutePositionET.aspx?PlatformTag=212"
213,819018,"West 4th St & I St",38.015424,-121.816013,"http://70.232.147.132/RTT/Public/RoutePositionET.aspx?PlatformTag=213"
214,811920,"West 6th St & A St",38.013985,-121.806376,"http://70.232.147.132/RTT/Public/RoutePositionET.aspx?PlatformTag=214"
215,811912,"A St & West 6th St",38.013789,-121.806289,"http://70.232.147.132/RTT/Public/RoutePositionET.aspx?PlatformTag=215"
216,811908,"A St & East 13th St",38.008767,-121.806141,"http://70.232.147.132/RTT/Public/RoutePositionET.aspx?PlatformTag=216"
217,811898,"A St & West 16th St",38.006063,-121.806142,"http://70.232.147.132/RTT/Public/RoutePositionET.aspx?PlatformTag=217"
218,811880,"A St & East 19th St",38.004323,-121.806159,"http://70.232.147.132/RTT/Public/RoutePositionET.aspx?PlatformTag=218"
219,811879,"A St & Belshaw St",38.001756,-121.806161,"http://70.232.147.132/RTT/Public/RoutePositionET.aspx?PlatformTag=219"
221,811851,"Lone Tree Wy & West Tregallas Rd",37.995240,-121.807668,"http://70.232.147.132/RTT/Public/RoutePositionET.aspx?PlatformTag=221"
222,811846,"Lone Tree Wy & Robert St",37.992027,-121.807895,"http://70.232.147.132/RTT/Public/RoutePositionET.aspx?PlatformTag=222"
223,811833,"Lone Tree Wy & Terranova Dr",37.989536,-121.807774,"http://70.232.147.132/RTT/Public/RoutePositionET.aspx?PlatformTag=223"
224,811822,"Lone Tree Wy & Clearbrook Rd",37.987030,-121.806644,"http://70.232.147.132/RTT/Public/RoutePositionET.aspx?PlatformTag=224"
225,811814,"Lone Tree Wy & Davison Dr",37.984600,-121.805980,"http://70.232.147.132/RTT/Public/RoutePositionET.aspx?PlatformTag=225"
226,811805,"Lone Tree Wy & Clayburn Rd",37.983040,-121.805847,"http://70.232.147.132/RTT/Public/RoutePositionET.aspx?PlatformTag=226"
227,811795,"Lone Tree Wy & Golf Course Rd",37.976459,-121.802077,"http://70.232.147.132/RTT/Public/RoutePositionET.aspx?PlatformTag=227"
228,811782,"Lone Tree Wy & Dallas Ranch Rd",37.970867,-121.795192,"http://70.232.147.132/RTT/Public/RoutePositionET.aspx?PlatformTag=228"
229,811776,"Lone Tree Wy & Black Diamond Dr",37.969311,-121.790040,"http://70.232.147.132/RTT/Public/RoutePositionET.aspx?PlatformTag=229"
230,811769,"Lone Tree Wy & Deer Valley Plz",37.967342,-121.784422,"http://70.232.147.132/RTT/Public/RoutePositionET.aspx?PlatformTag=230"
231,811753,"Hillcrest Ave & Lone Tree Wy",37.962376,-121.759780,"http://70.232.147.132/RTT/Public/RoutePositionET.aspx?PlatformTag=231"
232,811585,"Canada Valley Rd & Lone Tree Wy",37.962017,-121.747534,"http://70.232.147.132/RTT/Public/RoutePositionET.aspx?PlatformTag=232"
233,811571,"Canada Valley Rd & Lone Tree Wy",37.962728,-121.747241,"http://70.232.147.132/RTT/Public/RoutePositionET.aspx?PlatformTag=233"
234,811592,"Canada Valley Rd & McFarlan Ranch Wy",37.966201,-121.747369,"http://70.232.147.132/RTT/Public/RoutePositionET.aspx?PlatformTag=234"
235,811563,"Canada Valley Rd & McFarlan Ranch Wy",37.966390,-121.747289,"http://70.232.147.132/RTT/Public/RoutePositionET.aspx?PlatformTag=235"
236,811748,"Hillcrest Ave & Country Hills Dr",37.966858,-121.759895,"http://70.232.147.132/RTT/Public/RoutePositionET.aspx?PlatformTag=236"
237,811603,"Canada Valley Rd & Vista Grande Dr",37.968817,-121.750498,"http://70.232.147.132/RTT/Public/RoutePositionET.aspx?PlatformTag=237"
238,811559,"Canada Valley Rd & Vista Grande Dr",37.969365,-121.750482,"http://70.232.147.132/RTT/Public/RoutePositionET.aspx?PlatformTag=238"
239,811730,"Hillcrest Ave & Laurel Rd",37.970526,-121.760364,"http://70.232.147.132/RTT/Public/RoutePositionET.aspx?PlatformTag=239"
240,811500,"Laurel Rd & Hillcrest Ave",37.970829,-121.760475,"http://70.232.147.132/RTT/Public/RoutePositionET.aspx?PlatformTag=240"
241,811657,"Laurel Rd & Hillcrest Ave",37.970812,-121.760040,"http://70.232.147.132/RTT/Public/RoutePositionET.aspx?PlatformTag=241"
242,811642,"Laurel Rd & Canada Hills Dr",37.972022,-121.758658,"http://70.232.147.132/RTT/Public/RoutePositionET.aspx?PlatformTag=242"
243,811516,"Laurel Rd & Canada Hills Wy",37.972322,-121.758858,"http://70.232.147.132/RTT/Public/RoutePositionET.aspx?PlatformTag=243"
244,811544,"Canada Valley Rd & Palomino Wy",37.971925,-121.752665,"http://70.232.147.132/RTT/Public/RoutePositionET.aspx?PlatformTag=244"
245,811619,"Canada Valley Rd & Palomino Wy",37.971475,-121.752290,"http://70.232.147.132/RTT/Public/RoutePositionET.aspx?PlatformTag=245"
246,811537,"Canada Valley Rd & Canada Hills Dr",37.974051,-121.754200,"http://70.232.147.132/RTT/Public/RoutePositionET.aspx?PlatformTag=246"
247,811626,"Canada Valley Rd & Canada Hills Dr",37.973553,-121.754170,"http://70.232.147.132/RTT/Public/RoutePositionET.aspx?PlatformTag=247"
248,811711,"Hillcrest Ave & Hidden Gln Dr",37.977685,-121.762527,"http://70.232.147.132/RTT/Public/RoutePositionET.aspx?PlatformTag=248"
249,815201,"Hillcrest Ave & Deerfield Dr",37.973571,-121.762628,"http://70.232.147.132/RTT/Public/RoutePositionET.aspx?PlatformTag=249"
250,811635,"Laurel Rd & Kushner Wy",37.974831,-121.757554,"http://70.232.147.132/RTT/Public/RoutePositionET.aspx?PlatformTag=250"
251,811528,"Laurel Rd & Kushner Wy",37.974863,-121.757920,"http://70.232.147.132/RTT/Public/RoutePositionET.aspx?PlatformTag=251"
252,811674,"Wildflower Dr & Hillcrest Ave",37.988120,-121.782392,"http://70.232.147.132/RTT/Public/RoutePositionET.aspx?PlatformTag=252"
254,811690,"Hillcrest Ave & Bellflower Dr",37.983338,-121.770818,"http://70.232.147.132/RTT/Public/RoutePositionET.aspx?PlatformTag=254"
255,817224,"Hillcrest Ave & Via Dora Dr",37.983317,-121.773435,"http://70.232.147.132/RTT/Public/RoutePositionET.aspx?PlatformTag=255"
256,811707,"Hillcrest Ave & Wild Horse Rd",37.982215,-121.766942,"http://70.232.147.132/RTT/Public/RoutePositionET.aspx?PlatformTag=256"
269,815569,"West 18th St & D St",38.004872,-121.810172,"http://70.232.147.132/RTT/Public/RoutePositionET.aspx?PlatformTag=269"
270,815553,"West 18th St & D St",38.005049,-121.810622,"http://70.232.147.132/RTT/Public/RoutePositionET.aspx?PlatformTag=270"
271,815576,"West 18th St & L St",38.005282,-121.818327,"http://70.232.147.132/RTT/Public/RoutePositionET.aspx?PlatformTag=271"
272,815582,"West 18th St & L St",38.005144,-121.818252,"http://70.232.147.132/RTT/Public/RoutePositionET.aspx?PlatformTag=272"
273,815825,"Auto Center Dr & West 18th St",38.008217,-121.832478,"http://70.232.147.132/RTT/Public/RoutePositionET.aspx?PlatformTag=273"
274,816680,"Auto Center Dr & Costco Way",38.008888,-121.832170,"http://70.232.147.132/RTT/Public/RoutePositionET.aspx?PlatformTag=274"
275,819115,"Verne Roberts Cir & Costco Way",38.009936,-121.832891,"http://70.232.147.132/RTT/Public/RoutePositionET.aspx?PlatformTag=275"
276,815632,"Verne Roberts Cir (opp. Costco)",38.009320,-121.835022,"http://70.232.147.132/RTT/Public/RoutePositionET.aspx?PlatformTag=276"
277,815621,"Verne Roberts Cir & Costco",38.009384,-121.835950,"http://70.232.147.132/RTT/Public/RoutePositionET.aspx?PlatformTag=277"
278,815613,"Verne Roberts Cir & Crow Ct",38.010180,-121.839116,"http://70.232.147.132/RTT/Public/RoutePositionET.aspx?PlatformTag=278"
279,814919,"Verne Roberts Cir & Crow Ct",38.010333,-121.840487,"http://70.232.147.132/RTT/Public/RoutePositionET.aspx?PlatformTag=279"
280,819136,"Century Blvd & Century Plz",38.005970,-121.839142,"http://70.232.147.132/RTT/Public/RoutePositionET.aspx?PlatformTag=280"
281,817194,"Century Blvd & Century Plz",38.006362,-121.840382,"http://70.232.147.132/RTT/Public/RoutePositionET.aspx?PlatformTag=281"
282,814988,"Century Blvd & Brenden",38.007726,-121.844649,"http://70.232.147.132/RTT/Public/RoutePositionET.aspx?PlatformTag=282"
283,814961,"Century Blvd & Brenden",38.008202,-121.844767,"http://70.232.147.132/RTT/Public/RoutePositionET.aspx?PlatformTag=283"
284,814903,"Verne Roberts Cir & West 10th St",38.011951,-121.841902,"http://70.232.147.132/RTT/Public/RoutePositionET.aspx?PlatformTag=284"
285,815609,"Verne Roberts Cir & West 10th St",38.011967,-121.841737,"http://70.232.147.132/RTT/Public/RoutePositionET.aspx?PlatformTag=285"
286,817187,"Century Blvd & Century Wy",38.009563,-121.848673,"http://70.232.147.132/RTT/Public/RoutePositionET.aspx?PlatformTag=286"
287,813600,"West 10th St & Verne Roberts Cir",38.012408,-121.830614,"http://70.232.147.132/RTT/Public/RoutePositionET.aspx?PlatformTag=287"
288,817269,"West 10th St & Auto Center Dr",38.012603,-121.829715,"http://70.232.147.132/RTT/Public/RoutePositionET.aspx?PlatformTag=288"
289,815737,"West 4th St & O St",38.015434,-121.823621,"http://70.232.147.132/RTT/Public/RoutePositionET.aspx?PlatformTag=289"
290,815595,"West 4th St & O St",38.015620,-121.823263,"http://70.232.147.132/RTT/Public/RoutePositionET.aspx?PlatformTag=290"
291,815716,"L St & West 3rd St",38.016433,-121.819850,"http://70.232.147.132/RTT/Public/RoutePositionET.aspx?PlatformTag=291"
292,815728,"L St & West 2nd St",38.016673,-121.819626,"http://70.232.147.132/RTT/Public/RoutePositionET.aspx?PlatformTag=292"
293,815700,"West 2nd St & K St",38.016967,-121.818151,"http://70.232.147.132/RTT/Public/RoutePositionET.aspx?PlatformTag=293"
294,819617,"West 2nd St & Prospect Wy",38.016855,-121.817445,"http://70.232.147.132/RTT/Public/RoutePositionET.aspx?PlatformTag=294"
295,815697,"West 2nd St & Waldie Plz",38.016947,-121.814838,"http://70.232.147.132/RTT/Public/RoutePositionET.aspx?PlatformTag=295"
296,819629,"West 2nd St & Waldie Plz",38.016861,-121.814610,"http://70.232.147.132/RTT/Public/RoutePositionET.aspx?PlatformTag=296"
297,819640,"West 2nd St & E St",38.016959,-121.810919,"http://70.232.147.132/RTT/Public/RoutePositionET.aspx?PlatformTag=297"
298,819638,"West 2nd St & East St",38.016850,-121.810841,"http://70.232.147.132/RTT/Public/RoutePositionET.aspx?PlatformTag=298"
299,815684,"West 2nd St & West 3rd St",38.016467,-121.809116,"http://70.232.147.132/RTT/Public/RoutePositionET.aspx?PlatformTag=299"
300,819655,"A St & West 3rd St",38.016203,-121.808883,"http://70.232.147.132/RTT/Public/RoutePositionET.aspx?PlatformTag=300"
301,819574,"West 1st St & Waldie Plz",38.017680,-121.816492,"http://70.232.147.132/RTT/Public/RoutePositionET.aspx?PlatformTag=301"
302,816130,"Delta Fair Blvd & Gentrytown Dr",37.999618,-121.837866,"http://70.232.147.132/RTT/Public/RoutePositionET.aspx?PlatformTag=302"
303,815433,"Delta Fair Blvd & Gentrytown Dr",37.999639,-121.838077,"http://70.232.147.132/RTT/Public/RoutePositionET.aspx?PlatformTag=303"
304,819348,"L St & Claudia Ct",38.000299,-121.821285,"http://70.232.147.132/RTT/Public/RoutePositionET.aspx?PlatformTag=304"
305,817211,"L St & Claudia Ct",38.000014,-121.821126,"http://70.232.147.132/RTT/Public/RoutePositionET.aspx?PlatformTag=305"
306,815422,"Gentrytown Dr & Madrid Ln",37.997058,-121.838073,"http://70.232.147.132/RTT/Public/RoutePositionET.aspx?PlatformTag=306"
307,815446,"Gentrytown Dr & Lopez Dr",37.996390,-121.838371,"http://70.232.147.132/RTT/Public/RoutePositionET.aspx?PlatformTag=307"
308,815414,"Gentrytown Dr & Sequoia Dr",37.993471,-121.839732,"http://70.232.147.132/RTT/Public/RoutePositionET.aspx?PlatformTag=308"
309,815451,"Gentrytown Dr & Sequoia Dr",37.993428,-121.839903,"http://70.232.147.132/RTT/Public/RoutePositionET.aspx?PlatformTag=309"
310,819284,"Gentrytown Dr & Jefferson Wy",37.991982,-121.840074,"http://70.232.147.132/RTT/Public/RoutePositionET.aspx?PlatformTag=310"
311,815467,"Gentrytown Dr & Jefferson Wy",37.991329,-121.840228,"http://70.232.147.132/RTT/Public/RoutePositionET.aspx?PlatformTag=311"
312,815480,"Gentrytown Dr & Putnam St",37.989485,-121.840277,"http://70.232.147.132/RTT/Public/RoutePositionET.aspx?PlatformTag=312"
313,815390,"Gentrytown Dr & Curtis Dr",37.988003,-121.839478,"http://70.232.147.132/RTT/Public/RoutePositionET.aspx?PlatformTag=313"
314,815498,"Gentrytown Dr & Dimaggio Wy",37.987155,-121.838751,"http://70.232.147.132/RTT/Public/RoutePositionET.aspx?PlatformTag=314"
315,815388,"Gentrytown Dr & Meredith Wy",37.984603,-121.835736,"http://70.232.147.132/RTT/Public/RoutePositionET.aspx?PlatformTag=315"
316,815507,"James Donlon Blvd & Gentrytown Dr",37.983053,-121.835207,"http://70.232.147.132/RTT/Public/RoutePositionET.aspx?PlatformTag=316"
317,815374,"James Donlon Blvd & Dimaggio Wy",37.983256,-121.831473,"http://70.232.147.132/RTT/Public/RoutePositionET.aspx?PlatformTag=317"
318,815511,"James Donlon Blvd & Silverado Dr",37.983021,-121.830620,"http://70.232.147.132/RTT/Public/RoutePositionET.aspx?PlatformTag=318"
319,815479,"James Donlon Blvd & Contra Loma Blvd",37.982792,-121.826061,"http://70.232.147.132/RTT/Public/RoutePositionET.aspx?PlatformTag=319"
320,815524,"Fitzuren Rd & G St",37.997704,-121.816560,"http://70.232.147.132/RTT/Public/RoutePositionET.aspx?PlatformTag=320"
321,815530,"West Tregallas Rd & G St",37.997535,-121.815250,"http://70.232.147.132/RTT/Public/RoutePositionET.aspx?PlatformTag=321"
322,817978,"West Tregallas Rd & D St",37.997495,-121.808727,"http://70.232.147.132/RTT/Public/RoutePositionET.aspx?PlatformTag=322"
323,818718,"West Tregallas Rd & D St",37.997584,-121.810293,"http://70.232.147.132/RTT/Public/RoutePositionET.aspx?PlatformTag=323"
324,814727,"West Leland Rd & Sth Broadway Ave",38.015465,-121.940757,"http://70.232.147.132/RTT/Public/RoutePositionET.aspx?PlatformTag=324"
325,814791,"West Leland Rd & Chestnut Dr",38.015533,-121.936640,"http://70.232.147.132/RTT/Public/RoutePositionET.aspx?PlatformTag=325"
326,814612,"West Leland Rd & Sugartree Dr",38.015660,-121.932678,"http://70.232.147.132/RTT/Public/RoutePositionET.aspx?PlatformTag=326"
327,814608,"West Leland Rd & Jacqueline Dr",38.015600,-121.928571,"http://70.232.147.132/RTT/Public/RoutePositionET.aspx?PlatformTag=327"
328,814534,"West Leland Rd & Sugartree Dr",38.015198,-121.926050,"http://70.232.147.132/RTT/Public/RoutePositionET.aspx?PlatformTag=328"
329,814523,"West Leland Rd & John Henry Johnson Pky",38.013716,-121.918195,"http://70.232.147.132/RTT/Public/RoutePositionET.aspx?PlatformTag=329"
330,814510,"West Leland Rd & Range Rd",38.014032,-121.912547,"http://70.232.147.132/RTT/Public/RoutePositionET.aspx?PlatformTag=330"
331,814506,"West Leland Rd & Dover Wy",38.016345,-121.905133,"http://70.232.147.132/RTT/Public/RoutePositionET.aspx?PlatformTag=331"
332,814497,"West Leland Rd & Burton Ave",38.015177,-121.900342,"http://70.232.147.132/RTT/Public/RoutePositionET.aspx?PlatformTag=332"
333,814484,"West Leland Rd & Crestview Dr",38.014027,-121.896683,"http://70.232.147.132/RTT/Public/RoutePositionET.aspx?PlatformTag=333"
334,814263,"East Leland Rd & Railroad Ave",38.012154,-121.890473,"http://70.232.147.132/RTT/Public/RoutePositionET.aspx?PlatformTag=334"
335,814466,"East Leland Rd & Harbor St",38.011206,-121.886528,"http://70.232.147.132/RTT/Public/RoutePositionET.aspx?PlatformTag=335"
336,814450,"East Leland Rd & Freed Wy",38.009728,-121.880300,"http://70.232.147.132/RTT/Public/RoutePositionET.aspx?PlatformTag=336"
337,814445,"East Leland Rd & Piedmont Wy",38.009393,-121.875367,"http://70.232.147.132/RTT/Public/RoutePositionET.aspx?PlatformTag=337"
338,810312,"East Leland Rd & Loveridge Rd",38.008477,-121.871440,"http://70.232.147.132/RTT/Public/RoutePositionET.aspx?PlatformTag=338"
339,810308,"Loveridge Rd & Stoneman Ave",38.003073,-121.872716,"http://70.232.147.132/RTT/Public/RoutePositionET.aspx?PlatformTag=339"
340,810298,"Loveridge Rd & Ventura Dr",38.000402,-121.873729,"http://70.232.147.132/RTT/Public/RoutePositionET.aspx?PlatformTag=340"
341,810280,"Buchanan Rd & Loveridge Rd",37.998046,-121.873138,"http://70.232.147.132/RTT/Public/RoutePositionET.aspx?PlatformTag=341"
342,819437,"Buchanan Rd & Ventura Dr",37.998063,-121.868832,"http://70.232.147.132/RTT/Public/RoutePositionET.aspx?PlatformTag=342"
343,810267,"Buchanan Rd & Meadows Ave",37.998067,-121.864524,"http://70.232.147.132/RTT/Public/RoutePositionET.aspx?PlatformTag=343"
344,810192,"Contra Loma Blvd & James Donlon Blvd",37.982954,-121.825097,"http://70.232.147.132/RTT/Public/RoutePositionET.aspx?PlatformTag=344"
345,810205,"Contra Loma Blvd & Gatter Dr",37.986202,-121.823782,"http://70.232.147.132/RTT/Public/RoutePositionET.aspx?PlatformTag=345"
346,810214,"Contra Loma Blvd & Putnam St",37.991308,-121.822329,"http://70.232.147.132/RTT/Public/RoutePositionET.aspx?PlatformTag=346"
347,810222,"Buchanan Rd & Balboa Ct",37.998644,-121.823130,"http://70.232.147.132/RTT/Public/RoutePositionET.aspx?PlatformTag=347"
348,810233,"Buchanan Rd & San Jose Dr",38.000390,-121.830252,"http://70.232.147.132/RTT/Public/RoutePositionET.aspx?PlatformTag=348"
349,810246,"Buchanan Rd & Delta Fair Blvd",37.998719,-121.839217,"http://70.232.147.132/RTT/Public/RoutePositionET.aspx?PlatformTag=349"
350,810251,"Buchanan Rd & Somersville Dr",37.998162,-121.842808,"http://70.232.147.132/RTT/Public/RoutePositionET.aspx?PlatformTag=350"
353,814736,"West Leland Rd & Delta Vista Ln",38.015283,-121.939393,"http://70.232.147.132/RTT/Public/RoutePositionET.aspx?PlatformTag=353"
354,814743,"West Leland Rd & Chestnut Dr",38.015367,-121.936027,"http://70.232.147.132/RTT/Public/RoutePositionET.aspx?PlatformTag=354"
355,814758,"West Leland Rd & Sugartree Dr",38.015513,-121.932173,"http://70.232.147.132/RTT/Public/RoutePositionET.aspx?PlatformTag=355"
356,814762,"West Leland Rd & Jacqueline Dr",38.015330,-121.927955,"http://70.232.147.132/RTT/Public/RoutePositionET.aspx?PlatformTag=356"
357,814770,"West Leland Rd & Daffodil Dr",38.014680,-121.923945,"http://70.232.147.132/RTT/Public/RoutePositionET.aspx?PlatformTag=357"
358,816667,"West Leland Rd & John Henry Johnson Pky",38.013912,-121.919929,"http://70.232.147.132/RTT/Public/RoutePositionET.aspx?PlatformTag=358"
359,817253,"West Leland Rd & Golf Club Rd",38.014503,-121.911470,"http://70.232.147.132/RTT/Public/RoutePositionET.aspx?PlatformTag=359"
360,817847,"West Leland Rd & Dover Wy",38.016064,-121.904880,"http://70.232.147.132/RTT/Public/RoutePositionET.aspx?PlatformTag=360"
361,819395,"West Leland Rd & Burton Ave",38.014999,-121.900352,"http://70.232.147.132/RTT/Public/RoutePositionET.aspx?PlatformTag=361"
362,815199,"West Leland Rd & Betty Ln",38.013262,-121.895894,"http://70.232.147.132/RTT/Public/RoutePositionET.aspx?PlatformTag=362"
363,818430,"East Leland Rd & Railroad Ave",38.011982,-121.890725,"http://70.232.147.132/RTT/Public/RoutePositionET.aspx?PlatformTag=363"
364,817899,"East Leland Rd & Harbor St",38.010755,-121.885601,"http://70.232.147.132/RTT/Public/RoutePositionET.aspx?PlatformTag=364"
365,814801,"East Leland Rd & Homewood Dr",38.009716,-121.881292,"http://70.232.147.132/RTT/Public/RoutePositionET.aspx?PlatformTag=365"
366,814547,"East Leland Rd & Stoneridge Dr",38.009200,-121.879112,"http://70.232.147.132/RTT/Public/RoutePositionET.aspx?PlatformTag=366"
367,814552,"East Leland Rd & Dias Cir",38.008848,-121.873939,"http://70.232.147.132/RTT/Public/RoutePositionET.aspx?PlatformTag=367"
368,814421,"Loveridge Rd & Loveridge Cir",38.007573,-121.871291,"http://70.232.147.132/RTT/Public/RoutePositionET.aspx?PlatformTag=368"
369,814817,"Loveridge Rd & Stoneman Ave",38.003042,-121.873006,"http://70.232.147.132/RTT/Public/RoutePositionET.aspx?PlatformTag=369"
370,814829,"Loveridge Rd & Ventura Dr",38.000318,-121.874049,"http://70.232.147.132/RTT/Public/RoutePositionET.aspx?PlatformTag=370"
371,819353,"Buchanan Rd & Loveridge Rd",37.997900,-121.873037,"http://70.232.147.132/RTT/Public/RoutePositionET.aspx?PlatformTag=371"
372,814840,"Buchanan Rd & Ventura Dr",37.997898,-121.867269,"http://70.232.147.132/RTT/Public/RoutePositionET.aspx?PlatformTag=372"
373,814855,"Buchanan Rd & Meadows Ave",37.997889,-121.862938,"http://70.232.147.132/RTT/Public/RoutePositionET.aspx?PlatformTag=373"
374,814318,"Buchanan Rd & Somersville Rd",37.997873,-121.845605,"http://70.232.147.132/RTT/Public/RoutePositionET.aspx?PlatformTag=374"
375,814325,"Buchanan Rd & Gentrytown Dr",37.998660,-121.836594,"http://70.232.147.132/RTT/Public/RoutePositionET.aspx?PlatformTag=375"
376,818371,"Buchanan Rd & San Jose Dr",38.000394,-121.829166,"http://70.232.147.132/RTT/Public/RoutePositionET.aspx?PlatformTag=376"
377,819767,"Buchanan Rd & Balboa Ct",37.998341,-121.823077,"http://70.232.147.132/RTT/Public/RoutePositionET.aspx?PlatformTag=377"
378,815650,"Contra Loma Blvd & St. Francis Dr SB",37.996671,-121.822858,"http://70.232.147.132/RTT/Public/RoutePositionET.aspx?PlatformTag=378"
379,815645,"Contra Loma Blvd & San Jose Dr",37.994019,-121.822830,"http://70.232.147.132/RTT/Public/RoutePositionET.aspx?PlatformTag=379"
380,815678,"Contra Loma Blvd & Longview Rd",37.989222,-121.823181,"http://70.232.147.132/RTT/Public/RoutePositionET.aspx?PlatformTag=380"
381,815666,"Contra Loma Blvd & Contra Loma Plaza",37.990729,-121.822651,"http://70.232.147.132/RTT/Public/RoutePositionET.aspx?PlatformTag=381"
382,814271,"James Donlon Blvd & Contra Loma Blvd",37.981970,-121.824916,"http://70.232.147.132/RTT/Public/RoutePositionET.aspx?PlatformTag=382"
383,815357,"James Donlon Blvd & Community Prk",37.980064,-121.819935,"http://70.232.147.132/RTT/Public/RoutePositionET.aspx?PlatformTag=383"
384,815361,"James Donlon Blvd & G St",37.979764,-121.814040,"http://70.232.147.132/RTT/Public/RoutePositionET.aspx?PlatformTag=384"
385,815342,"James Donlon Blvd & Sth Royal Links Cir",37.979807,-121.809480,"http://70.232.147.132/RTT/Public/RoutePositionET.aspx?PlatformTag=385"
386,818675,"G St & West 7th St",38.013237,-121.813726,"http://70.232.147.132/RTT/Public/RoutePositionET.aspx?PlatformTag=386"
387,818681,"G St & West 7th St",38.012986,-121.813855,"http://70.232.147.132/RTT/Public/RoutePositionET.aspx?PlatformTag=387"
388,818668,"G St & West 10th St",38.011514,-121.813729,"http://70.232.147.132/RTT/Public/RoutePositionET.aspx?PlatformTag=388"
389,819127,"West 10th St & G St",38.011145,-121.813159,"http://70.232.147.132/RTT/Public/RoutePositionET.aspx?PlatformTag=389"
390,816698,"West 10th St & B St",38.011250,-121.807857,"http://70.232.147.132/RTT/Public/RoutePositionET.aspx?PlatformTag=390"
391,816717,"West 10th St & B St",38.011146,-121.807734,"http://70.232.147.132/RTT/Public/RoutePositionET.aspx?PlatformTag=391"
392,816066,"Wilbur Ave & Almond St",38.012279,-121.805338,"http://70.232.147.132/RTT/Public/RoutePositionET.aspx?PlatformTag=392"
393,816050,"Wilbur Ave & Almond St",38.012152,-121.805231,"http://70.232.147.132/RTT/Public/RoutePositionET.aspx?PlatformTag=393"
394,816084,"Wilbur Ave & Orchard Ln",38.012326,-121.802203,"http://70.232.147.132/RTT/Public/RoutePositionET.aspx?PlatformTag=394"
395,816078,"Wilbur Ave & Orchard Ln",38.012155,-121.801092,"http://70.232.147.132/RTT/Public/RoutePositionET.aspx?PlatformTag=395"
396,818741,"East 18th St & Alpha Wy",38.004816,-121.800858,"http://70.232.147.132/RTT/Public/RoutePositionET.aspx?PlatformTag=396"
397,816097,"Cavallo Rd & East 18th St",38.004810,-121.798277,"http://70.232.147.132/RTT/Public/RoutePositionET.aspx?PlatformTag=397"
398,815286,"Cavallo Rd & Minner Ave",38.000542,-121.796963,"http://70.232.147.132/RTT/Public/RoutePositionET.aspx?PlatformTag=398"
399,815293,"Cavallo Rd & Sunset Dr",37.998483,-121.798075,"http://70.232.147.132/RTT/Public/RoutePositionET.aspx?PlatformTag=399"
403,815335,"East Tregallas Rd & Countrywood Dr",37.995817,-121.787545,"http://70.232.147.132/RTT/Public/RoutePositionET.aspx?PlatformTag=403"
405,810897,"Bixler Road & Hwy 4",37.890877,-121.622914,"http://70.232.147.132/RTT/Public/RoutePositionET.aspx?PlatformTag=405"
406,810845,"Bixler Rd & Regatta Dr",37.892374,-121.623227,"http://70.232.147.132/RTT/Public/RoutePositionET.aspx?PlatformTag=406"
407,810878,"Bixler Rd",37.906057,-121.622839,"http://70.232.147.132/RTT/Public/RoutePositionET.aspx?PlatformTag=407"
409,810866,"Bixler Rd & Point of Timber Rd",37.910388,-121.622781,"http://70.232.147.132/RTT/Public/RoutePositionET.aspx?PlatformTag=409"
410,810850,"Point Of Timber Rd & Preston Dr",37.910859,-121.620227,"http://70.232.147.132/RTT/Public/RoutePositionET.aspx?PlatformTag=410"
411,810809,"Balfour Rd & Garin Pky",37.925565,-121.682355,"http://70.232.147.132/RTT/Public/RoutePositionET.aspx?PlatformTag=411"
412,810821,"Balfour Rd & Garin Pky",37.925776,-121.683472,"http://70.232.147.132/RTT/Public/RoutePositionET.aspx?PlatformTag=412"
413,810813,"Balfour Rd & Wildflower Loop",37.925759,-121.686018,"http://70.232.147.132/RTT/Public/RoutePositionET.aspx?PlatformTag=413"
414,810781,"Brentwood Blvd & Garin Comm Ctr",37.926720,-121.691400,"http://70.232.147.132/RTT/Public/RoutePositionET.aspx?PlatformTag=414"
415,810907,"Brentwood Blvd & Oak St",37.931545,-121.695712,"http://70.232.147.132/RTT/Public/RoutePositionET.aspx?PlatformTag=415"
416,810775,"Brentwood Blvd & Oak St",37.931860,-121.695731,"http://70.232.147.132/RTT/Public/RoutePositionET.aspx?PlatformTag=416"
418,810768,"2nd St & Maple St",37.934583,-121.694780,"http://70.232.147.132/RTT/Public/RoutePositionET.aspx?PlatformTag=418"
419,810911,"2nd St & Maple St",37.934377,-121.694860,"http://70.232.147.132/RTT/Public/RoutePositionET.aspx?PlatformTag=419"
420,810924,"2nd St & Brentwood Blvd",37.936087,-121.696401,"http://70.232.147.132/RTT/Public/RoutePositionET.aspx?PlatformTag=420"
421,810930,"Brentwood Blvd & Village Dr",37.941524,-121.696341,"http://70.232.147.132/RTT/Public/RoutePositionET.aspx?PlatformTag=421"
422,810747,"Brentwood Blvd & Technology Wy",37.944746,-121.696033,"http://70.232.147.132/RTT/Public/RoutePositionET.aspx?PlatformTag=422"
423,810752,"Brentwood Blvd & Village Dr",37.942007,-121.696076,"http://70.232.147.132/RTT/Public/RoutePositionET.aspx?PlatformTag=423"
424,810948,"Brentwood Blvd & Sand Creek Rd",37.946203,-121.696281,"http://70.232.147.132/RTT/Public/RoutePositionET.aspx?PlatformTag=424"
425,810734,"Brentwood Blvd & Applewood Com",37.950374,-121.695938,"http://70.232.147.132/RTT/Public/RoutePositionET.aspx?PlatformTag=425"
426,810953,"Brentwood Blvd & Applewood Com",37.950690,-121.696216,"http://70.232.147.132/RTT/Public/RoutePositionET.aspx?PlatformTag=426"
427,810723,"Brentwood Blvd & Sunset Rd",37.953976,-121.696069,"http://70.232.147.132/RTT/Public/RoutePositionET.aspx?PlatformTag=427"
428,810969,"Brentwood Blvd & Grant St",37.953867,-121.696261,"http://70.232.147.132/RTT/Public/RoutePositionET.aspx?PlatformTag=428"
429,810710,"Brentwood Blvd & Lone Tree Wy",37.960499,-121.695986,"http://70.232.147.132/RTT/Public/RoutePositionET.aspx?PlatformTag=429"
430,810976,"Brentwood Blvd & Lone Tree Wy",37.961009,-121.696233,"http://70.232.147.132/RTT/Public/RoutePositionET.aspx?PlatformTag=430"
431,810706,"Main St & Delta Rd",37.968770,-121.695966,"http://70.232.147.132/RTT/Public/RoutePositionET.aspx?PlatformTag=431"
432,810982,"Main St & Neroly Rd",37.968972,-121.696205,"http://70.232.147.132/RTT/Public/RoutePositionET.aspx?PlatformTag=432"
433,810995,"Main St & West Bolton Rd",37.973361,-121.696103,"http://70.232.147.132/RTT/Public/RoutePositionET.aspx?PlatformTag=433"
434,818929,"Main St & Bolton East Rd",37.973856,-121.695895,"http://70.232.147.132/RTT/Public/RoutePositionET.aspx?PlatformTag=434"
435,810687,"Main St & Laurel Rd",37.983203,-121.695744,"http://70.232.147.132/RTT/Public/RoutePositionET.aspx?PlatformTag=435"
436,811004,"Main St & Laurel Rd",37.983026,-121.696048,"http://70.232.147.132/RTT/Public/RoutePositionET.aspx?PlatformTag=436"
437,819104,"Ohara Ave & Francisco Villa Dr",37.991522,-121.714133,"http://70.232.147.132/RTT/Public/RoutePositionET.aspx?PlatformTag=437"
438,810673,"Ohara Ave & Las Dunas Ave",37.992577,-121.713880,"http://70.232.147.132/RTT/Public/RoutePositionET.aspx?PlatformTag=438"
439,811027,"Ohara Ave & West Home St",37.994505,-121.714045,"http://70.232.147.132/RTT/Public/RoutePositionET.aspx?PlatformTag=439"
440,810660,"Ohara Ave & East Home St",37.995132,-121.713903,"http://70.232.147.132/RTT/Public/RoutePositionET.aspx?PlatformTag=440"
441,811036,"Ohara Ave & Acme St",37.996836,-121.714033,"http://70.232.147.132/RTT/Public/RoutePositionET.aspx?PlatformTag=441"
442,810656,"Ohara Ave & Acme St",37.996982,-121.713893,"http://70.232.147.132/RTT/Public/RoutePositionET.aspx?PlatformTag=442"
443,811043,"Main St & Norcross Ln",37.997716,-121.716376,"http://70.232.147.132/RTT/Public/RoutePositionET.aspx?PlatformTag=443"
444,810641,"Main St & Norcross Ln",37.997947,-121.716936,"http://70.232.147.132/RTT/Public/RoutePositionET.aspx?PlatformTag=444"
445,811058,"Main St & Genesco St",37.999947,-121.732442,"http://70.232.147.132/RTT/Public/RoutePositionET.aspx?PlatformTag=445"
446,810639,"Main St & Charles Wy",37.998737,-121.731490,"http://70.232.147.132/RTT/Public/RoutePositionET.aspx?PlatformTag=446"
447,810625,"Davison Dr & Harris Dr",37.990445,-121.787468,"http://70.232.147.132/RTT/Public/RoutePositionET.aspx?PlatformTag=447"
448,810602,"Davison Dr & Ashburton Dr",37.987251,-121.796556,"http://70.232.147.132/RTT/Public/RoutePositionET.aspx?PlatformTag=448"
449,810618,"Davison Dr & Harbour Dr",37.989615,-121.790708,"http://70.232.147.132/RTT/Public/RoutePositionET.aspx?PlatformTag=449"
450,810591,"Davison Dr & Garrow Dr",37.985850,-121.799285,"http://70.232.147.132/RTT/Public/RoutePositionET.aspx?PlatformTag=450"
451,810589,"Davison Dr & Mountaire Dr",37.985326,-121.802808,"http://70.232.147.132/RTT/Public/RoutePositionET.aspx?PlatformTag=451"
452,810159,"James Donlon Blvd & Sth Royal Links Cir",37.979880,-121.810243,"http://70.232.147.132/RTT/Public/RoutePositionET.aspx?PlatformTag=452"
453,810163,"James Donlon Blvd & G St",37.980161,-121.815110,"http://70.232.147.132/RTT/Public/RoutePositionET.aspx?PlatformTag=453"
454,810171,"James Donlon Blvd & Blythe Dr",37.980346,-121.820887,"http://70.232.147.132/RTT/Public/RoutePositionET.aspx?PlatformTag=454"
456,810074,"East Tregallas Rd & Harbour Dr",37.996963,-121.791557,"http://70.232.147.132/RTT/Public/RoutePositionET.aspx?PlatformTag=456"
457,810088,"East Tregallas Rd & Patricia Ave",37.997616,-121.795375,"http://70.232.147.132/RTT/Public/RoutePositionET.aspx?PlatformTag=457"
459,810100,"Cavallo Rd & Sunset Dr",37.998469,-121.797910,"http://70.232.147.132/RTT/Public/RoutePositionET.aspx?PlatformTag=459"
460,810116,"Cavallo Rd & Gary Ave",38.000604,-121.796759,"http://70.232.147.132/RTT/Public/RoutePositionET.aspx?PlatformTag=460"
461,810128,"Cavallo Rd & Parker Ln",38.003296,-121.796708,"http://70.232.147.132/RTT/Public/RoutePositionET.aspx?PlatformTag=461"
462,810137,"East 18th St & Cavallo Rd",38.004988,-121.797203,"http://70.232.147.132/RTT/Public/RoutePositionET.aspx?PlatformTag=462"
463,810144,"East 18th St & Helmuth Ln",38.004993,-121.801304,"http://70.232.147.132/RTT/Public/RoutePositionET.aspx?PlatformTag=463"
465,817823,"Hillcrest Ave & Arzate Ln",38.001144,-121.787471,"http://70.232.147.132/RTT/Public/RoutePositionET.aspx?PlatformTag=465"
466,817810,"Hillcrest Ave & Yosemite Dr",38.002686,-121.787471,"http://70.232.147.132/RTT/Public/RoutePositionET.aspx?PlatformTag=466"
467,817806,"East 18th St & Hillcrest Ave",38.003914,-121.786563,"http://70.232.147.132/RTT/Public/RoutePositionET.aspx?PlatformTag=467"
468,817796,"East 18th St & Trembath Ln",38.004829,-121.780432,"http://70.232.147.132/RTT/Public/RoutePositionET.aspx?PlatformTag=468"
469,817783,"East 18th St & Viera Ave",38.004829,-121.773234,"http://70.232.147.132/RTT/Public/RoutePositionET.aspx?PlatformTag=469"
470,817777,"East 18th St & Wilson St",38.004876,-121.765209,"http://70.232.147.132/RTT/Public/RoutePositionET.aspx?PlatformTag=470"
471,817765,"East 18th St and CA-160",38.004969,-121.754256,"http://70.232.147.132/RTT/Public/RoutePositionET.aspx?PlatformTag=471"
472,817749,"Main St & Neroly Rd",38.004962,-121.750389,"http://70.232.147.132/RTT/Public/RoutePositionET.aspx?PlatformTag=472"
473,817731,"Main St & Live Oak Ave",38.005058,-121.741049,"http://70.232.147.132/RTT/Public/RoutePositionET.aspx?PlatformTag=473"
474,817720,"Big Break Rd & Main St.",38.004566,-121.732468,"http://70.232.147.132/RTT/Public/RoutePositionET.aspx?PlatformTag=474"
475,817712,"Vintage Pky & Beringer Wy",38.007170,-121.731168,"http://70.232.147.132/RTT/Public/RoutePositionET.aspx?PlatformTag=475"
476,817708,"Vintage Pky & Concannon Dr",38.006416,-121.729231,"http://70.232.147.132/RTT/Public/RoutePositionET.aspx?PlatformTag=476"
477,817691,"Vintage Pky & Delta Ranch Dr",38.005013,-121.727248,"http://70.232.147.132/RTT/Public/RoutePositionET.aspx?PlatformTag=477"
478,817689,"Vintage Pky & Rutherford Ln",38.004527,-121.720218,"http://70.232.147.132/RTT/Public/RoutePositionET.aspx?PlatformTag=478"
479,816857,"Harbor St & Central Ave",38.023811,-121.879337,"http://70.232.147.132/RTT/Public/RoutePositionET.aspx?PlatformTag=479"
480,816861,"Harbor St & Central",38.023949,-121.879596,"http://70.232.147.132/RTT/Public/RoutePositionET.aspx?PlatformTag=480"
481,816835,"School St & Barrus Ave",38.019823,-121.879820,"http://70.232.147.132/RTT/Public/RoutePositionET.aspx?PlatformTag=481"
482,816826,"School St & Barrus Ave",38.020003,-121.879853,"http://70.232.147.132/RTT/Public/RoutePositionET.aspx?PlatformTag=482"
483,816819,"Harbor St & School St",38.019326,-121.881196,"http://70.232.147.132/RTT/Public/RoutePositionET.aspx?PlatformTag=483"
484,816874,"Harbor St & School St",38.019234,-121.881527,"http://70.232.147.132/RTT/Public/RoutePositionET.aspx?PlatformTag=484"
485,817248,"Harbor St & Army St",38.017879,-121.881746,"http://70.232.147.132/RTT/Public/RoutePositionET.aspx?PlatformTag=485"
487,816842,"Chester Dr & School St",38.017993,-121.874555,"http://70.232.147.132/RTT/Public/RoutePositionET.aspx?PlatformTag=487"
488,813135,"A St & East 19th St",38.004070,-121.805909,"http://70.232.147.132/RTT/Public/RoutePositionET.aspx?PlatformTag=488"
489,816992,"East St & Bacon St",37.982701,-122.033933,"http://70.232.147.132/RTT/Public/RoutePositionET.aspx?PlatformTag=489"
490,818858,"East St & Bacon St",37.982543,-122.034049,"http://70.232.147.132/RTT/Public/RoutePositionET.aspx?PlatformTag=490"
491,816971,"Concord BART",37.974766,-122.029025,"http://70.232.147.132/RTT/Public/RoutePositionET.aspx?PlatformTag=491"
493,815012,"Willow Pass Rd & Evora Rd",38.014552,-121.998659,"http://70.232.147.132/RTT/Public/RoutePositionET.aspx?PlatformTag=493"
494,815008,"Willow Pass Rd & Evora Rd",38.014770,-121.998545,"http://70.232.147.132/RTT/Public/RoutePositionET.aspx?PlatformTag=494"
495,816327,"Evora Rd & Driftwood Dr",38.024286,-121.983026,"http://70.232.147.132/RTT/Public/RoutePositionET.aspx?PlatformTag=495"
496,816701,"Driftwood Dr & Coastview Ct",38.024823,-121.983448,"http://70.232.147.132/RTT/Public/RoutePositionET.aspx?PlatformTag=496"
497,815031,"Driftwood Dr and Coastview Ct",38.025081,-121.983562,"http://70.232.147.132/RTT/Public/RoutePositionET.aspx?PlatformTag=497"
498,819307,"Evora Rd & Mota Dr",38.024981,-121.976790,"http://70.232.147.132/RTT/Public/RoutePositionET.aspx?PlatformTag=498"
499,816304,"Evora Rd & St Tropez Dr",38.024872,-121.974141,"http://70.232.147.132/RTT/Public/RoutePositionET.aspx?PlatformTag=499"
500,816336,"Mota Dr & Rio Ln",38.027680,-121.974290,"http://70.232.147.132/RTT/Public/RoutePositionET.aspx?PlatformTag=500"
501,816343,"Mota Dr & Azores Cir",38.028560,-121.973148,"http://70.232.147.132/RTT/Public/RoutePositionET.aspx?PlatformTag=501"
502,818407,"Driftwood Dr & Steffa St",38.029696,-121.978993,"http://70.232.147.132/RTT/Public/RoutePositionET.aspx?PlatformTag=502"
503,815054,"Driftwood Dr & Steffa St",38.030012,-121.978879,"http://70.232.147.132/RTT/Public/RoutePositionET.aspx?PlatformTag=503"
504,815083,"Driftwood Dr & Pacifica Ave",38.033666,-121.978808,"http://70.232.147.132/RTT/Public/RoutePositionET.aspx?PlatformTag=504"
505,818411,"Driftwood Dr & Pacifica Ave",38.033679,-121.978947,"http://70.232.147.132/RTT/Public/RoutePositionET.aspx?PlatformTag=505"
506,815096,"Pacifica Ave & Shoal Dr",38.033933,-121.974424,"http://70.232.147.132/RTT/Public/RoutePositionET.aspx?PlatformTag=506"
507,816358,"Mariners Cove Dr & Pacifica Ave",38.033498,-121.972628,"http://70.232.147.132/RTT/Public/RoutePositionET.aspx?PlatformTag=507"
509,815110,"Pacifica Ave & Inlet Dr",38.034098,-121.968898,"http://70.232.147.132/RTT/Public/RoutePositionET.aspx?PlatformTag=509"
510,816370,"Wharf Dr & Marina Rd",38.036367,-121.976039,"http://70.232.147.132/RTT/Public/RoutePositionET.aspx?PlatformTag=510"
511,816410,"Inlet Dr & Marina Rd",38.036364,-121.969108,"http://70.232.147.132/RTT/Public/RoutePositionET.aspx?PlatformTag=511"
512,815134,"Pacifica Ave & Canal Dr",38.034087,-121.966032,"http://70.232.147.132/RTT/Public/RoutePositionET.aspx?PlatformTag=512"
513,815123,"Pacifica Ave & Breaker Dr",38.033961,-121.965717,"http://70.232.147.132/RTT/Public/RoutePositionET.aspx?PlatformTag=513"
514,816406,"Shore Rd & Inlet Dr",38.038785,-121.969033,"http://70.232.147.132/RTT/Public/RoutePositionET.aspx?PlatformTag=514"
515,816391,"Shore Rd & Lakeview Dr",38.039113,-121.970866,"http://70.232.147.132/RTT/Public/RoutePositionET.aspx?PlatformTag=515"
516,814292,"Wharf Dr & Shore Dr",38.039856,-121.975999,"http://70.232.147.132/RTT/Public/RoutePositionET.aspx?PlatformTag=516"
517,817945,"Pacifica Ave & Port Chicago Hwy",38.034078,-121.961092,"http://70.232.147.132/RTT/Public/RoutePositionET.aspx?PlatformTag=517"
518,815147,"Port Chicago Hwy & Pacific Ave",38.033691,-121.960591,"http://70.232.147.132/RTT/Public/RoutePositionET.aspx?PlatformTag=518"
519,817230,"Kevin Dr & Harvey Wy",38.031731,-121.958576,"http://70.232.147.132/RTT/Public/RoutePositionET.aspx?PlatformTag=519"
520,815168,"Kevin Dr & Harvey Wy",38.031626,-121.958174,"http://70.232.147.132/RTT/Public/RoutePositionET.aspx?PlatformTag=520"
521,816202,"Kevin Dr & Shellie Ct",38.031762,-121.955496,"http://70.232.147.132/RTT/Public/RoutePositionET.aspx?PlatformTag=521"
522,818392,"Kevin Dr & Kim St",38.031591,-121.955462,"http://70.232.147.132/RTT/Public/RoutePositionET.aspx?PlatformTag=522"
523,816218,"Kevin Dr & Pamela Dr",38.030288,-121.953851,"http://70.232.147.132/RTT/Public/RoutePositionET.aspx?PlatformTag=523"
524,816225,"Kevin Dr & Pamela Dr",38.029788,-121.953665,"http://70.232.147.132/RTT/Public/RoutePositionET.aspx?PlatformTag=524"
525,815272,"Kevin Dr & Oram Wy",38.028135,-121.954448,"http://70.232.147.132/RTT/Public/RoutePositionET.aspx?PlatformTag=525"
526,816239,"Kevin Dr & Willow Pass Rd",38.027473,-121.954582,"http://70.232.147.132/RTT/Public/RoutePositionET.aspx?PlatformTag=526"
528,816423,"Willow Pass and Kevin Dr",38.026676,-121.954169,"http://70.232.147.132/RTT/Public/RoutePositionET.aspx?PlatformTag=528"
529,816434,"Willow Pass Rd & Ambrose Ave",38.026680,-121.951871,"http://70.232.147.132/RTT/Public/RoutePositionET.aspx?PlatformTag=529"
530,818424,"Willow Pass Rd & Alves",38.026874,-121.951565,"http://70.232.147.132/RTT/Public/RoutePositionET.aspx?PlatformTag=530"
531,816452,"Willow Pass Rd & Clearland Dr",38.026849,-121.946580,"http://70.232.147.132/RTT/Public/RoutePositionET.aspx?PlatformTag=531"
532,816447,"Willow Pass Rd & Clearland Dr",38.026675,-121.945806,"http://70.232.147.132/RTT/Public/RoutePositionET.aspx?PlatformTag=532"
533,816241,"Willow Pass Rd & Weldon Ln",38.026873,-121.957889,"http://70.232.147.132/RTT/Public/RoutePositionET.aspx?PlatformTag=533"
534,816481,"San Marco Blvd & West Leland Rd",38.020112,-121.965867,"http://70.232.147.132/RTT/Public/RoutePositionET.aspx?PlatformTag=534"
535,816294,"Evora Rd & Pomo St",38.024591,-121.966464,"http://70.232.147.132/RTT/Public/RoutePositionET.aspx?PlatformTag=535"
536,816256,"Willow Pass Rd & Goble Dr",38.025414,-121.962089,"http://70.232.147.132/RTT/Public/RoutePositionET.aspx?PlatformTag=536"
540,816520,"Balclutha Wy & Polaris Dr",38.022912,-121.921902,"http://70.232.147.132/RTT/Public/RoutePositionET.aspx?PlatformTag=540"
541,816531,"Polaris Dr & Balclutha Wy",38.022629,-121.921309,"http://70.232.147.132/RTT/Public/RoutePositionET.aspx?PlatformTag=541"
542,815319,"East Tregallas Rd & Patricia Ave",37.997455,-121.795069,"http://70.232.147.132/RTT/Public/RoutePositionET.aspx?PlatformTag=542"
543,814285,"East Tregallas Rd & Harbour Dr",37.996838,-121.791450,"http://70.232.147.132/RTT/Public/RoutePositionET.aspx?PlatformTag=543"
544,816021,"Willow Pass Rd & Nantucket Dr",38.029577,-121.913039,"http://70.232.147.132/RTT/Public/RoutePositionET.aspx?PlatformTag=544"
545,819369,"Willow Pass Rd & Nantucket Dr",38.029428,-121.910560,"http://70.232.147.132/RTT/Public/RoutePositionET.aspx?PlatformTag=545"
546,816013,"Willow Pass Rd & Enterprise Cir",38.029372,-121.898048,"http://70.232.147.132/RTT/Public/RoutePositionET.aspx?PlatformTag=546"
547,819039,"West 10th St & Enterprise Ct",38.029541,-121.897189,"http://70.232.147.132/RTT/Public/RoutePositionET.aspx?PlatformTag=547"
548,816633,"West 10th St & Beacon St",38.029525,-121.893844,"http://70.232.147.132/RTT/Public/RoutePositionET.aspx?PlatformTag=548"
549,810003,"West 10th St & Beacon St",38.029360,-121.893819,"http://70.232.147.132/RTT/Public/RoutePositionET.aspx?PlatformTag=549"
550,816045,"West 10th St & West St",38.029299,-121.890471,"http://70.232.147.132/RTT/Public/RoutePositionET.aspx?PlatformTag=550"
552,816577,"East Marina Blvd & Pelican Loop",38.036631,-121.884432,"http://70.232.147.132/RTT/Public/RoutePositionET.aspx?PlatformTag=552"
553,816596,"East Marina Blvd & Pelican Loop",38.035990,-121.884205,"http://70.232.147.132/RTT/Public/RoutePositionET.aspx?PlatformTag=553"
554,816605,"Marina Blvd & Pelican Loop",38.034511,-121.884188,"http://70.232.147.132/RTT/Public/RoutePositionET.aspx?PlatformTag=554"
555,816565,"Marina Blvd & East 3rd St",38.034220,-121.884078,"http://70.232.147.132/RTT/Public/RoutePositionET.aspx?PlatformTag=555"
556,816554,"East 3rd St & Riverway Dr",38.032776,-121.879900,"http://70.232.147.132/RTT/Public/RoutePositionET.aspx?PlatformTag=556"
557,816549,"East 3rd St & Harbor St",38.032287,-121.878781,"http://70.232.147.132/RTT/Public/RoutePositionET.aspx?PlatformTag=557"
558,819191,"Amtrak",38.018487,-122.139107,"http://70.232.147.132/RTT/Public/RoutePositionET.aspx?PlatformTag=558"
559,819209,"Alhambra Ave & Wano St",38.005641,-122.131119,"http://70.232.147.132/RTT/Public/RoutePositionET.aspx?PlatformTag=559"
560,816740,"Alhambra Ave & C St",38.004973,-122.130964,"http://70.232.147.132/RTT/Public/RoutePositionET.aspx?PlatformTag=560"
561,814599,"Alhambra Ave & Walnut Ave",37.992447,-122.130639,"http://70.232.147.132/RTT/Public/RoutePositionET.aspx?PlatformTag=561"
562,813979,"Alhambra Ave & Walnut Ave",37.992253,-122.130843,"http://70.232.147.132/RTT/Public/RoutePositionET.aspx?PlatformTag=562"
563,814568,"Muir Rd & Veterans Dr",37.994118,-122.114444,"http://70.232.147.132/RTT/Public/RoutePositionET.aspx?PlatformTag=563"
564,819213,"Muir Rd & Roman Wy",37.994693,-122.110006,"http://70.232.147.132/RTT/Public/RoutePositionET.aspx?PlatformTag=564"
565,813998,"Muir Rd & Roman Wy",37.994576,-122.109830,"http://70.232.147.132/RTT/Public/RoutePositionET.aspx?PlatformTag=565"
566,814575,"Arnold Dr & Starflower Dr",37.994533,-122.078853,"http://70.232.147.132/RTT/Public/RoutePositionET.aspx?PlatformTag=566"
567,819221,"Arnold Dr & Starflower Dr",37.994474,-122.079064,"http://70.232.147.132/RTT/Public/RoutePositionET.aspx?PlatformTag=567"
568,816260,"West Leland Rd & San Marco Blvd",38.019283,-121.965068,"http://70.232.147.132/RTT/Public/RoutePositionET.aspx?PlatformTag=568"
569,816287,"West Leland Rd & Alves Ranch Rd",38.018049,-121.955961,"http://70.232.147.132/RTT/Public/RoutePositionET.aspx?PlatformTag=569"
570,816273,"West Leland Rd & Alves Ranch Rd",38.017493,-121.954409,"http://70.232.147.132/RTT/Public/RoutePositionET.aspx?PlatformTag=570"
571,816793,"Hwy 4 & Railroad Ave",38.017775,-121.890171,"http://70.232.147.132/RTT/Public/RoutePositionET.aspx?PlatformTag=571"
572,819250,"Railroad Ave & Mariposa Dr",38.006202,-121.893301,"http://70.232.147.132/RTT/Public/RoutePositionET.aspx?PlatformTag=572"
573,813895,"Railroad Ave & Yosemite Dr",38.005689,-121.893743,"http://70.232.147.132/RTT/Public/RoutePositionET.aspx?PlatformTag=573"
574,817966,"Railroad Ave & Linscheid Dr",38.003088,-121.894495,"http://70.232.147.132/RTT/Public/RoutePositionET.aspx?PlatformTag=574"
575,813905,"Railroad Ave & Sequoia Dr",38.001945,-121.895183,"http://70.232.147.132/RTT/Public/RoutePositionET.aspx?PlatformTag=575"
576,815759,"Railroad Ave & Redondo Dr",38.000052,-121.895688,"http://70.232.147.132/RTT/Public/RoutePositionET.aspx?PlatformTag=576"
577,817984,"Railroad Ave & Pueblo Dr",37.999261,-121.896266,"http://70.232.147.132/RTT/Public/RoutePositionET.aspx?PlatformTag=577"
578,813853,"Buchanan Rd & Harbor St",37.998042,-121.887675,"http://70.232.147.132/RTT/Public/RoutePositionET.aspx?PlatformTag=578"
579,818469,"Buchanan Rd & Campbell Dr",37.997904,-121.886633,"http://70.232.147.132/RTT/Public/RoutePositionET.aspx?PlatformTag=579"
580,813848,"Buchanan Rd & Santa Ana Dr",37.998055,-121.883443,"http://70.232.147.132/RTT/Public/RoutePositionET.aspx?PlatformTag=580"
581,813933,"Buchanan Rd & Inverness Dr",37.997890,-121.882025,"http://70.232.147.132/RTT/Public/RoutePositionET.aspx?PlatformTag=581"
582,813663,"Buchanan Rd & Suzanne Dr",37.998052,-121.880624,"http://70.232.147.132/RTT/Public/RoutePositionET.aspx?PlatformTag=582"
583,818385,"Buchanan Rd & McDermott Dr",37.997894,-121.877955,"http://70.232.147.132/RTT/Public/RoutePositionET.aspx?PlatformTag=583"
599,817875,"Black Diamond & East 8th St",38.029909,-121.885770,"http://70.232.147.132/RTT/Public/RoutePositionET.aspx?PlatformTag=599"
600,817881,"Black Diamond & East 8th St",38.029714,-121.885937,"http://70.232.147.132/RTT/Public/RoutePositionET.aspx?PlatformTag=600"
603,811487,"Fairview Ave & San Jose Ave",37.939536,-121.723989,"http://70.232.147.132/RTT/Public/RoutePositionET.aspx?PlatformTag=603"
604,811366,"Fairview Ave & San Jose Ave",37.940296,-121.723200,"http://70.232.147.132/RTT/Public/RoutePositionET.aspx?PlatformTag=604"
606,819820,"Willow Pass Rd & Kevin Dr",38.026804,-121.954288,"http://70.232.147.132/RTT/Public/RoutePositionET.aspx?PlatformTag=606"
607,816583,"Pittsburg Marina",38.038622,-121.885152,"http://70.232.147.132/RTT/Public/RoutePositionET.aspx?PlatformTag=607"
609,813750,"Ohara Ave & Atherton Blvd",37.967839,-121.713914,"http://70.232.147.132/RTT/Public/RoutePositionET.aspx?PlatformTag=609"
610,811425,"Brentwood Park n Ride",37.933838,-121.698755,"http://70.232.147.132/RTT/Public/RoutePositionET.aspx?PlatformTag=610"
613,819812,"Contra Loma Blvd & St Francis Dr NB",37.997405,-121.822379,"http://70.232.147.132/RTT/Public/RoutePositionET.aspx?PlatformTag=613"
625,818889,"Bart Central Platform",38.017592,-121.945317,"http://70.232.147.132/RTT/Public/RoutePositionET.aspx?PlatformTag=625"
626,812956,"Delta Fair Blvd & Belle Dr",38.006108,-121.854058,"http://70.232.147.132/RTT/Public/RoutePositionET.aspx?PlatformTag=626"
627,810354,"Cavallo Rd & Amber Dr",38.005766,-121.796679,"http://70.232.147.132/RTT/Public/RoutePositionET.aspx?PlatformTag=627"
628,810035,"Cavallo Rd & East 13th St",38.009146,-121.796802,"http://70.232.147.132/RTT/Public/RoutePositionET.aspx?PlatformTag=628"
629,810349,"Cavallo Rd & East 13th St",38.009174,-121.796585,"http://70.232.147.132/RTT/Public/RoutePositionET.aspx?PlatformTag=629"
630,810331,"Cavallo Rd & Wilbur Ave",38.011757,-121.796780,"http://70.232.147.132/RTT/Public/RoutePositionET.aspx?PlatformTag=630"
631,810026,"Cavallo Rd & Wilbur Ave",38.011653,-121.796973,"http://70.232.147.132/RTT/Public/RoutePositionET.aspx?PlatformTag=631"
632,811309,"American Ave & Balfour Rd",37.922265,-121.752791,"http://70.232.147.132/RTT/Public/RoutePositionET.aspx?PlatformTag=632"
633,811299,"American Ave",37.918801,-121.756103,"http://70.232.147.132/RTT/Public/RoutePositionET.aspx?PlatformTag=633"
634,810570,"Davison Dr & Sunset Ln",37.985084,-121.803754,"http://70.232.147.132/RTT/Public/RoutePositionET.aspx?PlatformTag=634"
635,810562,"Davison Dr & Garrow Dr",37.986106,-121.798406,"http://70.232.147.132/RTT/Public/RoutePositionET.aspx?PlatformTag=635"
636,810558,"Davison Dr & Burwood Wy",37.987210,-121.795631,"http://70.232.147.132/RTT/Public/RoutePositionET.aspx?PlatformTag=636"
637,810543,"Davison Dr & Harbour Dr",37.989532,-121.790471,"http://70.232.147.132/RTT/Public/RoutePositionET.aspx?PlatformTag=637"
638,819798,"Davison Dr & Harris Dr",37.990253,-121.787355,"http://70.232.147.132/RTT/Public/RoutePositionET.aspx?PlatformTag=638"
640,818756,"Main St & Big Break Rd",38.003643,-121.732676,"http://70.232.147.132/RTT/Public/RoutePositionET.aspx?PlatformTag=640"
641,810019,"Wilbur Ave & Cavallo Rd",38.012362,-121.795246,"http://70.232.147.132/RTT/Public/RoutePositionET.aspx?PlatformTag=641"
642,810320,"Wilbur Ave & Cavallo Rd",38.012133,-121.796097,"http://70.232.147.132/RTT/Public/RoutePositionET.aspx?PlatformTag=642"
644,811281,"Balfour Rd & American Ave",37.925162,-121.751831,"http://70.232.147.132/RTT/Public/RoutePositionET.aspx?PlatformTag=644"
645,811275,"Balfour Rd & Ranchwood Dr",37.925174,-121.745748,"http://70.232.147.132/RTT/Public/RoutePositionET.aspx?PlatformTag=645"
646,811268,"Balfour Rd & Foothill Dr",37.925167,-121.741244,"http://70.232.147.132/RTT/Public/RoutePositionET.aspx?PlatformTag=646"
647,811247,"Sand Creek Rd & Sand Creek Crossing",37.943405,-121.737116,"http://70.232.147.132/RTT/Public/RoutePositionET.aspx?PlatformTag=647"
648,811234,"Sand Creek Rd & Highland Wy",37.943455,-121.734403,"http://70.232.147.132/RTT/Public/RoutePositionET.aspx?PlatformTag=648"
649,811223,"Sand Creek Rd & Highland Wy",37.943496,-121.726435,"http://70.232.147.132/RTT/Public/RoutePositionET.aspx?PlatformTag=649"
650,811494,"Fairview Ave & Sand Creek Rd",37.943527,-121.723734,"http://70.232.147.132/RTT/Public/RoutePositionET.aspx?PlatformTag=650"
658,811439,"Walnut Blvd & Orchard Dr",37.928330,-121.695972,"http://70.232.147.132/RTT/Public/RoutePositionET.aspx?PlatformTag=658"
659,811418,"Walnut Blvd & Balfour Rd",37.926620,-121.696342,"http://70.232.147.132/RTT/Public/RoutePositionET.aspx?PlatformTag=659"
662,811140,"Balfour Rd & Hudson Dr",37.925403,-121.694228,"http://70.232.147.132/RTT/Public/RoutePositionET.aspx?PlatformTag=662"
663,811138,"Balfour Rd & Logan Wy",37.925475,-121.688803,"http://70.232.147.132/RTT/Public/RoutePositionET.aspx?PlatformTag=663"
666,811101,"Balfour Rd & Hudson Dr",37.925669,-121.694665,"http://70.232.147.132/RTT/Public/RoutePositionET.aspx?PlatformTag=666"
669,811378,"Fairview Ave & Central Blvd",37.933006,-121.723472,"http://70.232.147.132/RTT/Public/RoutePositionET.aspx?PlatformTag=669"
670,811345,"Sand Creek Rd & Fairview Ave",37.944184,-121.724279,"http://70.232.147.132/RTT/Public/RoutePositionET.aspx?PlatformTag=670"
671,811332,"Sand Creek Rd & Shady Willow Ln",37.943705,-121.732405,"http://70.232.147.132/RTT/Public/RoutePositionET.aspx?PlatformTag=671"
672,811321,"Sand Creek Rd & Sand Creek Crossing",37.943737,-121.738289,"http://70.232.147.132/RTT/Public/RoutePositionET.aspx?PlatformTag=672"
673,811313,"Balfour Rd & John Muir Pky",37.925438,-121.739433,"http://70.232.147.132/RTT/Public/RoutePositionET.aspx?PlatformTag=673"
674,811252,"John Muir Hospital",37.924308,-121.736686,"http://70.232.147.132/RTT/Public/RoutePositionET.aspx?PlatformTag=674"
675,810042,"East 18th St & Cavallo Rd",38.004807,-121.796225,"http://70.232.147.132/RTT/Public/RoutePositionET.aspx?PlatformTag=675"
677,810057,"East 18th St & Biglow Dr",38.004787,-121.793425,"http://70.232.147.132/RTT/Public/RoutePositionET.aspx?PlatformTag=677"
678,810365,"East 18th St & Tce Dr",38.005032,-121.792254,"http://70.232.147.132/RTT/Public/RoutePositionET.aspx?PlatformTag=678"
679,813347,"East 18th St & Wilson St",38.005071,-121.765062,"http://70.232.147.132/RTT/Public/RoutePositionET.aspx?PlatformTag=679"
680,810396,"Prewett Ranch Dr & Forty Niner Wy",37.957507,-121.779437,"http://70.232.147.132/RTT/Public/RoutePositionET.aspx?PlatformTag=680"
681,810527,"Prewett Ranch Dr & Forty Niner Wy",37.957625,-121.779145,"http://70.232.147.132/RTT/Public/RoutePositionET.aspx?PlatformTag=681"
682,810401,"Prewett Ranch Dr & Marigold Wy",37.959706,-121.786104,"http://70.232.147.132/RTT/Public/RoutePositionET.aspx?PlatformTag=682"
683,810515,"Prewett Ranch Dr & Marigold Wy",37.960071,-121.786348,"http://70.232.147.132/RTT/Public/RoutePositionET.aspx?PlatformTag=683"
684,810417,"Prewett Ranch Dr & Mokelumne Dr",37.961386,-121.789995,"http://70.232.147.132/RTT/Public/RoutePositionET.aspx?PlatformTag=684"
685,810504,"Prewett Ranch Dr & Mokelumne Dr",37.961580,-121.789798,"http://70.232.147.132/RTT/Public/RoutePositionET.aspx?PlatformTag=685"
686,810429,"Prewett Ranch Dr & Mt Conness Wy",37.959934,-121.795028,"http://70.232.147.132/RTT/Public/RoutePositionET.aspx?PlatformTag=686"
687,810438,"Dallas Ranch Rd & Stonecrest Dr",37.962305,-121.797582,"http://70.232.147.132/RTT/Public/RoutePositionET.aspx?PlatformTag=687"
688,810486,"Dallas Ranch Rd & Stonecrest Dr",37.962504,-121.797326,"http://70.232.147.132/RTT/Public/RoutePositionET.aspx?PlatformTag=688"
689,810440,"Dallas Ranch Rd & Mt Hamilton Dr",37.967420,-121.796942,"http://70.232.147.132/RTT/Public/RoutePositionET.aspx?PlatformTag=689"
690,810472,"Dallas Ranch Rd & Mt Hamilton Dr",37.967460,-121.796661,"http://70.232.147.132/RTT/Public/RoutePositionET.aspx?PlatformTag=690"
691,810464,"Dallas Ranch Rd & Cache Peak Dr",37.969732,-121.796680,"http://70.232.147.132/RTT/Public/RoutePositionET.aspx?PlatformTag=691"
692,810455,"Dallas Ranch Rd & Cache Peak Dr",37.970567,-121.796956,"http://70.232.147.132/RTT/Public/RoutePositionET.aspx?PlatformTag=692"
693,811402,"Balfour Rd & Griffith Ln",37.925586,-121.705982,"http://70.232.147.132/RTT/Public/RoutePositionET.aspx?PlatformTag=693"
694,811441,"Balfour Rd & Griffith Ln",37.925346,-121.704405,"http://70.232.147.132/RTT/Public/RoutePositionET.aspx?PlatformTag=694"
695,811397,"Balfour Rd & Minnesota Ave",37.925512,-121.714366,"http://70.232.147.132/RTT/Public/RoutePositionET.aspx?PlatformTag=695"
696,811456,"Balfour Rd & Claremont Dr",37.925281,-121.714289,"http://70.232.147.132/RTT/Public/RoutePositionET.aspx?PlatformTag=696"
697,811384,"Balfour Rd & Clearview Dr",37.925505,-121.719073,"http://70.232.147.132/RTT/Public/RoutePositionET.aspx?PlatformTag=697"
698,811460,"Balfour Rd & McViking Wy",37.925212,-121.721176,"http://70.232.147.132/RTT/Public/RoutePositionET.aspx?PlatformTag=698"
699,810493,"Prewett Ranch Dr & Mt Conness Wy",37.960114,-121.794772,"http://70.232.147.132/RTT/Public/RoutePositionET.aspx?PlatformTag=699"
709,813220,"Hillcrest Ave & Wild Horse Rd",37.981534,-121.766040,"http://70.232.147.132/RTT/Public/RoutePositionET.aspx?PlatformTag=709"
710,819158,"Harbor St & East 10th St",38.026506,-121.878663,"http://70.232.147.132/RTT/Public/RoutePositionET.aspx?PlatformTag=710"
711,810061,"East Tregallas Rd & Countrywood Dr",37.996201,-121.788275,"http://70.232.147.132/RTT/Public/RoutePositionET.aspx?PlatformTag=711"
712,817932,"Prewett Prk & Lone Tree Wy",37.966011,-121.774433,"http://70.232.147.132/RTT/Public/RoutePositionET.aspx?PlatformTag=712"
714,811473,"Fairview Ave & Central Blvd",37.932102,-121.723760,"http://70.232.147.132/RTT/Public/RoutePositionET.aspx?PlatformTag=714"
715,819162,"Pacifica Ave & Wharf Dr",38.034024,-121.976233,"http://70.232.147.132/RTT/Public/RoutePositionET.aspx?PlatformTag=715"
716,815016,"Pacifica Ave & Harbor Dr",38.033969,-121.968545,"http://70.232.147.132/RTT/Public/RoutePositionET.aspx?PlatformTag=716"
717,819170,"Empire Ave & Lone Tree Wy",37.960649,-121.732642,"http://70.232.147.132/RTT/Public/RoutePositionET.aspx?PlatformTag=717"
718,814244,"Shady Willow Ln & Las Montanas Ct",37.947613,-121.735486,"http://70.232.147.132/RTT/Public/RoutePositionET.aspx?PlatformTag=718"
719,819245,"Shady Willow Ln & Los Cielos Wy",37.947355,-121.735521,"http://70.232.147.132/RTT/Public/RoutePositionET.aspx?PlatformTag=719"
720,819324,"Balclutha Wy & Willow Pass Rd",38.026323,-121.923892,"http://70.232.147.132/RTT/Public/RoutePositionET.aspx?PlatformTag=720"
721,819330,"Balclutha Wy & Willow Pass Rd",38.026348,-121.923827,"http://70.232.147.132/RTT/Public/RoutePositionET.aspx?PlatformTag=721"
722,817754,"Hillcrest Park & Ride",37.995572,-121.778137,"http://70.232.147.132/RTT/Public/RoutePositionET.aspx?PlatformTag=722"
725,819400,"Loveridge Rd & Deanza Trail",38.005272,-121.872151,"http://70.232.147.132/RTT/Public/RoutePositionET.aspx?PlatformTag=725"
726,814069,"Loveridge Rd & Delta Deanza Trail",38.005277,-121.871854,"http://70.232.147.132/RTT/Public/RoutePositionET.aspx?PlatformTag=726"
733,817037,"Railroad Ave (NB) & Center Dr",38.018827,-121.888546,"http://70.232.147.132/RTT/Public/RoutePositionET.aspx?PlatformTag=733"
734,819940,"Escobar St & Alhambra Ave",38.017091,-122.138483,"http://70.232.147.132/RTT/Public/RoutePositionET.aspx?PlatformTag=734"
735,818955,"Berrellesa St & Escobar St",38.016616,-122.139478,"http://70.232.147.132/RTT/Public/RoutePositionET.aspx?PlatformTag=735"
744,817028,"Railroad Ave (SB) & Center Dr",38.018500,-121.889071,"http://70.232.147.132/RTT/Public/RoutePositionET.aspx?PlatformTag=744"
746,812735,"Bliss Ave & Harbor St",38.014867,-121.886206,"http://70.232.147.132/RTT/Public/RoutePositionET.aspx?PlatformTag=746"
749,817059,"Railroad Ave (NB) & East 8th St",38.029047,-121.884681,"http://70.232.147.132/RTT/Public/RoutePositionET.aspx?PlatformTag=749"
750,818964,"Railroad Ave (NB) & East 5th St",38.032051,-121.883643,"http://70.232.147.132/RTT/Public/RoutePositionET.aspx?PlatformTag=750"
751,817063,"Railroad Ave (SB) & East 8th St",38.029039,-121.884868,"http://70.232.147.132/RTT/Public/RoutePositionET.aspx?PlatformTag=751"
752,817044,"Railroad Ave (SB) & East 5th St",38.031913,-121.883734,"http://70.232.147.132/RTT/Public/RoutePositionET.aspx?PlatformTag=752"
