timetable_id,stop_id,stop_sequence,stop_name,connected_routes
1,791648,1,Richmond Parkway Transit Center,"16/Pinole Valley - Old Town Pinole - Richmond Parkway Transit Center, 17/BayView - Richmond Parkway Transit Center, 18/Tara Hills - Richmond Parkway Transit Center - Hilltop Mall, JPX/Hercules Transit Center - El Cerrito del Norte BART, JR/Hercules Transit Center - Pinole - Richmond - BART"
1,791527,2,Fitzgerald Dr - Target,"16/Pinole Valley - Old Town Pinole - Richmond Parkway Transit Center, 17/BayView - Richmond Parkway Transit Center, 19/Hercules - Pinole - Richmond Parkway Transit Center - Hilltop Mall"
1,791427,3,Fitzgerald Dr - Best Buy,"16/Pinole Valley - Old Town Pinole - Richmond Parkway Transit Center, 17/BayView - Richmond Parkway Transit Center, 19/Hercules - Pinole - Richmond Parkway Transit Center - Hilltop Mall, JPX/Hercules Transit Center - El Cerrito del Norte BART"
1,791428,4,Fitzgerald Dr - Starbucks,"16/Pinole Valley - Old Town Pinole - Richmond Parkway Transit Center, 17/BayView - Richmond Parkway Transit Center, 19/Hercules - Pinole - Richmond Parkway Transit Center - Hilltop Mall, JPX/Hercules Transit Center - El Cerrito del Norte BART"
1,791443,5,Appian Way and Mann Dr,17/BayView - Richmond Parkway Transit Center
1,791625,6,Marlesta Rd and Appian Way - Westbound Rt 16,17/BayView - Richmond Parkway Transit Center
1,791566,7,Marlesta Rd and Sunnyview Dr,17/BayView - Richmond Parkway Transit Center
1,791453,8,San Pablo Ave and Sunnyview Dr - Eastbound,"17/BayView - Richmond Parkway Transit Center, C3/Hercules Transit Center - Pinole - Contra Costa College, JL/Hercules Transit Center - Pinole - Richmond - BART, JR/Hercules Transit Center - Pinole - Richmond - BART"
1,791516,9,San Pablo Ave - Sugar City Building Materials,"17/BayView - Richmond Parkway Transit Center, C3/Hercules Transit Center - Pinole - Contra Costa College, JL/Hercules Transit Center - Pinole - Richmond - BART, JR/Hercules Transit Center - Pinole - Richmond - BART"
1,791517,10,San Pablo Ave - Public Storage,"17/BayView - Richmond Parkway Transit Center, C3/Hercules Transit Center - Pinole - Contra Costa College, JL/Hercules Transit Center - Pinole - Richmond - BART, JR/Hercules Transit Center - Pinole - Richmond - BART"
1,791444,11,Del Monte Dr and San Pablo Ave,17/BayView - Richmond Parkway Transit Center
2,791444,1,Del Monte Dr and San Pablo Ave,17/BayView - Richmond Parkway Transit Center
2,791567,2,Del Monte Dr and Highlands Rd,17/BayView - Richmond Parkway Transit Center
2,791445,3,Broadmore Ave and Cypress Ave,17/BayView - Richmond Parkway Transit Center
2,791568,4,Cypress Ave and Meadowlark St,17/BayView - Richmond Parkway Transit Center
2,791569,5,Cypress Ave and Del Monte Dr,17/BayView - Richmond Parkway Transit Center
2,791570,6,Pinole Shores Rd and Del Monte Dr,17/BayView - Richmond Parkway Transit Center
2,791623,7,Pinole Shores Dr and San Pablo Ave,17/BayView - Richmond Parkway Transit Center
2,791571,8,San Pablo Ave and Meadow Ave,"17/BayView - Richmond Parkway Transit Center, C3/Hercules Transit Center - Pinole - Contra Costa College, JL/Hercules Transit Center - Pinole - Richmond - BART, JR/Hercules Transit Center - Pinole - Richmond - BART"
2,791446,9,Sunnyview Dr and San Pablo Ave,17/BayView - Richmond Parkway Transit Center
2,791572,10,Marlesta Rd and McDonald Dr,17/BayView - Richmond Parkway Transit Center
2,791565,11,Marlesta Rd and Appian Way - SW Corner,17/BayView - Richmond Parkway Transit Center
2,791447,12,Appian Way - Pinole Middle School,17/BayView - Richmond Parkway Transit Center
2,791442,13,Fitzgerald Dr - Sizzler,"16/Pinole Valley - Old Town Pinole - Richmond Parkway Transit Center, 17/BayView - Richmond Parkway Transit Center, 19/Hercules - Pinole - Richmond Parkway Transit Center - Hilltop Mall, JPX/Hercules Transit Center - El Cerrito del Norte BART"
2,791496,14,Fitzgerald Dr - FedEx,"16/Pinole Valley - Old Town Pinole - Richmond Parkway Transit Center, 17/BayView - Richmond Parkway Transit Center, 19/Hercules - Pinole - Richmond Parkway Transit Center - Hilltop Mall, JPX/Hercules Transit Center - El Cerrito del Norte BART"
2,791497,15,Fitzgerald Dr - Applebees,"16/Pinole Valley - Old Town Pinole - Richmond Parkway Transit Center, 17/BayView - Richmond Parkway Transit Center, 19/Hercules - Pinole - Richmond Parkway Transit Center - Hilltop Mall, JPX/Hercules Transit Center - El Cerrito del Norte BART"
2,791648,16,Richmond Parkway Transit Center,"16/Pinole Valley - Old Town Pinole - Richmond Parkway Transit Center, 17/BayView - Richmond Parkway Transit Center, 18/Tara Hills - Richmond Parkway Transit Center - Hilltop Mall, JPX/Hercules Transit Center - El Cerrito del Norte BART, JR/Hercules Transit Center - Pinole - Richmond - BART"
3,791638,1,Hercules Transit Center,"10/Gems and Birds, 11/Crockett - Rodeo - Hercules, 12/Trees and Flowers, 15/Rodeo - Hercules (Viewpointe/North Shore Business Park), 19/Hercules - Pinole - Richmond Parkway Transit Center - Hilltop Mall, 30Z/Hercules Transit Center - Martinez, C3/Hercules Transit Center - Pinole - Contra Costa College, JL/Hercules Transit Center - Pinole - Richmond - BART, JPX/Hercules Transit Center - El Cerrito del Norte BART, JR/Hercules Transit Center - Pinole - Richmond - BART, JX/Hercules Transit Center - El Cerrito del Norte BART, Lynx/Rodeo/Hercules/San Francisco Transbay Terminal"
3,791581,2,Willow Ave and Viewpointe Blvd - Northbound,"11/Crockett - Rodeo - Hercules, 15/Rodeo - Hercules (Viewpointe/North Shore Business Park)"
3,791465,3,Willow Ave and I-80 - Northbound,"11/Crockett - Rodeo - Hercules, 15/Rodeo - Hercules (Viewpointe/North Shore Business Park), Lynx/Rodeo/Hercules/San Francisco Transbay Terminal"
3,791463,4,Parker Ave and 6th St - Northbound,11/Crockett - Rodeo - Hercules
3,791639,5,Parker Ave and 4th St - Northbound,11/Crockett - Rodeo - Hercules
3,791503,6,2nd St and Parker Ave,11/Crockett - Rodeo - Hercules
3,791640,7,San Pablo Ave and California St - Northbound,11/Crockett - Rodeo - Hercules
3,791505,8,Tosco Refinery - Northbound,11/Crockett - Rodeo - Hercules
3,791506,9,San Pablo Ave and Selby Rd,11/Crockett - Rodeo - Hercules
3,791507,10,San Pablo Ave and Merchant St - Eastbound,11/Crockett - Rodeo - Hercules
3,791647,11,2nd St and Wanda St,11/Crockett - Rodeo - Hercules
3,791508,12,Loring Ave and Rolph Ave,11/Crockett - Rodeo - Hercules
3,791641,13,John Swett High School,11/Crockett - Rodeo - Hercules
4,791641,1,John Swett High School,11/Crockett - Rodeo - Hercules
4,791642,2,Pomona St and Port St,11/Crockett - Rodeo - Hercules
4,791509,3,San Pablo Ave and Merchant St - Westbound,11/Crockett - Rodeo - Hercules
4,791510,4,San Pablo Ave and A St - Southbound ,11/Crockett - Rodeo - Hercules
4,791511,5,Tosco Refinery - Parking Lot Side,11/Crockett - Rodeo - Hercules
4,791643,6,San Pablo Ave and California St - Southbound,11/Crockett - Rodeo - Hercules
4,791512,7,Parker Ave and Pacific Ave,11/Crockett - Rodeo - Hercules
4,791644,8,386 Parker Ave,11/Crockett - Rodeo - Hercules
4,791645,9,586 Parker Ave,11/Crockett - Rodeo - Hercules
4,791622,10,San Pablo Ave and Victoria Crescent - Northbound,"11/Crockett - Rodeo - Hercules, 15/Rodeo - Hercules (Viewpointe/North Shore Business Park), Lynx/Rodeo/Hercules/San Francisco Transbay Terminal"
4,791513,11,San Pablo Ave and Linus Pauling,11/Crockett - Rodeo - Hercules
4,791638,12,Hercules Transit Center,"10/Gems and Birds, 11/Crockett - Rodeo - Hercules, 12/Trees and Flowers, 15/Rodeo - Hercules (Viewpointe/North Shore Business Park), 19/Hercules - Pinole - Richmond Parkway Transit Center - Hilltop Mall, 30Z/Hercules Transit Center - Martinez, C3/Hercules Transit Center - Pinole - Contra Costa College, JL/Hercules Transit Center - Pinole - Richmond - BART, JPX/Hercules Transit Center - El Cerrito del Norte BART, JR/Hercules Transit Center - Pinole - Richmond - BART, JX/Hercules Transit Center - El Cerrito del Norte BART, Lynx/Rodeo/Hercules/San Francisco Transbay Terminal"
5,791638,1,Hercules Transit Center,"10/Gems and Birds, 11/Crockett - Rodeo - Hercules, 12/Trees and Flowers, 15/Rodeo - Hercules (Viewpointe/North Shore Business Park), 19/Hercules - Pinole - Richmond Parkway Transit Center - Hilltop Mall, 30Z/Hercules Transit Center - Martinez, C3/Hercules Transit Center - Pinole - Contra Costa College, JL/Hercules Transit Center - Pinole - Richmond - BART, JPX/Hercules Transit Center - El Cerrito del Norte BART, JR/Hercules Transit Center - Pinole - Richmond - BART, JX/Hercules Transit Center - El Cerrito del Norte BART, Lynx/Rodeo/Hercules/San Francisco Transbay Terminal"
5,791581,2,Willow Ave and Viewpointe Blvd - Northbound,"11/Crockett - Rodeo - Hercules, 15/Rodeo - Hercules (Viewpointe/North Shore Business Park)"
5,791465,3,Willow Ave and I-80 - Northbound,"11/Crockett - Rodeo - Hercules, 15/Rodeo - Hercules (Viewpointe/North Shore Business Park), Lynx/Rodeo/Hercules/San Francisco Transbay Terminal"
5,791463,4,Parker Ave and 6th St - Northbound,11/Crockett - Rodeo - Hercules
5,791639,5,Parker Ave and 4th St - Northbound,11/Crockett - Rodeo - Hercules
5,791503,6,2nd St and Parker Ave,11/Crockett - Rodeo - Hercules
5,791640,7,San Pablo Ave and California St - Northbound,11/Crockett - Rodeo - Hercules
5,791505,8,Tosco Refinery - Northbound,11/Crockett - Rodeo - Hercules
5,791506,9,San Pablo Ave and Selby Rd,11/Crockett - Rodeo - Hercules
5,791507,10,San Pablo Ave and Merchant St - Eastbound,11/Crockett - Rodeo - Hercules
5,791647,11,2nd St and Wanda St,11/Crockett - Rodeo - Hercules
5,791508,12,Loring Ave and Rolph Ave,11/Crockett - Rodeo - Hercules
5,791641,13,John Swett High School,11/Crockett - Rodeo - Hercules
6,791641,1,John Swett High School,11/Crockett - Rodeo - Hercules
6,791642,2,Pomona St and Port St,11/Crockett - Rodeo - Hercules
6,791509,3,San Pablo Ave and Merchant St - Westbound,11/Crockett - Rodeo - Hercules
6,791510,4,San Pablo Ave and A St - Southbound ,11/Crockett - Rodeo - Hercules
6,791511,5,Tosco Refinery - Parking Lot Side,11/Crockett - Rodeo - Hercules
6,791643,6,San Pablo Ave and California St - Southbound,11/Crockett - Rodeo - Hercules
6,791512,7,Parker Ave and Pacific Ave,11/Crockett - Rodeo - Hercules
6,791644,8,386 Parker Ave,11/Crockett - Rodeo - Hercules
6,791645,9,586 Parker Ave,11/Crockett - Rodeo - Hercules
6,791622,10,San Pablo Ave and Victoria Crescent - Northbound,"11/Crockett - Rodeo - Hercules, 15/Rodeo - Hercules (Viewpointe/North Shore Business Park), Lynx/Rodeo/Hercules/San Francisco Transbay Terminal"
6,791513,11,San Pablo Ave and Linus Pauling,11/Crockett - Rodeo - Hercules
6,791638,12,Hercules Transit Center,"10/Gems and Birds, 11/Crockett - Rodeo - Hercules, 12/Trees and Flowers, 15/Rodeo - Hercules (Viewpointe/North Shore Business Park), 19/Hercules - Pinole - Richmond Parkway Transit Center - Hilltop Mall, 30Z/Hercules Transit Center - Martinez, C3/Hercules Transit Center - Pinole - Contra Costa College, JL/Hercules Transit Center - Pinole - Richmond - BART, JPX/Hercules Transit Center - El Cerrito del Norte BART, JR/Hercules Transit Center - Pinole - Richmond - BART, JX/Hercules Transit Center - El Cerrito del Norte BART, Lynx/Rodeo/Hercules/San Francisco Transbay Terminal"
7,791638,1,Hercules Transit Center,"10/Gems and Birds, 11/Crockett - Rodeo - Hercules, 12/Trees and Flowers, 15/Rodeo - Hercules (Viewpointe/North Shore Business Park), 19/Hercules - Pinole - Richmond Parkway Transit Center - Hilltop Mall, 30Z/Hercules Transit Center - Martinez, C3/Hercules Transit Center - Pinole - Contra Costa College, JL/Hercules Transit Center - Pinole - Richmond - BART, JPX/Hercules Transit Center - El Cerrito del Norte BART, JR/Hercules Transit Center - Pinole - Richmond - BART, JX/Hercules Transit Center - El Cerrito del Norte BART, Lynx/Rodeo/Hercules/San Francisco Transbay Terminal"
7,791544,2,Turquiose Dr and Sycamore Ave,10/Gems and Birds
7,791545,3,Turquiose Dr and Crystal Circle,10/Gems and Birds
7,791481,4,Turquiose Dr and Cinnabar Ave,10/Gems and Birds
7,791546,5,Cinnabar Way and Obsidan Way,10/Gems and Birds
7,791547,6,Obsidian Way and Peridot Court,10/Gems and Birds
7,791548,7,Turquiose Dr and Obsidan Way,10/Gems and Birds
7,791482,8,Turquiose Dr and Jade Ct,10/Gems and Birds
7,791549,9,Turquiose Dr at Reservoir,10/Gems and Birds
7,791483,10,Turquiose Dr and Diamond Ct,10/Gems and Birds
7,791550,11,Pheasant Dr and Malachite Court,10/Gems and Birds
7,791484,12,Pheasant Dr and Tanager Way,10/Gems and Birds
7,791551,13,Tanager Way and Meadowlark Way,10/Gems and Birds
7,791552,14,Sparrow Dr and Starling Ave,10/Gems and Birds
7,791420,15,Falcon Way and Sparrow Dr,10/Gems and Birds
7,791553,16,Falcon Way and Finch Ct,10/Gems and Birds
7,791554,17,Falcon Way and Wren Ct,10/Gems and Birds
7,791555,18,454 Falcon Way,10/Gems and Birds
7,791556,19,Falcon Way and Refugio Valley,10/Gems and Birds
7,791557,20,Refugio Valley - Community Center,10/Gems and Birds
7,791558,21,Refugio Valley - Swim Center,10/Gems and Birds
7,791421,22,Refugio Valley and Country Run,10/Gems and Birds
7,791485,23,Refugio Valley Park,10/Gems and Birds
7,791638,24,Hercules Transit Center,"10/Gems and Birds, 11/Crockett - Rodeo - Hercules, 12/Trees and Flowers, 15/Rodeo - Hercules (Viewpointe/North Shore Business Park), 19/Hercules - Pinole - Richmond Parkway Transit Center - Hilltop Mall, 30Z/Hercules Transit Center - Martinez, C3/Hercules Transit Center - Pinole - Contra Costa College, JL/Hercules Transit Center - Pinole - Richmond - BART, JPX/Hercules Transit Center - El Cerrito del Norte BART, JR/Hercules Transit Center - Pinole - Richmond - BART, JX/Hercules Transit Center - El Cerrito del Norte BART, Lynx/Rodeo/Hercules/San Francisco Transbay Terminal"
8,791480,1,Hercules Middle and High School,"10/Gems and Birds, 12/Trees and Flowers, JR/Hercules Transit Center - Pinole - Richmond - BART"
8,791481,2,Turquiose Dr and Cinnabar Ave,10/Gems and Birds
8,791546,3,Cinnabar Way and Obsidan Way,10/Gems and Birds
8,791547,4,Obsidian Way and Peridot Court,10/Gems and Birds
8,791548,5,Turquiose Dr and Obsidan Way,10/Gems and Birds
8,791482,6,Turquiose Dr and Jade Ct,10/Gems and Birds
8,791549,7,Turquiose Dr at Reservoir,10/Gems and Birds
8,791483,8,Turquiose Dr and Diamond Ct,10/Gems and Birds
8,791550,9,Pheasant Dr and Malachite Court,10/Gems and Birds
8,791484,10,Pheasant Dr and Tanager Way,10/Gems and Birds
8,791551,11,Tanager Way and Meadowlark Way,10/Gems and Birds
8,791552,12,Sparrow Dr and Starling Ave,10/Gems and Birds
8,791420,13,Falcon Way and Sparrow Dr,10/Gems and Birds
8,791553,14,Falcon Way and Finch Ct,10/Gems and Birds
8,791554,15,Falcon Way and Wren Ct,10/Gems and Birds
8,791555,16,454 Falcon Way,10/Gems and Birds
8,791556,17,Falcon Way and Refugio Valley,10/Gems and Birds
8,791557,18,Refugio Valley - Community Center,10/Gems and Birds
8,791558,19,Refugio Valley - Swim Center,10/Gems and Birds
8,791421,20,Refugio Valley and Country Run,10/Gems and Birds
8,791485,21,Refugio Valley Park,10/Gems and Birds
8,791638,22,Hercules Transit Center,"10/Gems and Birds, 11/Crockett - Rodeo - Hercules, 12/Trees and Flowers, 15/Rodeo - Hercules (Viewpointe/North Shore Business Park), 19/Hercules - Pinole - Richmond Parkway Transit Center - Hilltop Mall, 30Z/Hercules Transit Center - Martinez, C3/Hercules Transit Center - Pinole - Contra Costa College, JL/Hercules Transit Center - Pinole - Richmond - BART, JPX/Hercules Transit Center - El Cerrito del Norte BART, JR/Hercules Transit Center - Pinole - Richmond - BART, JX/Hercules Transit Center - El Cerrito del Norte BART, Lynx/Rodeo/Hercules/San Francisco Transbay Terminal"
9,791480,1,Hercules Middle and High School,"10/Gems and Birds, 12/Trees and Flowers, JR/Hercules Transit Center - Pinole - Richmond - BART"
9,791481,2,Turquiose Dr and Cinnabar Ave,10/Gems and Birds
9,791546,3,Cinnabar Way and Obsidan Way,10/Gems and Birds
9,791547,4,Obsidian Way and Peridot Court,10/Gems and Birds
9,791548,5,Turquiose Dr and Obsidan Way,10/Gems and Birds
9,791482,6,Turquiose Dr and Jade Ct,10/Gems and Birds
9,791549,7,Turquiose Dr at Reservoir,10/Gems and Birds
9,791483,8,Turquiose Dr and Diamond Ct,10/Gems and Birds
9,791550,9,Pheasant Dr and Malachite Court,10/Gems and Birds
9,791484,10,Pheasant Dr and Tanager Way,10/Gems and Birds
9,791551,11,Tanager Way and Meadowlark Way,10/Gems and Birds
9,791552,12,Sparrow Dr and Starling Ave,10/Gems and Birds
9,791420,13,Falcon Way and Sparrow Dr,10/Gems and Birds
9,791553,14,Falcon Way and Finch Ct,10/Gems and Birds
9,791554,15,Falcon Way and Wren Ct,10/Gems and Birds
9,791555,16,454 Falcon Way,10/Gems and Birds
9,791556,17,Falcon Way and Refugio Valley,10/Gems and Birds
9,791557,18,Refugio Valley - Community Center,10/Gems and Birds
9,791558,19,Refugio Valley - Swim Center,10/Gems and Birds
9,791421,20,Refugio Valley and Country Run,10/Gems and Birds
9,791485,21,Refugio Valley Park,10/Gems and Birds
9,791638,22,Hercules Transit Center,"10/Gems and Birds, 11/Crockett - Rodeo - Hercules, 12/Trees and Flowers, 15/Rodeo - Hercules (Viewpointe/North Shore Business Park), 19/Hercules - Pinole - Richmond Parkway Transit Center - Hilltop Mall, 30Z/Hercules Transit Center - Martinez, C3/Hercules Transit Center - Pinole - Contra Costa College, JL/Hercules Transit Center - Pinole - Richmond - BART, JPX/Hercules Transit Center - El Cerrito del Norte BART, JR/Hercules Transit Center - Pinole - Richmond - BART, JX/Hercules Transit Center - El Cerrito del Norte BART, Lynx/Rodeo/Hercules/San Francisco Transbay Terminal"
10,791449,1,Hilltop Mall - Westbound,"18/Tara Hills - Richmond Parkway Transit Center - Hilltop Mall, 19/Hercules - Pinole - Richmond Parkway Transit Center - Hilltop Mall, JL/Hercules Transit Center - Pinole - Richmond - BART, JR/Hercules Transit Center - Pinole - Richmond - BART"
10,791498,2,Hilltop Dr and Robert Miller Dr,"19/Hercules - Pinole - Richmond Parkway Transit Center - Hilltop Mall, JL/Hercules Transit Center - Pinole - Richmond - BART"
10,791499,3,Hilltop Dr and Shane Dr,"19/Hercules - Pinole - Richmond Parkway Transit Center - Hilltop Mall, JL/Hercules Transit Center - Pinole - Richmond - BART"
10,791500,4,Hilltop Dr and Garrity Way,"19/Hercules - Pinole - Richmond Parkway Transit Center - Hilltop Mall, JL/Hercules Transit Center - Pinole - Richmond - BART"
10,791627,5,Blume Dr and Auto Plaza - Northbound,"18/Tara Hills - Richmond Parkway Transit Center - Hilltop Mall, 19/Hercules - Pinole - Richmond Parkway Transit Center - Hilltop Mall, JL/Hercules Transit Center - Pinole - Richmond - BART, JR/Hercules Transit Center - Pinole - Richmond - BART"
10,791527,6,Fitzgerald Dr - Target,"16/Pinole Valley - Old Town Pinole - Richmond Parkway Transit Center, 17/BayView - Richmond Parkway Transit Center, 19/Hercules - Pinole - Richmond Parkway Transit Center - Hilltop Mall"
10,791427,7,Fitzgerald Dr - Best Buy,"16/Pinole Valley - Old Town Pinole - Richmond Parkway Transit Center, 17/BayView - Richmond Parkway Transit Center, 19/Hercules - Pinole - Richmond Parkway Transit Center - Hilltop Mall, JPX/Hercules Transit Center - El Cerrito del Norte BART"
10,791428,8,Fitzgerald Dr - Starbucks,"16/Pinole Valley - Old Town Pinole - Richmond Parkway Transit Center, 17/BayView - Richmond Parkway Transit Center, 19/Hercules - Pinole - Richmond Parkway Transit Center - Hilltop Mall, JPX/Hercules Transit Center - El Cerrito del Norte BART"
10,791437,9,Pinole Valley Rd and Henry Ave - Northbound,"16/Pinole Valley - Old Town Pinole - Richmond Parkway Transit Center, 19/Hercules - Pinole - Richmond Parkway Transit Center - Hilltop Mall, JL/Hercules Transit Center - Pinole - Richmond - BART, JPX/Hercules Transit Center - El Cerrito del Norte BART, JR/Hercules Transit Center - Pinole - Richmond - BART"
10,791502,10,Tennant Ave and Peach St - Northbound,"16/Pinole Valley - Old Town Pinole - Richmond Parkway Transit Center, 19/Hercules - Pinole - Richmond Parkway Transit Center - Hilltop Mall, JL/Hercules Transit Center - Pinole - Richmond - BART, JPX/Hercules Transit Center - El Cerrito del Norte BART, JR/Hercules Transit Center - Pinole - Richmond - BART"
10,791462,11,San Pablo Ave and John St - Northbound,"19/Hercules - Pinole - Richmond Parkway Transit Center - Hilltop Mall, C3/Hercules Transit Center - Pinole - Contra Costa College, JL/Hercules Transit Center - Pinole - Richmond - BART, JPX/Hercules Transit Center - El Cerrito del Norte BART, JR/Hercules Transit Center - Pinole - Richmond - BART"
10,791473,12,San Pablo Ave and Hercules Ave - Northbound,"19/Hercules - Pinole - Richmond Parkway Transit Center - Hilltop Mall, C3/Hercules Transit Center - Pinole - Contra Costa College, JL/Hercules Transit Center - Pinole - Richmond - BART, JPX/Hercules Transit Center - El Cerrito del Norte BART, JR/Hercules Transit Center - Pinole - Richmond - BART"
10,791638,13,Hercules Transit Center,"10/Gems and Birds, 11/Crockett - Rodeo - Hercules, 12/Trees and Flowers, 15/Rodeo - Hercules (Viewpointe/North Shore Business Park), 19/Hercules - Pinole - Richmond Parkway Transit Center - Hilltop Mall, 30Z/Hercules Transit Center - Martinez, C3/Hercules Transit Center - Pinole - Contra Costa College, JL/Hercules Transit Center - Pinole - Richmond - BART, JPX/Hercules Transit Center - El Cerrito del Norte BART, JR/Hercules Transit Center - Pinole - Richmond - BART, JX/Hercules Transit Center - El Cerrito del Norte BART, Lynx/Rodeo/Hercules/San Francisco Transbay Terminal"
11,791638,1,Hercules Transit Center,"10/Gems and Birds, 11/Crockett - Rodeo - Hercules, 12/Trees and Flowers, 15/Rodeo - Hercules (Viewpointe/North Shore Business Park), 19/Hercules - Pinole - Richmond Parkway Transit Center - Hilltop Mall, 30Z/Hercules Transit Center - Martinez, C3/Hercules Transit Center - Pinole - Contra Costa College, JL/Hercules Transit Center - Pinole - Richmond - BART, JPX/Hercules Transit Center - El Cerrito del Norte BART, JR/Hercules Transit Center - Pinole - Richmond - BART, JX/Hercules Transit Center - El Cerrito del Norte BART, Lynx/Rodeo/Hercules/San Francisco Transbay Terminal"
11,844542,2,San Pablo and Hercules - Southbound,"19/Hercules - Pinole - Richmond Parkway Transit Center - Hilltop Mall, C3/Hercules Transit Center - Pinole - Contra Costa College, JL/Hercules Transit Center - Pinole - Richmond - BART, JPX/Hercules Transit Center - El Cerrito del Norte BART, JR/Hercules Transit Center - Pinole - Richmond - BART"
11,791451,3,San Pablo Ave and John St - Southbound,"19/Hercules - Pinole - Richmond Parkway Transit Center - Hilltop Mall, C3/Hercules Transit Center - Pinole - Contra Costa College, JL/Hercules Transit Center - Pinole - Richmond - BART, JPX/Hercules Transit Center - El Cerrito del Norte BART, JR/Hercules Transit Center - Pinole - Richmond - BART"
11,791494,4,Tennant Ave and Peach St - Southbound,"16/Pinole Valley - Old Town Pinole - Richmond Parkway Transit Center, 19/Hercules - Pinole - Richmond Parkway Transit Center - Hilltop Mall, JL/Hercules Transit Center - Pinole - Richmond - BART, JPX/Hercules Transit Center - El Cerrito del Norte BART"
11,2328345,5,Sprouts,"16/Pinole Valley - Old Town Pinole - Richmond Parkway Transit Center, 19/Hercules - Pinole - Richmond Parkway Transit Center - Hilltop Mall, JPX/Hercules Transit Center - El Cerrito del Norte BART"
11,791442,6,Fitzgerald Dr - Sizzler,"16/Pinole Valley - Old Town Pinole - Richmond Parkway Transit Center, 17/BayView - Richmond Parkway Transit Center, 19/Hercules - Pinole - Richmond Parkway Transit Center - Hilltop Mall, JPX/Hercules Transit Center - El Cerrito del Norte BART"
11,791496,7,Fitzgerald Dr - FedEx,"16/Pinole Valley - Old Town Pinole - Richmond Parkway Transit Center, 17/BayView - Richmond Parkway Transit Center, 19/Hercules - Pinole - Richmond Parkway Transit Center - Hilltop Mall, JPX/Hercules Transit Center - El Cerrito del Norte BART"
11,791497,8,Fitzgerald Dr - Applebees,"16/Pinole Valley - Old Town Pinole - Richmond Parkway Transit Center, 17/BayView - Richmond Parkway Transit Center, 19/Hercules - Pinole - Richmond Parkway Transit Center - Hilltop Mall, JPX/Hercules Transit Center - El Cerrito del Norte BART"
11,791501,9,Blume Dr and Auto Plaza - Southbound,"18/Tara Hills - Richmond Parkway Transit Center - Hilltop Mall, 19/Hercules - Pinole - Richmond Parkway Transit Center - Hilltop Mall, JL/Hercules Transit Center - Pinole - Richmond - BART, JR/Hercules Transit Center - Pinole - Richmond - BART"
11,791559,10,Blume Dr and Klose Way,"18/Tara Hills - Richmond Parkway Transit Center - Hilltop Mall, 19/Hercules - Pinole - Richmond Parkway Transit Center - Hilltop Mall, JL/Hercules Transit Center - Pinole - Richmond - BART, JR/Hercules Transit Center - Pinole - Richmond - BART"
11,791449,11,Hilltop Mall - Westbound,"18/Tara Hills - Richmond Parkway Transit Center - Hilltop Mall, 19/Hercules - Pinole - Richmond Parkway Transit Center - Hilltop Mall, JL/Hercules Transit Center - Pinole - Richmond - BART, JR/Hercules Transit Center - Pinole - Richmond - BART"
12,791469,1,El Cerrito Del Norte BART,"JL/Hercules Transit Center - Pinole - Richmond - BART, JPX/Hercules Transit Center - El Cerrito del Norte BART, JR/Hercules Transit Center - Pinole - Richmond - BART, JX/Hercules Transit Center - El Cerrito del Norte BART"
12,791638,2,Hercules Transit Center,"10/Gems and Birds, 11/Crockett - Rodeo - Hercules, 12/Trees and Flowers, 15/Rodeo - Hercules (Viewpointe/North Shore Business Park), 19/Hercules - Pinole - Richmond Parkway Transit Center - Hilltop Mall, 30Z/Hercules Transit Center - Martinez, C3/Hercules Transit Center - Pinole - Contra Costa College, JL/Hercules Transit Center - Pinole - Richmond - BART, JPX/Hercules Transit Center - El Cerrito del Norte BART, JR/Hercules Transit Center - Pinole - Richmond - BART, JX/Hercules Transit Center - El Cerrito del Norte BART, Lynx/Rodeo/Hercules/San Francisco Transbay Terminal"
13,791638,1,Hercules Transit Center,"10/Gems and Birds, 11/Crockett - Rodeo - Hercules, 12/Trees and Flowers, 15/Rodeo - Hercules (Viewpointe/North Shore Business Park), 19/Hercules - Pinole - Richmond Parkway Transit Center - Hilltop Mall, 30Z/Hercules Transit Center - Martinez, C3/Hercules Transit Center - Pinole - Contra Costa College, JL/Hercules Transit Center - Pinole - Richmond - BART, JPX/Hercules Transit Center - El Cerrito del Norte BART, JR/Hercules Transit Center - Pinole - Richmond - BART, JX/Hercules Transit Center - El Cerrito del Norte BART, Lynx/Rodeo/Hercules/San Francisco Transbay Terminal"
13,791469,2,El Cerrito Del Norte BART,"JL/Hercules Transit Center - Pinole - Richmond - BART, JPX/Hercules Transit Center - El Cerrito del Norte BART, JR/Hercules Transit Center - Pinole - Richmond - BART, JX/Hercules Transit Center - El Cerrito del Norte BART"
14,791469,1,El Cerrito Del Norte BART,"JL/Hercules Transit Center - Pinole - Richmond - BART, JPX/Hercules Transit Center - El Cerrito del Norte BART, JR/Hercules Transit Center - Pinole - Richmond - BART, JX/Hercules Transit Center - El Cerrito del Norte BART"
14,791437,2,Pinole Valley Rd and Henry Ave - Northbound,"16/Pinole Valley - Old Town Pinole - Richmond Parkway Transit Center, 19/Hercules - Pinole - Richmond Parkway Transit Center - Hilltop Mall, JL/Hercules Transit Center - Pinole - Richmond - BART, JPX/Hercules Transit Center - El Cerrito del Norte BART, JR/Hercules Transit Center - Pinole - Richmond - BART"
14,791502,3,Tennant Ave and Peach St - Northbound,"16/Pinole Valley - Old Town Pinole - Richmond Parkway Transit Center, 19/Hercules - Pinole - Richmond Parkway Transit Center - Hilltop Mall, JL/Hercules Transit Center - Pinole - Richmond - BART, JPX/Hercules Transit Center - El Cerrito del Norte BART, JR/Hercules Transit Center - Pinole - Richmond - BART"
14,791462,4,San Pablo Ave and John St - Northbound,"19/Hercules - Pinole - Richmond Parkway Transit Center - Hilltop Mall, C3/Hercules Transit Center - Pinole - Contra Costa College, JL/Hercules Transit Center - Pinole - Richmond - BART, JPX/Hercules Transit Center - El Cerrito del Norte BART, JR/Hercules Transit Center - Pinole - Richmond - BART"
14,791473,5,San Pablo Ave and Hercules Ave - Northbound,"19/Hercules - Pinole - Richmond Parkway Transit Center - Hilltop Mall, C3/Hercules Transit Center - Pinole - Contra Costa College, JL/Hercules Transit Center - Pinole - Richmond - BART, JPX/Hercules Transit Center - El Cerrito del Norte BART, JR/Hercules Transit Center - Pinole - Richmond - BART"
14,836604,6,San Pablo Ave and Sycamore,"C3/Hercules Transit Center - Pinole - Contra Costa College, JL/Hercules Transit Center - Pinole - Richmond - BART, JPX/Hercules Transit Center - El Cerrito del Norte BART, JR/Hercules Transit Center - Pinole - Richmond - BART"
14,791638,7,Hercules Transit Center,"10/Gems and Birds, 11/Crockett - Rodeo - Hercules, 12/Trees and Flowers, 15/Rodeo - Hercules (Viewpointe/North Shore Business Park), 19/Hercules - Pinole - Richmond Parkway Transit Center - Hilltop Mall, 30Z/Hercules Transit Center - Martinez, C3/Hercules Transit Center - Pinole - Contra Costa College, JL/Hercules Transit Center - Pinole - Richmond - BART, JPX/Hercules Transit Center - El Cerrito del Norte BART, JR/Hercules Transit Center - Pinole - Richmond - BART, JX/Hercules Transit Center - El Cerrito del Norte BART, Lynx/Rodeo/Hercules/San Francisco Transbay Terminal"
15,791638,1,Hercules Transit Center,"10/Gems and Birds, 11/Crockett - Rodeo - Hercules, 12/Trees and Flowers, 15/Rodeo - Hercules (Viewpointe/North Shore Business Park), 19/Hercules - Pinole - Richmond Parkway Transit Center - Hilltop Mall, 30Z/Hercules Transit Center - Martinez, C3/Hercules Transit Center - Pinole - Contra Costa College, JL/Hercules Transit Center - Pinole - Richmond - BART, JPX/Hercules Transit Center - El Cerrito del Norte BART, JR/Hercules Transit Center - Pinole - Richmond - BART, JX/Hercules Transit Center - El Cerrito del Norte BART, Lynx/Rodeo/Hercules/San Francisco Transbay Terminal"
15,848767,2,San Pablo Ave and Tsushima ave,"C3/Hercules Transit Center - Pinole - Contra Costa College, JL/Hercules Transit Center - Pinole - Richmond - BART, JPX/Hercules Transit Center - El Cerrito del Norte BART, JR/Hercules Transit Center - Pinole - Richmond - BART"
15,844542,3,San Pablo and Hercules - Southbound,"19/Hercules - Pinole - Richmond Parkway Transit Center - Hilltop Mall, C3/Hercules Transit Center - Pinole - Contra Costa College, JL/Hercules Transit Center - Pinole - Richmond - BART, JPX/Hercules Transit Center - El Cerrito del Norte BART, JR/Hercules Transit Center - Pinole - Richmond - BART"
15,791451,4,San Pablo Ave and John St - Southbound,"19/Hercules - Pinole - Richmond Parkway Transit Center - Hilltop Mall, C3/Hercules Transit Center - Pinole - Contra Costa College, JL/Hercules Transit Center - Pinole - Richmond - BART, JPX/Hercules Transit Center - El Cerrito del Norte BART, JR/Hercules Transit Center - Pinole - Richmond - BART"
15,791494,5,Tennant Ave and Peach St - Southbound,"16/Pinole Valley - Old Town Pinole - Richmond Parkway Transit Center, 19/Hercules - Pinole - Richmond Parkway Transit Center - Hilltop Mall, JL/Hercules Transit Center - Pinole - Richmond - BART, JPX/Hercules Transit Center - El Cerrito del Norte BART"
15,2328345,6,Sprouts,"16/Pinole Valley - Old Town Pinole - Richmond Parkway Transit Center, 19/Hercules - Pinole - Richmond Parkway Transit Center - Hilltop Mall, JPX/Hercules Transit Center - El Cerrito del Norte BART"
15,791469,7,El Cerrito Del Norte BART,"JL/Hercules Transit Center - Pinole - Richmond - BART, JPX/Hercules Transit Center - El Cerrito del Norte BART, JR/Hercules Transit Center - Pinole - Richmond - BART, JX/Hercules Transit Center - El Cerrito del Norte BART"
16,791638,1,Hercules Transit Center,"10/Gems and Birds, 11/Crockett - Rodeo - Hercules, 12/Trees and Flowers, 15/Rodeo - Hercules (Viewpointe/North Shore Business Park), 19/Hercules - Pinole - Richmond Parkway Transit Center - Hilltop Mall, 30Z/Hercules Transit Center - Martinez, C3/Hercules Transit Center - Pinole - Contra Costa College, JL/Hercules Transit Center - Pinole - Richmond - BART, JPX/Hercules Transit Center - El Cerrito del Norte BART, JR/Hercules Transit Center - Pinole - Richmond - BART, JX/Hercules Transit Center - El Cerrito del Norte BART, Lynx/Rodeo/Hercules/San Francisco Transbay Terminal"
16,791598,2,Muir Road and Center Ave - Northbound,30Z/Hercules Transit Center - Martinez
16,791476,3,VA Medical Center,30Z/Hercules Transit Center - Martinez
16,791628,4,Muir Road and Center Ave - Southbound,30Z/Hercules Transit Center - Martinez
16,791602,5,Alhambra Ave and Walnut St - Northbound,30Z/Hercules Transit Center - Martinez
16,791603,6,Alhambra Ave and K St,30Z/Hercules Transit Center - Martinez
16,791604,7,Alhambra Ave and G St,30Z/Hercules Transit Center - Martinez
16,791477,8,Alhambra Ave and C Street - County Hospital,30Z/Hercules Transit Center - Martinez
16,791605,9,Alhambra Ave and Bertola St,30Z/Hercules Transit Center - Martinez
16,791629,10,Alhambra Ave and Jones St,30Z/Hercules Transit Center - Martinez
16,791606,11,Alhambra Ave and Main St,30Z/Hercules Transit Center - Martinez
16,791478,12,Court St and Marina Vista Ave,30Z/Hercules Transit Center - Martinez
16,791479,13,Martinez Amtrak Station ,30Z/Hercules Transit Center - Martinez
17,791479,1,Martinez Amtrak Station ,30Z/Hercules Transit Center - Martinez
17,791607,2,Berrellesa St and Jones St,30Z/Hercules Transit Center - Martinez
17,791608,3,2450 Alhambra Ave - Martinez Health Center,30Z/Hercules Transit Center - Martinez
17,791609,4,Alhambra Ave and F St,30Z/Hercules Transit Center - Martinez
17,791610,5,Alhambra Ave and J St,30Z/Hercules Transit Center - Martinez
17,791611,6,Alhambra Ave - Muir Lodge,30Z/Hercules Transit Center - Martinez
17,791634,7,Alhambra Ave and Walnut St - Southbound,30Z/Hercules Transit Center - Martinez
17,791638,8,Hercules Transit Center,"10/Gems and Birds, 11/Crockett - Rodeo - Hercules, 12/Trees and Flowers, 15/Rodeo - Hercules (Viewpointe/North Shore Business Park), 19/Hercules - Pinole - Richmond Parkway Transit Center - Hilltop Mall, 30Z/Hercules Transit Center - Martinez, C3/Hercules Transit Center - Pinole - Contra Costa College, JL/Hercules Transit Center - Pinole - Richmond - BART, JPX/Hercules Transit Center - El Cerrito del Norte BART, JR/Hercules Transit Center - Pinole - Richmond - BART, JX/Hercules Transit Center - El Cerrito del Norte BART, Lynx/Rodeo/Hercules/San Francisco Transbay Terminal"
18,791646,1,Contra Costa College - Campus Dr Turnaround,C3/Hercules Transit Center - Pinole - Contra Costa College
18,791518,2,San Pablo Ave and Kay Rd,"18/Tara Hills - Richmond Parkway Transit Center - Hilltop Mall, C3/Hercules Transit Center - Pinole - Contra Costa College, JL/Hercules Transit Center - Pinole - Richmond - BART, JR/Hercules Transit Center - Pinole - Richmond - BART"
18,791458,3,San Pablo Ave and Crestwood Dr - Northbound,"18/Tara Hills - Richmond Parkway Transit Center - Hilltop Mall, C3/Hercules Transit Center - Pinole - Contra Costa College, JL/Hercules Transit Center - Pinole - Richmond - BART, JR/Hercules Transit Center - Pinole - Richmond - BART"
18,791459,4,San Pablo Ave and Shamrock Dr - Northbound,"18/Tara Hills - Richmond Parkway Transit Center - Hilltop Mall, C3/Hercules Transit Center - Pinole - Contra Costa College, JL/Hercules Transit Center - Pinole - Richmond - BART, JR/Hercules Transit Center - Pinole - Richmond - BART"
18,791460,5,San Pablo Ave and Tara Hills Dr - Northbound,"18/Tara Hills - Richmond Parkway Transit Center - Hilltop Mall, C3/Hercules Transit Center - Pinole - Contra Costa College, JL/Hercules Transit Center - Pinole - Richmond - BART, JR/Hercules Transit Center - Pinole - Richmond - BART"
18,791471,6,San Pablo Ave and Belmont Way,"C3/Hercules Transit Center - Pinole - Contra Costa College, JL/Hercules Transit Center - Pinole - Richmond - BART, JR/Hercules Transit Center - Pinole - Richmond - BART"
18,791519,7,San Pablo Ave and Crestview Dr,"C3/Hercules Transit Center - Pinole - Contra Costa College, JL/Hercules Transit Center - Pinole - Richmond - BART, JR/Hercules Transit Center - Pinole - Richmond - BART"
18,791571,8,San Pablo Ave and Meadow Ave,"17/BayView - Richmond Parkway Transit Center, C3/Hercules Transit Center - Pinole - Contra Costa College, JL/Hercules Transit Center - Pinole - Richmond - BART, JR/Hercules Transit Center - Pinole - Richmond - BART"
18,791461,9,San Pablo Ave and Sunnyview Dr - Westbound,"C3/Hercules Transit Center - Pinole - Contra Costa College, JL/Hercules Transit Center - Pinole - Richmond - BART, JR/Hercules Transit Center - Pinole - Richmond - BART"
18,791520,10,San Pablo Ave and 4th Ave,"C3/Hercules Transit Center - Pinole - Contra Costa College, JL/Hercules Transit Center - Pinole - Richmond - BART, JR/Hercules Transit Center - Pinole - Richmond - BART"
18,791577,11,San Pablo Ave and Appian Way - Westbound,"16/Pinole Valley - Old Town Pinole - Richmond Parkway Transit Center, C3/Hercules Transit Center - Pinole - Contra Costa College, JL/Hercules Transit Center - Pinole - Richmond - BART, JR/Hercules Transit Center - Pinole - Richmond - BART"
18,791521,12,San Pablo Ave and Alverez Ave,"C3/Hercules Transit Center - Pinole - Contra Costa College, JL/Hercules Transit Center - Pinole - Richmond - BART, JR/Hercules Transit Center - Pinole - Richmond - BART"
18,791441,13,San Pablo and Oak Ridge Rd,"16/Pinole Valley - Old Town Pinole - Richmond Parkway Transit Center, C3/Hercules Transit Center - Pinole - Contra Costa College, JL/Hercules Transit Center - Pinole - Richmond - BART, JR/Hercules Transit Center - Pinole - Richmond - BART"
18,791462,14,San Pablo Ave and John St - Northbound,"19/Hercules - Pinole - Richmond Parkway Transit Center - Hilltop Mall, C3/Hercules Transit Center - Pinole - Contra Costa College, JL/Hercules Transit Center - Pinole - Richmond - BART, JPX/Hercules Transit Center - El Cerrito del Norte BART, JR/Hercules Transit Center - Pinole - Richmond - BART"
18,791473,15,San Pablo Ave and Hercules Ave - Northbound,"19/Hercules - Pinole - Richmond Parkway Transit Center - Hilltop Mall, C3/Hercules Transit Center - Pinole - Contra Costa College, JL/Hercules Transit Center - Pinole - Richmond - BART, JPX/Hercules Transit Center - El Cerrito del Norte BART, JR/Hercules Transit Center - Pinole - Richmond - BART"
18,836604,16,San Pablo Ave and Sycamore,"C3/Hercules Transit Center - Pinole - Contra Costa College, JL/Hercules Transit Center - Pinole - Richmond - BART, JPX/Hercules Transit Center - El Cerrito del Norte BART, JR/Hercules Transit Center - Pinole - Richmond - BART"
18,791638,17,Hercules Transit Center,"10/Gems and Birds, 11/Crockett - Rodeo - Hercules, 12/Trees and Flowers, 15/Rodeo - Hercules (Viewpointe/North Shore Business Park), 19/Hercules - Pinole - Richmond Parkway Transit Center - Hilltop Mall, 30Z/Hercules Transit Center - Martinez, C3/Hercules Transit Center - Pinole - Contra Costa College, JL/Hercules Transit Center - Pinole - Richmond - BART, JPX/Hercules Transit Center - El Cerrito del Norte BART, JR/Hercules Transit Center - Pinole - Richmond - BART, JX/Hercules Transit Center - El Cerrito del Norte BART, Lynx/Rodeo/Hercules/San Francisco Transbay Terminal"
19,791638,1,Hercules Transit Center,"10/Gems and Birds, 11/Crockett - Rodeo - Hercules, 12/Trees and Flowers, 15/Rodeo - Hercules (Viewpointe/North Shore Business Park), 19/Hercules - Pinole - Richmond Parkway Transit Center - Hilltop Mall, 30Z/Hercules Transit Center - Martinez, C3/Hercules Transit Center - Pinole - Contra Costa College, JL/Hercules Transit Center - Pinole - Richmond - BART, JPX/Hercules Transit Center - El Cerrito del Norte BART, JR/Hercules Transit Center - Pinole - Richmond - BART, JX/Hercules Transit Center - El Cerrito del Norte BART, Lynx/Rodeo/Hercules/San Francisco Transbay Terminal"
19,848767,2,San Pablo Ave and Tsushima ave,"C3/Hercules Transit Center - Pinole - Contra Costa College, JL/Hercules Transit Center - Pinole - Richmond - BART, JPX/Hercules Transit Center - El Cerrito del Norte BART, JR/Hercules Transit Center - Pinole - Richmond - BART"
19,844542,3,San Pablo and Hercules - Southbound,"19/Hercules - Pinole - Richmond Parkway Transit Center - Hilltop Mall, C3/Hercules Transit Center - Pinole - Contra Costa College, JL/Hercules Transit Center - Pinole - Richmond - BART, JPX/Hercules Transit Center - El Cerrito del Norte BART, JR/Hercules Transit Center - Pinole - Richmond - BART"
19,791451,4,San Pablo Ave and John St - Southbound,"19/Hercules - Pinole - Richmond Parkway Transit Center - Hilltop Mall, C3/Hercules Transit Center - Pinole - Contra Costa College, JL/Hercules Transit Center - Pinole - Richmond - BART, JPX/Hercules Transit Center - El Cerrito del Norte BART, JR/Hercules Transit Center - Pinole - Richmond - BART"
19,791438,5,San Pablo and Oak Ridge - Southbound,"16/Pinole Valley - Old Town Pinole - Richmond Parkway Transit Center, C3/Hercules Transit Center - Pinole - Contra Costa College, JL/Hercules Transit Center - Pinole - Richmond - BART, JR/Hercules Transit Center - Pinole - Richmond - BART"
19,791514,6,San Pablo Ave and Fern Ave,"16/Pinole Valley - Old Town Pinole - Richmond Parkway Transit Center, C3/Hercules Transit Center - Pinole - Contra Costa College, JL/Hercules Transit Center - Pinole - Richmond - BART, JR/Hercules Transit Center - Pinole - Richmond - BART"
19,791452,7,San Pablo Ave and Appian Way - Eastbound,"C3/Hercules Transit Center - Pinole - Contra Costa College, JL/Hercules Transit Center - Pinole - Richmond - BART, JR/Hercules Transit Center - Pinole - Richmond - BART"
19,791515,8,San Pablo Ave and Roble Ave,"C3/Hercules Transit Center - Pinole - Contra Costa College, JL/Hercules Transit Center - Pinole - Richmond - BART, JR/Hercules Transit Center - Pinole - Richmond - BART"
19,791453,9,San Pablo Ave and Sunnyview Dr - Eastbound,"17/BayView - Richmond Parkway Transit Center, C3/Hercules Transit Center - Pinole - Contra Costa College, JL/Hercules Transit Center - Pinole - Richmond - BART, JR/Hercules Transit Center - Pinole - Richmond - BART"
19,791516,10,San Pablo Ave - Sugar City Building Materials,"17/BayView - Richmond Parkway Transit Center, C3/Hercules Transit Center - Pinole - Contra Costa College, JL/Hercules Transit Center - Pinole - Richmond - BART, JR/Hercules Transit Center - Pinole - Richmond - BART"
19,791517,11,San Pablo Ave - Public Storage,"17/BayView - Richmond Parkway Transit Center, C3/Hercules Transit Center - Pinole - Contra Costa College, JL/Hercules Transit Center - Pinole - Richmond - BART, JR/Hercules Transit Center - Pinole - Richmond - BART"
19,791454,12,San Pablo Ave and Del Monte Dr,"C3/Hercules Transit Center - Pinole - Contra Costa College, JL/Hercules Transit Center - Pinole - Richmond - BART, JR/Hercules Transit Center - Pinole - Richmond - BART"
19,791455,13,San Pablo Ave and Tara Hills Dr - Southbound,"C3/Hercules Transit Center - Pinole - Contra Costa College, JL/Hercules Transit Center - Pinole - Richmond - BART, JR/Hercules Transit Center - Pinole - Richmond - BART"
19,791456,14,San Pablo Ave and Shamrock Dr - Southbound,"18/Tara Hills - Richmond Parkway Transit Center - Hilltop Mall, C3/Hercules Transit Center - Pinole - Contra Costa College, JL/Hercules Transit Center - Pinole - Richmond - BART, JR/Hercules Transit Center - Pinole - Richmond - BART"
19,791457,15,San Pablo Ave and Crestwood Dr - Southbound,"18/Tara Hills - Richmond Parkway Transit Center - Hilltop Mall, C3/Hercules Transit Center - Pinole - Contra Costa College, JL/Hercules Transit Center - Pinole - Richmond - BART, JR/Hercules Transit Center - Pinole - Richmond - BART"
19,791646,16,Contra Costa College - Campus Dr Turnaround,C3/Hercules Transit Center - Pinole - Contra Costa College
20,791469,1,El Cerrito Del Norte BART,"JL/Hercules Transit Center - Pinole - Richmond - BART, JPX/Hercules Transit Center - El Cerrito del Norte BART, JR/Hercules Transit Center - Pinole - Richmond - BART, JX/Hercules Transit Center - El Cerrito del Norte BART"
20,791501,2,Blume Dr and Auto Plaza - Southbound,"18/Tara Hills - Richmond Parkway Transit Center - Hilltop Mall, 19/Hercules - Pinole - Richmond Parkway Transit Center - Hilltop Mall, JL/Hercules Transit Center - Pinole - Richmond - BART, JR/Hercules Transit Center - Pinole - Richmond - BART"
20,791559,3,Blume Dr and Klose Way,"18/Tara Hills - Richmond Parkway Transit Center - Hilltop Mall, 19/Hercules - Pinole - Richmond Parkway Transit Center - Hilltop Mall, JL/Hercules Transit Center - Pinole - Richmond - BART, JR/Hercules Transit Center - Pinole - Richmond - BART"
20,791449,4,Hilltop Mall - Westbound,"18/Tara Hills - Richmond Parkway Transit Center - Hilltop Mall, 19/Hercules - Pinole - Richmond Parkway Transit Center - Hilltop Mall, JL/Hercules Transit Center - Pinole - Richmond - BART, JR/Hercules Transit Center - Pinole - Richmond - BART"
20,791498,5,Hilltop Dr and Robert Miller Dr,"19/Hercules - Pinole - Richmond Parkway Transit Center - Hilltop Mall, JL/Hercules Transit Center - Pinole - Richmond - BART"
20,791621,6,Hilltop Dr and Hillview Dr,"18/Tara Hills - Richmond Parkway Transit Center - Hilltop Mall, JL/Hercules Transit Center - Pinole - Richmond - BART"
20,791613,7,4050 Lakeside Ave,JL/Hercules Transit Center - Pinole - Richmond - BART
20,791470,8,Richmond Parkway and Lakeside Dr - Eastbound,"JL/Hercules Transit Center - Pinole - Richmond - BART, JR/Hercules Transit Center - Pinole - Richmond - BART"
20,791518,9,San Pablo Ave and Kay Rd,"18/Tara Hills - Richmond Parkway Transit Center - Hilltop Mall, C3/Hercules Transit Center - Pinole - Contra Costa College, JL/Hercules Transit Center - Pinole - Richmond - BART, JR/Hercules Transit Center - Pinole - Richmond - BART"
20,791458,10,San Pablo Ave and Crestwood Dr - Northbound,"18/Tara Hills - Richmond Parkway Transit Center - Hilltop Mall, C3/Hercules Transit Center - Pinole - Contra Costa College, JL/Hercules Transit Center - Pinole - Richmond - BART, JR/Hercules Transit Center - Pinole - Richmond - BART"
20,791459,11,San Pablo Ave and Shamrock Dr - Northbound,"18/Tara Hills - Richmond Parkway Transit Center - Hilltop Mall, C3/Hercules Transit Center - Pinole - Contra Costa College, JL/Hercules Transit Center - Pinole - Richmond - BART, JR/Hercules Transit Center - Pinole - Richmond - BART"
20,791460,12,San Pablo Ave and Tara Hills Dr - Northbound,"18/Tara Hills - Richmond Parkway Transit Center - Hilltop Mall, C3/Hercules Transit Center - Pinole - Contra Costa College, JL/Hercules Transit Center - Pinole - Richmond - BART, JR/Hercules Transit Center - Pinole - Richmond - BART"
20,791471,13,San Pablo Ave and Belmont Way,"C3/Hercules Transit Center - Pinole - Contra Costa College, JL/Hercules Transit Center - Pinole - Richmond - BART, JR/Hercules Transit Center - Pinole - Richmond - BART"
20,791519,14,San Pablo Ave and Crestview Dr,"C3/Hercules Transit Center - Pinole - Contra Costa College, JL/Hercules Transit Center - Pinole - Richmond - BART, JR/Hercules Transit Center - Pinole - Richmond - BART"
20,791571,15,San Pablo Ave and Meadow Ave,"17/BayView - Richmond Parkway Transit Center, C3/Hercules Transit Center - Pinole - Contra Costa College, JL/Hercules Transit Center - Pinole - Richmond - BART, JR/Hercules Transit Center - Pinole - Richmond - BART"
20,791461,16,San Pablo Ave and Sunnyview Dr - Westbound,"C3/Hercules Transit Center - Pinole - Contra Costa College, JL/Hercules Transit Center - Pinole - Richmond - BART, JR/Hercules Transit Center - Pinole - Richmond - BART"
20,791520,17,San Pablo Ave and 4th Ave,"C3/Hercules Transit Center - Pinole - Contra Costa College, JL/Hercules Transit Center - Pinole - Richmond - BART, JR/Hercules Transit Center - Pinole - Richmond - BART"
20,791577,18,San Pablo Ave and Appian Way - Westbound,"16/Pinole Valley - Old Town Pinole - Richmond Parkway Transit Center, C3/Hercules Transit Center - Pinole - Contra Costa College, JL/Hercules Transit Center - Pinole - Richmond - BART, JR/Hercules Transit Center - Pinole - Richmond - BART"
20,791521,19,San Pablo Ave and Alverez Ave,"C3/Hercules Transit Center - Pinole - Contra Costa College, JL/Hercules Transit Center - Pinole - Richmond - BART, JR/Hercules Transit Center - Pinole - Richmond - BART"
20,791441,20,San Pablo and Oak Ridge Rd,"16/Pinole Valley - Old Town Pinole - Richmond Parkway Transit Center, C3/Hercules Transit Center - Pinole - Contra Costa College, JL/Hercules Transit Center - Pinole - Richmond - BART, JR/Hercules Transit Center - Pinole - Richmond - BART"
20,791462,21,San Pablo Ave and John St - Northbound,"19/Hercules - Pinole - Richmond Parkway Transit Center - Hilltop Mall, C3/Hercules Transit Center - Pinole - Contra Costa College, JL/Hercules Transit Center - Pinole - Richmond - BART, JPX/Hercules Transit Center - El Cerrito del Norte BART, JR/Hercules Transit Center - Pinole - Richmond - BART"
20,791473,22,San Pablo Ave and Hercules Ave - Northbound,"19/Hercules - Pinole - Richmond Parkway Transit Center - Hilltop Mall, C3/Hercules Transit Center - Pinole - Contra Costa College, JL/Hercules Transit Center - Pinole - Richmond - BART, JPX/Hercules Transit Center - El Cerrito del Norte BART, JR/Hercules Transit Center - Pinole - Richmond - BART"
20,836604,23,San Pablo Ave and Sycamore,"C3/Hercules Transit Center - Pinole - Contra Costa College, JL/Hercules Transit Center - Pinole - Richmond - BART, JPX/Hercules Transit Center - El Cerrito del Norte BART, JR/Hercules Transit Center - Pinole - Richmond - BART"
20,791617,24,7th St and Parker Ave,"15/Rodeo - Hercules (Viewpointe/North Shore Business Park), JL/Hercules Transit Center - Pinole - Richmond - BART, JR/Hercules Transit Center - Pinole - Richmond - BART"
20,791619,25,Willow Ave Shopping Center ,"15/Rodeo - Hercules (Viewpointe/North Shore Business Park), JL/Hercules Transit Center - Pinole - Richmond - BART, JR/Hercules Transit Center - Pinole - Richmond - BART"
20,791474,26,Willow Ave and Viewpointe Blvd - Southbound,"JL/Hercules Transit Center - Pinole - Richmond - BART, JR/Hercules Transit Center - Pinole - Richmond - BART"
20,791638,27,Hercules Transit Center,"10/Gems and Birds, 11/Crockett - Rodeo - Hercules, 12/Trees and Flowers, 15/Rodeo - Hercules (Viewpointe/North Shore Business Park), 19/Hercules - Pinole - Richmond Parkway Transit Center - Hilltop Mall, 30Z/Hercules Transit Center - Martinez, C3/Hercules Transit Center - Pinole - Contra Costa College, JL/Hercules Transit Center - Pinole - Richmond - BART, JPX/Hercules Transit Center - El Cerrito del Norte BART, JR/Hercules Transit Center - Pinole - Richmond - BART, JX/Hercules Transit Center - El Cerrito del Norte BART, Lynx/Rodeo/Hercules/San Francisco Transbay Terminal"
21,791469,1,El Cerrito Del Norte BART,"JL/Hercules Transit Center - Pinole - Richmond - BART, JPX/Hercules Transit Center - El Cerrito del Norte BART, JR/Hercules Transit Center - Pinole - Richmond - BART, JX/Hercules Transit Center - El Cerrito del Norte BART"
21,791501,2,Blume Dr and Auto Plaza - Southbound,"18/Tara Hills - Richmond Parkway Transit Center - Hilltop Mall, 19/Hercules - Pinole - Richmond Parkway Transit Center - Hilltop Mall, JL/Hercules Transit Center - Pinole - Richmond - BART, JR/Hercules Transit Center - Pinole - Richmond - BART"
21,791559,3,Blume Dr and Klose Way,"18/Tara Hills - Richmond Parkway Transit Center - Hilltop Mall, 19/Hercules - Pinole - Richmond Parkway Transit Center - Hilltop Mall, JL/Hercules Transit Center - Pinole - Richmond - BART, JR/Hercules Transit Center - Pinole - Richmond - BART"
21,791449,4,Hilltop Mall - Westbound,"18/Tara Hills - Richmond Parkway Transit Center - Hilltop Mall, 19/Hercules - Pinole - Richmond Parkway Transit Center - Hilltop Mall, JL/Hercules Transit Center - Pinole - Richmond - BART, JR/Hercules Transit Center - Pinole - Richmond - BART"
21,791498,5,Hilltop Dr and Robert Miller Dr,"19/Hercules - Pinole - Richmond Parkway Transit Center - Hilltop Mall, JL/Hercules Transit Center - Pinole - Richmond - BART"
21,791621,6,Hilltop Dr and Hillview Dr,"18/Tara Hills - Richmond Parkway Transit Center - Hilltop Mall, JL/Hercules Transit Center - Pinole - Richmond - BART"
21,791613,7,4050 Lakeside Ave,JL/Hercules Transit Center - Pinole - Richmond - BART
21,791470,8,Richmond Parkway and Lakeside Dr - Eastbound,"JL/Hercules Transit Center - Pinole - Richmond - BART, JR/Hercules Transit Center - Pinole - Richmond - BART"
21,791518,9,San Pablo Ave and Kay Rd,"18/Tara Hills - Richmond Parkway Transit Center - Hilltop Mall, C3/Hercules Transit Center - Pinole - Contra Costa College, JL/Hercules Transit Center - Pinole - Richmond - BART, JR/Hercules Transit Center - Pinole - Richmond - BART"
21,791458,10,San Pablo Ave and Crestwood Dr - Northbound,"18/Tara Hills - Richmond Parkway Transit Center - Hilltop Mall, C3/Hercules Transit Center - Pinole - Contra Costa College, JL/Hercules Transit Center - Pinole - Richmond - BART, JR/Hercules Transit Center - Pinole - Richmond - BART"
21,791459,11,San Pablo Ave and Shamrock Dr - Northbound,"18/Tara Hills - Richmond Parkway Transit Center - Hilltop Mall, C3/Hercules Transit Center - Pinole - Contra Costa College, JL/Hercules Transit Center - Pinole - Richmond - BART, JR/Hercules Transit Center - Pinole - Richmond - BART"
21,791460,12,San Pablo Ave and Tara Hills Dr - Northbound,"18/Tara Hills - Richmond Parkway Transit Center - Hilltop Mall, C3/Hercules Transit Center - Pinole - Contra Costa College, JL/Hercules Transit Center - Pinole - Richmond - BART, JR/Hercules Transit Center - Pinole - Richmond - BART"
21,791471,13,San Pablo Ave and Belmont Way,"C3/Hercules Transit Center - Pinole - Contra Costa College, JL/Hercules Transit Center - Pinole - Richmond - BART, JR/Hercules Transit Center - Pinole - Richmond - BART"
21,791519,14,San Pablo Ave and Crestview Dr,"C3/Hercules Transit Center - Pinole - Contra Costa College, JL/Hercules Transit Center - Pinole - Richmond - BART, JR/Hercules Transit Center - Pinole - Richmond - BART"
21,791571,15,San Pablo Ave and Meadow Ave,"17/BayView - Richmond Parkway Transit Center, C3/Hercules Transit Center - Pinole - Contra Costa College, JL/Hercules Transit Center - Pinole - Richmond - BART, JR/Hercules Transit Center - Pinole - Richmond - BART"
21,791461,16,San Pablo Ave and Sunnyview Dr - Westbound,"C3/Hercules Transit Center - Pinole - Contra Costa College, JL/Hercules Transit Center - Pinole - Richmond - BART, JR/Hercules Transit Center - Pinole - Richmond - BART"
21,791520,17,San Pablo Ave and 4th Ave,"C3/Hercules Transit Center - Pinole - Contra Costa College, JL/Hercules Transit Center - Pinole - Richmond - BART, JR/Hercules Transit Center - Pinole - Richmond - BART"
21,791577,18,San Pablo Ave and Appian Way - Westbound,"16/Pinole Valley - Old Town Pinole - Richmond Parkway Transit Center, C3/Hercules Transit Center - Pinole - Contra Costa College, JL/Hercules Transit Center - Pinole - Richmond - BART, JR/Hercules Transit Center - Pinole - Richmond - BART"
21,791521,19,San Pablo Ave and Alverez Ave,"C3/Hercules Transit Center - Pinole - Contra Costa College, JL/Hercules Transit Center - Pinole - Richmond - BART, JR/Hercules Transit Center - Pinole - Richmond - BART"
21,791441,20,San Pablo and Oak Ridge Rd,"16/Pinole Valley - Old Town Pinole - Richmond Parkway Transit Center, C3/Hercules Transit Center - Pinole - Contra Costa College, JL/Hercules Transit Center - Pinole - Richmond - BART, JR/Hercules Transit Center - Pinole - Richmond - BART"
21,791462,21,San Pablo Ave and John St - Northbound,"19/Hercules - Pinole - Richmond Parkway Transit Center - Hilltop Mall, C3/Hercules Transit Center - Pinole - Contra Costa College, JL/Hercules Transit Center - Pinole - Richmond - BART, JPX/Hercules Transit Center - El Cerrito del Norte BART, JR/Hercules Transit Center - Pinole - Richmond - BART"
21,791473,22,San Pablo Ave and Hercules Ave - Northbound,"19/Hercules - Pinole - Richmond Parkway Transit Center - Hilltop Mall, C3/Hercules Transit Center - Pinole - Contra Costa College, JL/Hercules Transit Center - Pinole - Richmond - BART, JPX/Hercules Transit Center - El Cerrito del Norte BART, JR/Hercules Transit Center - Pinole - Richmond - BART"
21,836604,23,San Pablo Ave and Sycamore,"C3/Hercules Transit Center - Pinole - Contra Costa College, JL/Hercules Transit Center - Pinole - Richmond - BART, JPX/Hercules Transit Center - El Cerrito del Norte BART, JR/Hercules Transit Center - Pinole - Richmond - BART"
21,791617,24,7th St and Parker Ave,"15/Rodeo - Hercules (Viewpointe/North Shore Business Park), JL/Hercules Transit Center - Pinole - Richmond - BART, JR/Hercules Transit Center - Pinole - Richmond - BART"
21,791619,25,Willow Ave Shopping Center ,"15/Rodeo - Hercules (Viewpointe/North Shore Business Park), JL/Hercules Transit Center - Pinole - Richmond - BART, JR/Hercules Transit Center - Pinole - Richmond - BART"
21,791474,26,Willow Ave and Viewpointe Blvd - Southbound,"JL/Hercules Transit Center - Pinole - Richmond - BART, JR/Hercules Transit Center - Pinole - Richmond - BART"
21,791638,27,Hercules Transit Center,"10/Gems and Birds, 11/Crockett - Rodeo - Hercules, 12/Trees and Flowers, 15/Rodeo - Hercules (Viewpointe/North Shore Business Park), 19/Hercules - Pinole - Richmond Parkway Transit Center - Hilltop Mall, 30Z/Hercules Transit Center - Martinez, C3/Hercules Transit Center - Pinole - Contra Costa College, JL/Hercules Transit Center - Pinole - Richmond - BART, JPX/Hercules Transit Center - El Cerrito del Norte BART, JR/Hercules Transit Center - Pinole - Richmond - BART, JX/Hercules Transit Center - El Cerrito del Norte BART, Lynx/Rodeo/Hercules/San Francisco Transbay Terminal"
22,791469,1,El Cerrito Del Norte BART,"JL/Hercules Transit Center - Pinole - Richmond - BART, JPX/Hercules Transit Center - El Cerrito del Norte BART, JR/Hercules Transit Center - Pinole - Richmond - BART, JX/Hercules Transit Center - El Cerrito del Norte BART"
22,791501,2,Blume Dr and Auto Plaza - Southbound,"18/Tara Hills - Richmond Parkway Transit Center - Hilltop Mall, 19/Hercules - Pinole - Richmond Parkway Transit Center - Hilltop Mall, JL/Hercules Transit Center - Pinole - Richmond - BART, JR/Hercules Transit Center - Pinole - Richmond - BART"
22,791559,3,Blume Dr and Klose Way,"18/Tara Hills - Richmond Parkway Transit Center - Hilltop Mall, 19/Hercules - Pinole - Richmond Parkway Transit Center - Hilltop Mall, JL/Hercules Transit Center - Pinole - Richmond - BART, JR/Hercules Transit Center - Pinole - Richmond - BART"
22,791449,4,Hilltop Mall - Westbound,"18/Tara Hills - Richmond Parkway Transit Center - Hilltop Mall, 19/Hercules - Pinole - Richmond Parkway Transit Center - Hilltop Mall, JL/Hercules Transit Center - Pinole - Richmond - BART, JR/Hercules Transit Center - Pinole - Richmond - BART"
22,791498,5,Hilltop Dr and Robert Miller Dr,"19/Hercules - Pinole - Richmond Parkway Transit Center - Hilltop Mall, JL/Hercules Transit Center - Pinole - Richmond - BART"
22,791621,6,Hilltop Dr and Hillview Dr,"18/Tara Hills - Richmond Parkway Transit Center - Hilltop Mall, JL/Hercules Transit Center - Pinole - Richmond - BART"
22,791613,7,4050 Lakeside Ave,JL/Hercules Transit Center - Pinole - Richmond - BART
22,791470,8,Richmond Parkway and Lakeside Dr - Eastbound,"JL/Hercules Transit Center - Pinole - Richmond - BART, JR/Hercules Transit Center - Pinole - Richmond - BART"
22,791518,9,San Pablo Ave and Kay Rd,"18/Tara Hills - Richmond Parkway Transit Center - Hilltop Mall, C3/Hercules Transit Center - Pinole - Contra Costa College, JL/Hercules Transit Center - Pinole - Richmond - BART, JR/Hercules Transit Center - Pinole - Richmond - BART"
22,791458,10,San Pablo Ave and Crestwood Dr - Northbound,"18/Tara Hills - Richmond Parkway Transit Center - Hilltop Mall, C3/Hercules Transit Center - Pinole - Contra Costa College, JL/Hercules Transit Center - Pinole - Richmond - BART, JR/Hercules Transit Center - Pinole - Richmond - BART"
22,791459,11,San Pablo Ave and Shamrock Dr - Northbound,"18/Tara Hills - Richmond Parkway Transit Center - Hilltop Mall, C3/Hercules Transit Center - Pinole - Contra Costa College, JL/Hercules Transit Center - Pinole - Richmond - BART, JR/Hercules Transit Center - Pinole - Richmond - BART"
22,791460,12,San Pablo Ave and Tara Hills Dr - Northbound,"18/Tara Hills - Richmond Parkway Transit Center - Hilltop Mall, C3/Hercules Transit Center - Pinole - Contra Costa College, JL/Hercules Transit Center - Pinole - Richmond - BART, JR/Hercules Transit Center - Pinole - Richmond - BART"
22,791471,13,San Pablo Ave and Belmont Way,"C3/Hercules Transit Center - Pinole - Contra Costa College, JL/Hercules Transit Center - Pinole - Richmond - BART, JR/Hercules Transit Center - Pinole - Richmond - BART"
22,791519,14,San Pablo Ave and Crestview Dr,"C3/Hercules Transit Center - Pinole - Contra Costa College, JL/Hercules Transit Center - Pinole - Richmond - BART, JR/Hercules Transit Center - Pinole - Richmond - BART"
22,791571,15,San Pablo Ave and Meadow Ave,"17/BayView - Richmond Parkway Transit Center, C3/Hercules Transit Center - Pinole - Contra Costa College, JL/Hercules Transit Center - Pinole - Richmond - BART, JR/Hercules Transit Center - Pinole - Richmond - BART"
22,791461,16,San Pablo Ave and Sunnyview Dr - Westbound,"C3/Hercules Transit Center - Pinole - Contra Costa College, JL/Hercules Transit Center - Pinole - Richmond - BART, JR/Hercules Transit Center - Pinole - Richmond - BART"
22,791520,17,San Pablo Ave and 4th Ave,"C3/Hercules Transit Center - Pinole - Contra Costa College, JL/Hercules Transit Center - Pinole - Richmond - BART, JR/Hercules Transit Center - Pinole - Richmond - BART"
22,791577,18,San Pablo Ave and Appian Way - Westbound,"16/Pinole Valley - Old Town Pinole - Richmond Parkway Transit Center, C3/Hercules Transit Center - Pinole - Contra Costa College, JL/Hercules Transit Center - Pinole - Richmond - BART, JR/Hercules Transit Center - Pinole - Richmond - BART"
22,791521,19,San Pablo Ave and Alverez Ave,"C3/Hercules Transit Center - Pinole - Contra Costa College, JL/Hercules Transit Center - Pinole - Richmond - BART, JR/Hercules Transit Center - Pinole - Richmond - BART"
22,791441,20,San Pablo and Oak Ridge Rd,"16/Pinole Valley - Old Town Pinole - Richmond Parkway Transit Center, C3/Hercules Transit Center - Pinole - Contra Costa College, JL/Hercules Transit Center - Pinole - Richmond - BART, JR/Hercules Transit Center - Pinole - Richmond - BART"
22,791462,21,San Pablo Ave and John St - Northbound,"19/Hercules - Pinole - Richmond Parkway Transit Center - Hilltop Mall, C3/Hercules Transit Center - Pinole - Contra Costa College, JL/Hercules Transit Center - Pinole - Richmond - BART, JPX/Hercules Transit Center - El Cerrito del Norte BART, JR/Hercules Transit Center - Pinole - Richmond - BART"
22,791473,22,San Pablo Ave and Hercules Ave - Northbound,"19/Hercules - Pinole - Richmond Parkway Transit Center - Hilltop Mall, C3/Hercules Transit Center - Pinole - Contra Costa College, JL/Hercules Transit Center - Pinole - Richmond - BART, JPX/Hercules Transit Center - El Cerrito del Norte BART, JR/Hercules Transit Center - Pinole - Richmond - BART"
22,836604,23,San Pablo Ave and Sycamore,"C3/Hercules Transit Center - Pinole - Contra Costa College, JL/Hercules Transit Center - Pinole - Richmond - BART, JPX/Hercules Transit Center - El Cerrito del Norte BART, JR/Hercules Transit Center - Pinole - Richmond - BART"
22,791617,24,7th St and Parker Ave,"15/Rodeo - Hercules (Viewpointe/North Shore Business Park), JL/Hercules Transit Center - Pinole - Richmond - BART, JR/Hercules Transit Center - Pinole - Richmond - BART"
22,791619,25,Willow Ave Shopping Center ,"15/Rodeo - Hercules (Viewpointe/North Shore Business Park), JL/Hercules Transit Center - Pinole - Richmond - BART, JR/Hercules Transit Center - Pinole - Richmond - BART"
22,791474,26,Willow Ave and Viewpointe Blvd - Southbound,"JL/Hercules Transit Center - Pinole - Richmond - BART, JR/Hercules Transit Center - Pinole - Richmond - BART"
22,791638,27,Hercules Transit Center,"10/Gems and Birds, 11/Crockett - Rodeo - Hercules, 12/Trees and Flowers, 15/Rodeo - Hercules (Viewpointe/North Shore Business Park), 19/Hercules - Pinole - Richmond Parkway Transit Center - Hilltop Mall, 30Z/Hercules Transit Center - Martinez, C3/Hercules Transit Center - Pinole - Contra Costa College, JL/Hercules Transit Center - Pinole - Richmond - BART, JPX/Hercules Transit Center - El Cerrito del Norte BART, JR/Hercules Transit Center - Pinole - Richmond - BART, JX/Hercules Transit Center - El Cerrito del Norte BART, Lynx/Rodeo/Hercules/San Francisco Transbay Terminal"
23,791638,1,Hercules Transit Center,"10/Gems and Birds, 11/Crockett - Rodeo - Hercules, 12/Trees and Flowers, 15/Rodeo - Hercules (Viewpointe/North Shore Business Park), 19/Hercules - Pinole - Richmond Parkway Transit Center - Hilltop Mall, 30Z/Hercules Transit Center - Martinez, C3/Hercules Transit Center - Pinole - Contra Costa College, JL/Hercules Transit Center - Pinole - Richmond - BART, JPX/Hercules Transit Center - El Cerrito del Norte BART, JR/Hercules Transit Center - Pinole - Richmond - BART, JX/Hercules Transit Center - El Cerrito del Norte BART, Lynx/Rodeo/Hercules/San Francisco Transbay Terminal"
23,848767,2,San Pablo Ave and Tsushima ave,"C3/Hercules Transit Center - Pinole - Contra Costa College, JL/Hercules Transit Center - Pinole - Richmond - BART, JPX/Hercules Transit Center - El Cerrito del Norte BART, JR/Hercules Transit Center - Pinole - Richmond - BART"
23,844542,3,San Pablo and Hercules - Southbound,"19/Hercules - Pinole - Richmond Parkway Transit Center - Hilltop Mall, C3/Hercules Transit Center - Pinole - Contra Costa College, JL/Hercules Transit Center - Pinole - Richmond - BART, JPX/Hercules Transit Center - El Cerrito del Norte BART, JR/Hercules Transit Center - Pinole - Richmond - BART"
23,791451,4,San Pablo Ave and John St - Southbound,"19/Hercules - Pinole - Richmond Parkway Transit Center - Hilltop Mall, C3/Hercules Transit Center - Pinole - Contra Costa College, JL/Hercules Transit Center - Pinole - Richmond - BART, JPX/Hercules Transit Center - El Cerrito del Norte BART, JR/Hercules Transit Center - Pinole - Richmond - BART"
23,791438,5,San Pablo and Oak Ridge - Southbound,"16/Pinole Valley - Old Town Pinole - Richmond Parkway Transit Center, C3/Hercules Transit Center - Pinole - Contra Costa College, JL/Hercules Transit Center - Pinole - Richmond - BART, JR/Hercules Transit Center - Pinole - Richmond - BART"
23,791514,6,San Pablo Ave and Fern Ave,"16/Pinole Valley - Old Town Pinole - Richmond Parkway Transit Center, C3/Hercules Transit Center - Pinole - Contra Costa College, JL/Hercules Transit Center - Pinole - Richmond - BART, JR/Hercules Transit Center - Pinole - Richmond - BART"
23,791452,7,San Pablo Ave and Appian Way - Eastbound,"C3/Hercules Transit Center - Pinole - Contra Costa College, JL/Hercules Transit Center - Pinole - Richmond - BART, JR/Hercules Transit Center - Pinole - Richmond - BART"
23,791515,8,San Pablo Ave and Roble Ave,"C3/Hercules Transit Center - Pinole - Contra Costa College, JL/Hercules Transit Center - Pinole - Richmond - BART, JR/Hercules Transit Center - Pinole - Richmond - BART"
23,791453,9,San Pablo Ave and Sunnyview Dr - Eastbound,"17/BayView - Richmond Parkway Transit Center, C3/Hercules Transit Center - Pinole - Contra Costa College, JL/Hercules Transit Center - Pinole - Richmond - BART, JR/Hercules Transit Center - Pinole - Richmond - BART"
23,791516,10,San Pablo Ave - Sugar City Building Materials,"17/BayView - Richmond Parkway Transit Center, C3/Hercules Transit Center - Pinole - Contra Costa College, JL/Hercules Transit Center - Pinole - Richmond - BART, JR/Hercules Transit Center - Pinole - Richmond - BART"
23,791517,11,San Pablo Ave - Public Storage,"17/BayView - Richmond Parkway Transit Center, C3/Hercules Transit Center - Pinole - Contra Costa College, JL/Hercules Transit Center - Pinole - Richmond - BART, JR/Hercules Transit Center - Pinole - Richmond - BART"
23,791454,12,San Pablo Ave and Del Monte Dr,"C3/Hercules Transit Center - Pinole - Contra Costa College, JL/Hercules Transit Center - Pinole - Richmond - BART, JR/Hercules Transit Center - Pinole - Richmond - BART"
23,791455,13,San Pablo Ave and Tara Hills Dr - Southbound,"C3/Hercules Transit Center - Pinole - Contra Costa College, JL/Hercules Transit Center - Pinole - Richmond - BART, JR/Hercules Transit Center - Pinole - Richmond - BART"
23,791456,14,San Pablo Ave and Shamrock Dr - Southbound,"18/Tara Hills - Richmond Parkway Transit Center - Hilltop Mall, C3/Hercules Transit Center - Pinole - Contra Costa College, JL/Hercules Transit Center - Pinole - Richmond - BART, JR/Hercules Transit Center - Pinole - Richmond - BART"
23,791457,15,San Pablo Ave and Crestwood Dr - Southbound,"18/Tara Hills - Richmond Parkway Transit Center - Hilltop Mall, C3/Hercules Transit Center - Pinole - Contra Costa College, JL/Hercules Transit Center - Pinole - Richmond - BART, JR/Hercules Transit Center - Pinole - Richmond - BART"
23,791475,16,Richmond Parkway and Lakeside Dr - Westbound,"JL/Hercules Transit Center - Pinole - Richmond - BART, JR/Hercules Transit Center - Pinole - Richmond - BART"
23,791612,17,4075 Lakeside Ave,JL/Hercules Transit Center - Pinole - Richmond - BART
23,791614,18,Lakeside Dr and Research Dr,JL/Hercules Transit Center - Pinole - Richmond - BART
23,791563,19,Hillview Dr and Hilltop Dr,"18/Tara Hills - Richmond Parkway Transit Center - Hilltop Mall, JL/Hercules Transit Center - Pinole - Richmond - BART"
23,791449,20,Hilltop Mall - Westbound,"18/Tara Hills - Richmond Parkway Transit Center - Hilltop Mall, 19/Hercules - Pinole - Richmond Parkway Transit Center - Hilltop Mall, JL/Hercules Transit Center - Pinole - Richmond - BART, JR/Hercules Transit Center - Pinole - Richmond - BART"
23,791498,21,Hilltop Dr and Robert Miller Dr,"19/Hercules - Pinole - Richmond Parkway Transit Center - Hilltop Mall, JL/Hercules Transit Center - Pinole - Richmond - BART"
23,791499,22,Hilltop Dr and Shane Dr,"19/Hercules - Pinole - Richmond Parkway Transit Center - Hilltop Mall, JL/Hercules Transit Center - Pinole - Richmond - BART"
23,791500,23,Hilltop Dr and Garrity Way,"19/Hercules - Pinole - Richmond Parkway Transit Center - Hilltop Mall, JL/Hercules Transit Center - Pinole - Richmond - BART"
23,791627,24,Blume Dr and Auto Plaza - Northbound,"18/Tara Hills - Richmond Parkway Transit Center - Hilltop Mall, 19/Hercules - Pinole - Richmond Parkway Transit Center - Hilltop Mall, JL/Hercules Transit Center - Pinole - Richmond - BART, JR/Hercules Transit Center - Pinole - Richmond - BART"
23,791564,25,Blume Dr and Klose Way - Hilltop Mall Sign,"18/Tara Hills - Richmond Parkway Transit Center - Hilltop Mall, JL/Hercules Transit Center - Pinole - Richmond - BART, JR/Hercules Transit Center - Pinole - Richmond - BART"
23,791469,26,El Cerrito Del Norte BART,"JL/Hercules Transit Center - Pinole - Richmond - BART, JPX/Hercules Transit Center - El Cerrito del Norte BART, JR/Hercules Transit Center - Pinole - Richmond - BART, JX/Hercules Transit Center - El Cerrito del Norte BART"
24,791638,1,Hercules Transit Center,"10/Gems and Birds, 11/Crockett - Rodeo - Hercules, 12/Trees and Flowers, 15/Rodeo - Hercules (Viewpointe/North Shore Business Park), 19/Hercules - Pinole - Richmond Parkway Transit Center - Hilltop Mall, 30Z/Hercules Transit Center - Martinez, C3/Hercules Transit Center - Pinole - Contra Costa College, JL/Hercules Transit Center - Pinole - Richmond - BART, JPX/Hercules Transit Center - El Cerrito del Norte BART, JR/Hercules Transit Center - Pinole - Richmond - BART, JX/Hercules Transit Center - El Cerrito del Norte BART, Lynx/Rodeo/Hercules/San Francisco Transbay Terminal"
24,848767,2,San Pablo Ave and Tsushima ave,"C3/Hercules Transit Center - Pinole - Contra Costa College, JL/Hercules Transit Center - Pinole - Richmond - BART, JPX/Hercules Transit Center - El Cerrito del Norte BART, JR/Hercules Transit Center - Pinole - Richmond - BART"
24,844542,3,San Pablo and Hercules - Southbound,"19/Hercules - Pinole - Richmond Parkway Transit Center - Hilltop Mall, C3/Hercules Transit Center - Pinole - Contra Costa College, JL/Hercules Transit Center - Pinole - Richmond - BART, JPX/Hercules Transit Center - El Cerrito del Norte BART, JR/Hercules Transit Center - Pinole - Richmond - BART"
24,791451,4,San Pablo Ave and John St - Southbound,"19/Hercules - Pinole - Richmond Parkway Transit Center - Hilltop Mall, C3/Hercules Transit Center - Pinole - Contra Costa College, JL/Hercules Transit Center - Pinole - Richmond - BART, JPX/Hercules Transit Center - El Cerrito del Norte BART, JR/Hercules Transit Center - Pinole - Richmond - BART"
24,791438,5,San Pablo and Oak Ridge - Southbound,"16/Pinole Valley - Old Town Pinole - Richmond Parkway Transit Center, C3/Hercules Transit Center - Pinole - Contra Costa College, JL/Hercules Transit Center - Pinole - Richmond - BART, JR/Hercules Transit Center - Pinole - Richmond - BART"
24,791514,6,San Pablo Ave and Fern Ave,"16/Pinole Valley - Old Town Pinole - Richmond Parkway Transit Center, C3/Hercules Transit Center - Pinole - Contra Costa College, JL/Hercules Transit Center - Pinole - Richmond - BART, JR/Hercules Transit Center - Pinole - Richmond - BART"
24,791452,7,San Pablo Ave and Appian Way - Eastbound,"C3/Hercules Transit Center - Pinole - Contra Costa College, JL/Hercules Transit Center - Pinole - Richmond - BART, JR/Hercules Transit Center - Pinole - Richmond - BART"
24,791515,8,San Pablo Ave and Roble Ave,"C3/Hercules Transit Center - Pinole - Contra Costa College, JL/Hercules Transit Center - Pinole - Richmond - BART, JR/Hercules Transit Center - Pinole - Richmond - BART"
24,791453,9,San Pablo Ave and Sunnyview Dr - Eastbound,"17/BayView - Richmond Parkway Transit Center, C3/Hercules Transit Center - Pinole - Contra Costa College, JL/Hercules Transit Center - Pinole - Richmond - BART, JR/Hercules Transit Center - Pinole - Richmond - BART"
24,791516,10,San Pablo Ave - Sugar City Building Materials,"17/BayView - Richmond Parkway Transit Center, C3/Hercules Transit Center - Pinole - Contra Costa College, JL/Hercules Transit Center - Pinole - Richmond - BART, JR/Hercules Transit Center - Pinole - Richmond - BART"
24,791517,11,San Pablo Ave - Public Storage,"17/BayView - Richmond Parkway Transit Center, C3/Hercules Transit Center - Pinole - Contra Costa College, JL/Hercules Transit Center - Pinole - Richmond - BART, JR/Hercules Transit Center - Pinole - Richmond - BART"
24,791454,12,San Pablo Ave and Del Monte Dr,"C3/Hercules Transit Center - Pinole - Contra Costa College, JL/Hercules Transit Center - Pinole - Richmond - BART, JR/Hercules Transit Center - Pinole - Richmond - BART"
24,791455,13,San Pablo Ave and Tara Hills Dr - Southbound,"C3/Hercules Transit Center - Pinole - Contra Costa College, JL/Hercules Transit Center - Pinole - Richmond - BART, JR/Hercules Transit Center - Pinole - Richmond - BART"
24,791456,14,San Pablo Ave and Shamrock Dr - Southbound,"18/Tara Hills - Richmond Parkway Transit Center - Hilltop Mall, C3/Hercules Transit Center - Pinole - Contra Costa College, JL/Hercules Transit Center - Pinole - Richmond - BART, JR/Hercules Transit Center - Pinole - Richmond - BART"
24,791457,15,San Pablo Ave and Crestwood Dr - Southbound,"18/Tara Hills - Richmond Parkway Transit Center - Hilltop Mall, C3/Hercules Transit Center - Pinole - Contra Costa College, JL/Hercules Transit Center - Pinole - Richmond - BART, JR/Hercules Transit Center - Pinole - Richmond - BART"
24,791475,16,Richmond Parkway and Lakeside Dr - Westbound,"JL/Hercules Transit Center - Pinole - Richmond - BART, JR/Hercules Transit Center - Pinole - Richmond - BART"
24,791612,17,4075 Lakeside Ave,JL/Hercules Transit Center - Pinole - Richmond - BART
24,791614,18,Lakeside Dr and Research Dr,JL/Hercules Transit Center - Pinole - Richmond - BART
24,791563,19,Hillview Dr and Hilltop Dr,"18/Tara Hills - Richmond Parkway Transit Center - Hilltop Mall, JL/Hercules Transit Center - Pinole - Richmond - BART"
24,791449,20,Hilltop Mall - Westbound,"18/Tara Hills - Richmond Parkway Transit Center - Hilltop Mall, 19/Hercules - Pinole - Richmond Parkway Transit Center - Hilltop Mall, JL/Hercules Transit Center - Pinole - Richmond - BART, JR/Hercules Transit Center - Pinole - Richmond - BART"
24,791498,21,Hilltop Dr and Robert Miller Dr,"19/Hercules - Pinole - Richmond Parkway Transit Center - Hilltop Mall, JL/Hercules Transit Center - Pinole - Richmond - BART"
24,791499,22,Hilltop Dr and Shane Dr,"19/Hercules - Pinole - Richmond Parkway Transit Center - Hilltop Mall, JL/Hercules Transit Center - Pinole - Richmond - BART"
24,791500,23,Hilltop Dr and Garrity Way,"19/Hercules - Pinole - Richmond Parkway Transit Center - Hilltop Mall, JL/Hercules Transit Center - Pinole - Richmond - BART"
24,791627,24,Blume Dr and Auto Plaza - Northbound,"18/Tara Hills - Richmond Parkway Transit Center - Hilltop Mall, 19/Hercules - Pinole - Richmond Parkway Transit Center - Hilltop Mall, JL/Hercules Transit Center - Pinole - Richmond - BART, JR/Hercules Transit Center - Pinole - Richmond - BART"
24,791564,25,Blume Dr and Klose Way - Hilltop Mall Sign,"18/Tara Hills - Richmond Parkway Transit Center - Hilltop Mall, JL/Hercules Transit Center - Pinole - Richmond - BART, JR/Hercules Transit Center - Pinole - Richmond - BART"
24,791469,26,El Cerrito Del Norte BART,"JL/Hercules Transit Center - Pinole - Richmond - BART, JPX/Hercules Transit Center - El Cerrito del Norte BART, JR/Hercules Transit Center - Pinole - Richmond - BART, JX/Hercules Transit Center - El Cerrito del Norte BART"
25,791638,1,Hercules Transit Center,"10/Gems and Birds, 11/Crockett - Rodeo - Hercules, 12/Trees and Flowers, 15/Rodeo - Hercules (Viewpointe/North Shore Business Park), 19/Hercules - Pinole - Richmond Parkway Transit Center - Hilltop Mall, 30Z/Hercules Transit Center - Martinez, C3/Hercules Transit Center - Pinole - Contra Costa College, JL/Hercules Transit Center - Pinole - Richmond - BART, JPX/Hercules Transit Center - El Cerrito del Norte BART, JR/Hercules Transit Center - Pinole - Richmond - BART, JX/Hercules Transit Center - El Cerrito del Norte BART, Lynx/Rodeo/Hercules/San Francisco Transbay Terminal"
25,848767,2,San Pablo Ave and Tsushima ave,"C3/Hercules Transit Center - Pinole - Contra Costa College, JL/Hercules Transit Center - Pinole - Richmond - BART, JPX/Hercules Transit Center - El Cerrito del Norte BART, JR/Hercules Transit Center - Pinole - Richmond - BART"
25,844542,3,San Pablo and Hercules - Southbound,"19/Hercules - Pinole - Richmond Parkway Transit Center - Hilltop Mall, C3/Hercules Transit Center - Pinole - Contra Costa College, JL/Hercules Transit Center - Pinole - Richmond - BART, JPX/Hercules Transit Center - El Cerrito del Norte BART, JR/Hercules Transit Center - Pinole - Richmond - BART"
25,791451,4,San Pablo Ave and John St - Southbound,"19/Hercules - Pinole - Richmond Parkway Transit Center - Hilltop Mall, C3/Hercules Transit Center - Pinole - Contra Costa College, JL/Hercules Transit Center - Pinole - Richmond - BART, JPX/Hercules Transit Center - El Cerrito del Norte BART, JR/Hercules Transit Center - Pinole - Richmond - BART"
25,791438,5,San Pablo and Oak Ridge - Southbound,"16/Pinole Valley - Old Town Pinole - Richmond Parkway Transit Center, C3/Hercules Transit Center - Pinole - Contra Costa College, JL/Hercules Transit Center - Pinole - Richmond - BART, JR/Hercules Transit Center - Pinole - Richmond - BART"
25,791514,6,San Pablo Ave and Fern Ave,"16/Pinole Valley - Old Town Pinole - Richmond Parkway Transit Center, C3/Hercules Transit Center - Pinole - Contra Costa College, JL/Hercules Transit Center - Pinole - Richmond - BART, JR/Hercules Transit Center - Pinole - Richmond - BART"
25,791452,7,San Pablo Ave and Appian Way - Eastbound,"C3/Hercules Transit Center - Pinole - Contra Costa College, JL/Hercules Transit Center - Pinole - Richmond - BART, JR/Hercules Transit Center - Pinole - Richmond - BART"
25,791515,8,San Pablo Ave and Roble Ave,"C3/Hercules Transit Center - Pinole - Contra Costa College, JL/Hercules Transit Center - Pinole - Richmond - BART, JR/Hercules Transit Center - Pinole - Richmond - BART"
25,791453,9,San Pablo Ave and Sunnyview Dr - Eastbound,"17/BayView - Richmond Parkway Transit Center, C3/Hercules Transit Center - Pinole - Contra Costa College, JL/Hercules Transit Center - Pinole - Richmond - BART, JR/Hercules Transit Center - Pinole - Richmond - BART"
25,791516,10,San Pablo Ave - Sugar City Building Materials,"17/BayView - Richmond Parkway Transit Center, C3/Hercules Transit Center - Pinole - Contra Costa College, JL/Hercules Transit Center - Pinole - Richmond - BART, JR/Hercules Transit Center - Pinole - Richmond - BART"
25,791517,11,San Pablo Ave - Public Storage,"17/BayView - Richmond Parkway Transit Center, C3/Hercules Transit Center - Pinole - Contra Costa College, JL/Hercules Transit Center - Pinole - Richmond - BART, JR/Hercules Transit Center - Pinole - Richmond - BART"
25,791454,12,San Pablo Ave and Del Monte Dr,"C3/Hercules Transit Center - Pinole - Contra Costa College, JL/Hercules Transit Center - Pinole - Richmond - BART, JR/Hercules Transit Center - Pinole - Richmond - BART"
25,791455,13,San Pablo Ave and Tara Hills Dr - Southbound,"C3/Hercules Transit Center - Pinole - Contra Costa College, JL/Hercules Transit Center - Pinole - Richmond - BART, JR/Hercules Transit Center - Pinole - Richmond - BART"
25,791456,14,San Pablo Ave and Shamrock Dr - Southbound,"18/Tara Hills - Richmond Parkway Transit Center - Hilltop Mall, C3/Hercules Transit Center - Pinole - Contra Costa College, JL/Hercules Transit Center - Pinole - Richmond - BART, JR/Hercules Transit Center - Pinole - Richmond - BART"
25,791457,15,San Pablo Ave and Crestwood Dr - Southbound,"18/Tara Hills - Richmond Parkway Transit Center - Hilltop Mall, C3/Hercules Transit Center - Pinole - Contra Costa College, JL/Hercules Transit Center - Pinole - Richmond - BART, JR/Hercules Transit Center - Pinole - Richmond - BART"
25,791475,16,Richmond Parkway and Lakeside Dr - Westbound,"JL/Hercules Transit Center - Pinole - Richmond - BART, JR/Hercules Transit Center - Pinole - Richmond - BART"
25,791612,17,4075 Lakeside Ave,JL/Hercules Transit Center - Pinole - Richmond - BART
25,791614,18,Lakeside Dr and Research Dr,JL/Hercules Transit Center - Pinole - Richmond - BART
25,791563,19,Hillview Dr and Hilltop Dr,"18/Tara Hills - Richmond Parkway Transit Center - Hilltop Mall, JL/Hercules Transit Center - Pinole - Richmond - BART"
25,791449,20,Hilltop Mall - Westbound,"18/Tara Hills - Richmond Parkway Transit Center - Hilltop Mall, 19/Hercules - Pinole - Richmond Parkway Transit Center - Hilltop Mall, JL/Hercules Transit Center - Pinole - Richmond - BART, JR/Hercules Transit Center - Pinole - Richmond - BART"
25,791498,21,Hilltop Dr and Robert Miller Dr,"19/Hercules - Pinole - Richmond Parkway Transit Center - Hilltop Mall, JL/Hercules Transit Center - Pinole - Richmond - BART"
25,791499,22,Hilltop Dr and Shane Dr,"19/Hercules - Pinole - Richmond Parkway Transit Center - Hilltop Mall, JL/Hercules Transit Center - Pinole - Richmond - BART"
25,791500,23,Hilltop Dr and Garrity Way,"19/Hercules - Pinole - Richmond Parkway Transit Center - Hilltop Mall, JL/Hercules Transit Center - Pinole - Richmond - BART"
25,791627,24,Blume Dr and Auto Plaza - Northbound,"18/Tara Hills - Richmond Parkway Transit Center - Hilltop Mall, 19/Hercules - Pinole - Richmond Parkway Transit Center - Hilltop Mall, JL/Hercules Transit Center - Pinole - Richmond - BART, JR/Hercules Transit Center - Pinole - Richmond - BART"
25,791564,25,Blume Dr and Klose Way - Hilltop Mall Sign,"18/Tara Hills - Richmond Parkway Transit Center - Hilltop Mall, JL/Hercules Transit Center - Pinole - Richmond - BART, JR/Hercules Transit Center - Pinole - Richmond - BART"
25,791469,26,El Cerrito Del Norte BART,"JL/Hercules Transit Center - Pinole - Richmond - BART, JPX/Hercules Transit Center - El Cerrito del Norte BART, JR/Hercules Transit Center - Pinole - Richmond - BART, JX/Hercules Transit Center - El Cerrito del Norte BART"
26,791469,1,El Cerrito Del Norte BART,"JL/Hercules Transit Center - Pinole - Richmond - BART, JPX/Hercules Transit Center - El Cerrito del Norte BART, JR/Hercules Transit Center - Pinole - Richmond - BART, JX/Hercules Transit Center - El Cerrito del Norte BART"
26,791648,2,Richmond Parkway Transit Center,"16/Pinole Valley - Old Town Pinole - Richmond Parkway Transit Center, 17/BayView - Richmond Parkway Transit Center, 18/Tara Hills - Richmond Parkway Transit Center - Hilltop Mall, JPX/Hercules Transit Center - El Cerrito del Norte BART, JR/Hercules Transit Center - Pinole - Richmond - BART"
26,791501,3,Blume Dr and Auto Plaza - Southbound,"18/Tara Hills - Richmond Parkway Transit Center - Hilltop Mall, 19/Hercules - Pinole - Richmond Parkway Transit Center - Hilltop Mall, JL/Hercules Transit Center - Pinole - Richmond - BART, JR/Hercules Transit Center - Pinole - Richmond - BART"
26,791559,4,Blume Dr and Klose Way,"18/Tara Hills - Richmond Parkway Transit Center - Hilltop Mall, 19/Hercules - Pinole - Richmond Parkway Transit Center - Hilltop Mall, JL/Hercules Transit Center - Pinole - Richmond - BART, JR/Hercules Transit Center - Pinole - Richmond - BART"
26,791449,5,Hilltop Mall - Westbound,"18/Tara Hills - Richmond Parkway Transit Center - Hilltop Mall, 19/Hercules - Pinole - Richmond Parkway Transit Center - Hilltop Mall, JL/Hercules Transit Center - Pinole - Richmond - BART, JR/Hercules Transit Center - Pinole - Richmond - BART"
26,791627,6,Blume Dr and Auto Plaza - Northbound,"18/Tara Hills - Richmond Parkway Transit Center - Hilltop Mall, 19/Hercules - Pinole - Richmond Parkway Transit Center - Hilltop Mall, JL/Hercules Transit Center - Pinole - Richmond - BART, JR/Hercules Transit Center - Pinole - Richmond - BART"
26,791564,7,Blume Dr and Klose Way - Hilltop Mall Sign,"18/Tara Hills - Richmond Parkway Transit Center - Hilltop Mall, JL/Hercules Transit Center - Pinole - Richmond - BART, JR/Hercules Transit Center - Pinole - Richmond - BART"
26,791615,8,Richmond Parkway Eastbound  - Hilltop Bayview,JR/Hercules Transit Center - Pinole - Richmond - BART
26,791470,9,Richmond Parkway and Lakeside Dr - Eastbound,"JL/Hercules Transit Center - Pinole - Richmond - BART, JR/Hercules Transit Center - Pinole - Richmond - BART"
26,791518,10,San Pablo Ave and Kay Rd,"18/Tara Hills - Richmond Parkway Transit Center - Hilltop Mall, C3/Hercules Transit Center - Pinole - Contra Costa College, JL/Hercules Transit Center - Pinole - Richmond - BART, JR/Hercules Transit Center - Pinole - Richmond - BART"
26,791458,11,San Pablo Ave and Crestwood Dr - Northbound,"18/Tara Hills - Richmond Parkway Transit Center - Hilltop Mall, C3/Hercules Transit Center - Pinole - Contra Costa College, JL/Hercules Transit Center - Pinole - Richmond - BART, JR/Hercules Transit Center - Pinole - Richmond - BART"
26,791459,12,San Pablo Ave and Shamrock Dr - Northbound,"18/Tara Hills - Richmond Parkway Transit Center - Hilltop Mall, C3/Hercules Transit Center - Pinole - Contra Costa College, JL/Hercules Transit Center - Pinole - Richmond - BART, JR/Hercules Transit Center - Pinole - Richmond - BART"
26,791460,13,San Pablo Ave and Tara Hills Dr - Northbound,"18/Tara Hills - Richmond Parkway Transit Center - Hilltop Mall, C3/Hercules Transit Center - Pinole - Contra Costa College, JL/Hercules Transit Center - Pinole - Richmond - BART, JR/Hercules Transit Center - Pinole - Richmond - BART"
26,791471,14,San Pablo Ave and Belmont Way,"C3/Hercules Transit Center - Pinole - Contra Costa College, JL/Hercules Transit Center - Pinole - Richmond - BART, JR/Hercules Transit Center - Pinole - Richmond - BART"
26,791519,15,San Pablo Ave and Crestview Dr,"C3/Hercules Transit Center - Pinole - Contra Costa College, JL/Hercules Transit Center - Pinole - Richmond - BART, JR/Hercules Transit Center - Pinole - Richmond - BART"
26,791571,16,San Pablo Ave and Meadow Ave,"17/BayView - Richmond Parkway Transit Center, C3/Hercules Transit Center - Pinole - Contra Costa College, JL/Hercules Transit Center - Pinole - Richmond - BART, JR/Hercules Transit Center - Pinole - Richmond - BART"
26,791461,17,San Pablo Ave and Sunnyview Dr - Westbound,"C3/Hercules Transit Center - Pinole - Contra Costa College, JL/Hercules Transit Center - Pinole - Richmond - BART, JR/Hercules Transit Center - Pinole - Richmond - BART"
26,791520,18,San Pablo Ave and 4th Ave,"C3/Hercules Transit Center - Pinole - Contra Costa College, JL/Hercules Transit Center - Pinole - Richmond - BART, JR/Hercules Transit Center - Pinole - Richmond - BART"
26,791577,19,San Pablo Ave and Appian Way - Westbound,"16/Pinole Valley - Old Town Pinole - Richmond Parkway Transit Center, C3/Hercules Transit Center - Pinole - Contra Costa College, JL/Hercules Transit Center - Pinole - Richmond - BART, JR/Hercules Transit Center - Pinole - Richmond - BART"
26,791521,20,San Pablo Ave and Alverez Ave,"C3/Hercules Transit Center - Pinole - Contra Costa College, JL/Hercules Transit Center - Pinole - Richmond - BART, JR/Hercules Transit Center - Pinole - Richmond - BART"
26,791441,21,San Pablo and Oak Ridge Rd,"16/Pinole Valley - Old Town Pinole - Richmond Parkway Transit Center, C3/Hercules Transit Center - Pinole - Contra Costa College, JL/Hercules Transit Center - Pinole - Richmond - BART, JR/Hercules Transit Center - Pinole - Richmond - BART"
26,791462,22,San Pablo Ave and John St - Northbound,"19/Hercules - Pinole - Richmond Parkway Transit Center - Hilltop Mall, C3/Hercules Transit Center - Pinole - Contra Costa College, JL/Hercules Transit Center - Pinole - Richmond - BART, JPX/Hercules Transit Center - El Cerrito del Norte BART, JR/Hercules Transit Center - Pinole - Richmond - BART"
26,791473,23,San Pablo Ave and Hercules Ave - Northbound,"19/Hercules - Pinole - Richmond Parkway Transit Center - Hilltop Mall, C3/Hercules Transit Center - Pinole - Contra Costa College, JL/Hercules Transit Center - Pinole - Richmond - BART, JPX/Hercules Transit Center - El Cerrito del Norte BART, JR/Hercules Transit Center - Pinole - Richmond - BART"
26,836604,24,San Pablo Ave and Sycamore,"C3/Hercules Transit Center - Pinole - Contra Costa College, JL/Hercules Transit Center - Pinole - Richmond - BART, JPX/Hercules Transit Center - El Cerrito del Norte BART, JR/Hercules Transit Center - Pinole - Richmond - BART"
26,791617,25,7th St and Parker Ave,"15/Rodeo - Hercules (Viewpointe/North Shore Business Park), JL/Hercules Transit Center - Pinole - Richmond - BART, JR/Hercules Transit Center - Pinole - Richmond - BART"
26,791619,26,Willow Ave Shopping Center ,"15/Rodeo - Hercules (Viewpointe/North Shore Business Park), JL/Hercules Transit Center - Pinole - Richmond - BART, JR/Hercules Transit Center - Pinole - Richmond - BART"
26,791474,27,Willow Ave and Viewpointe Blvd - Southbound,"JL/Hercules Transit Center - Pinole - Richmond - BART, JR/Hercules Transit Center - Pinole - Richmond - BART"
26,791638,28,Hercules Transit Center,"10/Gems and Birds, 11/Crockett - Rodeo - Hercules, 12/Trees and Flowers, 15/Rodeo - Hercules (Viewpointe/North Shore Business Park), 19/Hercules - Pinole - Richmond Parkway Transit Center - Hilltop Mall, 30Z/Hercules Transit Center - Martinez, C3/Hercules Transit Center - Pinole - Contra Costa College, JL/Hercules Transit Center - Pinole - Richmond - BART, JPX/Hercules Transit Center - El Cerrito del Norte BART, JR/Hercules Transit Center - Pinole - Richmond - BART, JX/Hercules Transit Center - El Cerrito del Norte BART, Lynx/Rodeo/Hercules/San Francisco Transbay Terminal"
27,791469,1,El Cerrito Del Norte BART,"JL/Hercules Transit Center - Pinole - Richmond - BART, JPX/Hercules Transit Center - El Cerrito del Norte BART, JR/Hercules Transit Center - Pinole - Richmond - BART, JX/Hercules Transit Center - El Cerrito del Norte BART"
27,791648,2,Richmond Parkway Transit Center,"16/Pinole Valley - Old Town Pinole - Richmond Parkway Transit Center, 17/BayView - Richmond Parkway Transit Center, 18/Tara Hills - Richmond Parkway Transit Center - Hilltop Mall, JPX/Hercules Transit Center - El Cerrito del Norte BART, JR/Hercules Transit Center - Pinole - Richmond - BART"
27,791501,3,Blume Dr and Auto Plaza - Southbound,"18/Tara Hills - Richmond Parkway Transit Center - Hilltop Mall, 19/Hercules - Pinole - Richmond Parkway Transit Center - Hilltop Mall, JL/Hercules Transit Center - Pinole - Richmond - BART, JR/Hercules Transit Center - Pinole - Richmond - BART"
27,791559,4,Blume Dr and Klose Way,"18/Tara Hills - Richmond Parkway Transit Center - Hilltop Mall, 19/Hercules - Pinole - Richmond Parkway Transit Center - Hilltop Mall, JL/Hercules Transit Center - Pinole - Richmond - BART, JR/Hercules Transit Center - Pinole - Richmond - BART"
27,791449,5,Hilltop Mall - Westbound,"18/Tara Hills - Richmond Parkway Transit Center - Hilltop Mall, 19/Hercules - Pinole - Richmond Parkway Transit Center - Hilltop Mall, JL/Hercules Transit Center - Pinole - Richmond - BART, JR/Hercules Transit Center - Pinole - Richmond - BART"
27,791627,6,Blume Dr and Auto Plaza - Northbound,"18/Tara Hills - Richmond Parkway Transit Center - Hilltop Mall, 19/Hercules - Pinole - Richmond Parkway Transit Center - Hilltop Mall, JL/Hercules Transit Center - Pinole - Richmond - BART, JR/Hercules Transit Center - Pinole - Richmond - BART"
27,791564,7,Blume Dr and Klose Way - Hilltop Mall Sign,"18/Tara Hills - Richmond Parkway Transit Center - Hilltop Mall, JL/Hercules Transit Center - Pinole - Richmond - BART, JR/Hercules Transit Center - Pinole - Richmond - BART"
27,791615,8,Richmond Parkway Eastbound  - Hilltop Bayview,JR/Hercules Transit Center - Pinole - Richmond - BART
27,791470,9,Richmond Parkway and Lakeside Dr - Eastbound,"JL/Hercules Transit Center - Pinole - Richmond - BART, JR/Hercules Transit Center - Pinole - Richmond - BART"
27,791518,10,San Pablo Ave and Kay Rd,"18/Tara Hills - Richmond Parkway Transit Center - Hilltop Mall, C3/Hercules Transit Center - Pinole - Contra Costa College, JL/Hercules Transit Center - Pinole - Richmond - BART, JR/Hercules Transit Center - Pinole - Richmond - BART"
27,791458,11,San Pablo Ave and Crestwood Dr - Northbound,"18/Tara Hills - Richmond Parkway Transit Center - Hilltop Mall, C3/Hercules Transit Center - Pinole - Contra Costa College, JL/Hercules Transit Center - Pinole - Richmond - BART, JR/Hercules Transit Center - Pinole - Richmond - BART"
27,791459,12,San Pablo Ave and Shamrock Dr - Northbound,"18/Tara Hills - Richmond Parkway Transit Center - Hilltop Mall, C3/Hercules Transit Center - Pinole - Contra Costa College, JL/Hercules Transit Center - Pinole - Richmond - BART, JR/Hercules Transit Center - Pinole - Richmond - BART"
27,791460,13,San Pablo Ave and Tara Hills Dr - Northbound,"18/Tara Hills - Richmond Parkway Transit Center - Hilltop Mall, C3/Hercules Transit Center - Pinole - Contra Costa College, JL/Hercules Transit Center - Pinole - Richmond - BART, JR/Hercules Transit Center - Pinole - Richmond - BART"
27,791471,14,San Pablo Ave and Belmont Way,"C3/Hercules Transit Center - Pinole - Contra Costa College, JL/Hercules Transit Center - Pinole - Richmond - BART, JR/Hercules Transit Center - Pinole - Richmond - BART"
27,791519,15,San Pablo Ave and Crestview Dr,"C3/Hercules Transit Center - Pinole - Contra Costa College, JL/Hercules Transit Center - Pinole - Richmond - BART, JR/Hercules Transit Center - Pinole - Richmond - BART"
27,791571,16,San Pablo Ave and Meadow Ave,"17/BayView - Richmond Parkway Transit Center, C3/Hercules Transit Center - Pinole - Contra Costa College, JL/Hercules Transit Center - Pinole - Richmond - BART, JR/Hercules Transit Center - Pinole - Richmond - BART"
27,791461,17,San Pablo Ave and Sunnyview Dr - Westbound,"C3/Hercules Transit Center - Pinole - Contra Costa College, JL/Hercules Transit Center - Pinole - Richmond - BART, JR/Hercules Transit Center - Pinole - Richmond - BART"
27,791520,18,San Pablo Ave and 4th Ave,"C3/Hercules Transit Center - Pinole - Contra Costa College, JL/Hercules Transit Center - Pinole - Richmond - BART, JR/Hercules Transit Center - Pinole - Richmond - BART"
27,791577,19,San Pablo Ave and Appian Way - Westbound,"16/Pinole Valley - Old Town Pinole - Richmond Parkway Transit Center, C3/Hercules Transit Center - Pinole - Contra Costa College, JL/Hercules Transit Center - Pinole - Richmond - BART, JR/Hercules Transit Center - Pinole - Richmond - BART"
27,791521,20,San Pablo Ave and Alverez Ave,"C3/Hercules Transit Center - Pinole - Contra Costa College, JL/Hercules Transit Center - Pinole - Richmond - BART, JR/Hercules Transit Center - Pinole - Richmond - BART"
27,791441,21,San Pablo and Oak Ridge Rd,"16/Pinole Valley - Old Town Pinole - Richmond Parkway Transit Center, C3/Hercules Transit Center - Pinole - Contra Costa College, JL/Hercules Transit Center - Pinole - Richmond - BART, JR/Hercules Transit Center - Pinole - Richmond - BART"
27,791462,22,San Pablo Ave and John St - Northbound,"19/Hercules - Pinole - Richmond Parkway Transit Center - Hilltop Mall, C3/Hercules Transit Center - Pinole - Contra Costa College, JL/Hercules Transit Center - Pinole - Richmond - BART, JPX/Hercules Transit Center - El Cerrito del Norte BART, JR/Hercules Transit Center - Pinole - Richmond - BART"
27,791473,23,San Pablo Ave and Hercules Ave - Northbound,"19/Hercules - Pinole - Richmond Parkway Transit Center - Hilltop Mall, C3/Hercules Transit Center - Pinole - Contra Costa College, JL/Hercules Transit Center - Pinole - Richmond - BART, JPX/Hercules Transit Center - El Cerrito del Norte BART, JR/Hercules Transit Center - Pinole - Richmond - BART"
27,836604,24,San Pablo Ave and Sycamore,"C3/Hercules Transit Center - Pinole - Contra Costa College, JL/Hercules Transit Center - Pinole - Richmond - BART, JPX/Hercules Transit Center - El Cerrito del Norte BART, JR/Hercules Transit Center - Pinole - Richmond - BART"
27,791617,25,7th St and Parker Ave,"15/Rodeo - Hercules (Viewpointe/North Shore Business Park), JL/Hercules Transit Center - Pinole - Richmond - BART, JR/Hercules Transit Center - Pinole - Richmond - BART"
27,791619,26,Willow Ave Shopping Center ,"15/Rodeo - Hercules (Viewpointe/North Shore Business Park), JL/Hercules Transit Center - Pinole - Richmond - BART, JR/Hercules Transit Center - Pinole - Richmond - BART"
27,791474,27,Willow Ave and Viewpointe Blvd - Southbound,"JL/Hercules Transit Center - Pinole - Richmond - BART, JR/Hercules Transit Center - Pinole - Richmond - BART"
27,791638,28,Hercules Transit Center,"10/Gems and Birds, 11/Crockett - Rodeo - Hercules, 12/Trees and Flowers, 15/Rodeo - Hercules (Viewpointe/North Shore Business Park), 19/Hercules - Pinole - Richmond Parkway Transit Center - Hilltop Mall, 30Z/Hercules Transit Center - Martinez, C3/Hercules Transit Center - Pinole - Contra Costa College, JL/Hercules Transit Center - Pinole - Richmond - BART, JPX/Hercules Transit Center - El Cerrito del Norte BART, JR/Hercules Transit Center - Pinole - Richmond - BART, JX/Hercules Transit Center - El Cerrito del Norte BART, Lynx/Rodeo/Hercules/San Francisco Transbay Terminal"
28,791469,1,El Cerrito Del Norte BART,"JL/Hercules Transit Center - Pinole - Richmond - BART, JPX/Hercules Transit Center - El Cerrito del Norte BART, JR/Hercules Transit Center - Pinole - Richmond - BART, JX/Hercules Transit Center - El Cerrito del Norte BART"
28,791648,2,Richmond Parkway Transit Center,"16/Pinole Valley - Old Town Pinole - Richmond Parkway Transit Center, 17/BayView - Richmond Parkway Transit Center, 18/Tara Hills - Richmond Parkway Transit Center - Hilltop Mall, JPX/Hercules Transit Center - El Cerrito del Norte BART, JR/Hercules Transit Center - Pinole - Richmond - BART"
28,791501,3,Blume Dr and Auto Plaza - Southbound,"18/Tara Hills - Richmond Parkway Transit Center - Hilltop Mall, 19/Hercules - Pinole - Richmond Parkway Transit Center - Hilltop Mall, JL/Hercules Transit Center - Pinole - Richmond - BART, JR/Hercules Transit Center - Pinole - Richmond - BART"
28,791559,4,Blume Dr and Klose Way,"18/Tara Hills - Richmond Parkway Transit Center - Hilltop Mall, 19/Hercules - Pinole - Richmond Parkway Transit Center - Hilltop Mall, JL/Hercules Transit Center - Pinole - Richmond - BART, JR/Hercules Transit Center - Pinole - Richmond - BART"
28,791449,5,Hilltop Mall - Westbound,"18/Tara Hills - Richmond Parkway Transit Center - Hilltop Mall, 19/Hercules - Pinole - Richmond Parkway Transit Center - Hilltop Mall, JL/Hercules Transit Center - Pinole - Richmond - BART, JR/Hercules Transit Center - Pinole - Richmond - BART"
28,791627,6,Blume Dr and Auto Plaza - Northbound,"18/Tara Hills - Richmond Parkway Transit Center - Hilltop Mall, 19/Hercules - Pinole - Richmond Parkway Transit Center - Hilltop Mall, JL/Hercules Transit Center - Pinole - Richmond - BART, JR/Hercules Transit Center - Pinole - Richmond - BART"
28,791564,7,Blume Dr and Klose Way - Hilltop Mall Sign,"18/Tara Hills - Richmond Parkway Transit Center - Hilltop Mall, JL/Hercules Transit Center - Pinole - Richmond - BART, JR/Hercules Transit Center - Pinole - Richmond - BART"
28,791615,8,Richmond Parkway Eastbound  - Hilltop Bayview,JR/Hercules Transit Center - Pinole - Richmond - BART
28,791470,9,Richmond Parkway and Lakeside Dr - Eastbound,"JL/Hercules Transit Center - Pinole - Richmond - BART, JR/Hercules Transit Center - Pinole - Richmond - BART"
28,791518,10,San Pablo Ave and Kay Rd,"18/Tara Hills - Richmond Parkway Transit Center - Hilltop Mall, C3/Hercules Transit Center - Pinole - Contra Costa College, JL/Hercules Transit Center - Pinole - Richmond - BART, JR/Hercules Transit Center - Pinole - Richmond - BART"
28,791458,11,San Pablo Ave and Crestwood Dr - Northbound,"18/Tara Hills - Richmond Parkway Transit Center - Hilltop Mall, C3/Hercules Transit Center - Pinole - Contra Costa College, JL/Hercules Transit Center - Pinole - Richmond - BART, JR/Hercules Transit Center - Pinole - Richmond - BART"
28,791459,12,San Pablo Ave and Shamrock Dr - Northbound,"18/Tara Hills - Richmond Parkway Transit Center - Hilltop Mall, C3/Hercules Transit Center - Pinole - Contra Costa College, JL/Hercules Transit Center - Pinole - Richmond - BART, JR/Hercules Transit Center - Pinole - Richmond - BART"
28,791460,13,San Pablo Ave and Tara Hills Dr - Northbound,"18/Tara Hills - Richmond Parkway Transit Center - Hilltop Mall, C3/Hercules Transit Center - Pinole - Contra Costa College, JL/Hercules Transit Center - Pinole - Richmond - BART, JR/Hercules Transit Center - Pinole - Richmond - BART"
28,791471,14,San Pablo Ave and Belmont Way,"C3/Hercules Transit Center - Pinole - Contra Costa College, JL/Hercules Transit Center - Pinole - Richmond - BART, JR/Hercules Transit Center - Pinole - Richmond - BART"
28,791519,15,San Pablo Ave and Crestview Dr,"C3/Hercules Transit Center - Pinole - Contra Costa College, JL/Hercules Transit Center - Pinole - Richmond - BART, JR/Hercules Transit Center - Pinole - Richmond - BART"
28,791571,16,San Pablo Ave and Meadow Ave,"17/BayView - Richmond Parkway Transit Center, C3/Hercules Transit Center - Pinole - Contra Costa College, JL/Hercules Transit Center - Pinole - Richmond - BART, JR/Hercules Transit Center - Pinole - Richmond - BART"
28,791461,17,San Pablo Ave and Sunnyview Dr - Westbound,"C3/Hercules Transit Center - Pinole - Contra Costa College, JL/Hercules Transit Center - Pinole - Richmond - BART, JR/Hercules Transit Center - Pinole - Richmond - BART"
28,791520,18,San Pablo Ave and 4th Ave,"C3/Hercules Transit Center - Pinole - Contra Costa College, JL/Hercules Transit Center - Pinole - Richmond - BART, JR/Hercules Transit Center - Pinole - Richmond - BART"
28,791577,19,San Pablo Ave and Appian Way - Westbound,"16/Pinole Valley - Old Town Pinole - Richmond Parkway Transit Center, C3/Hercules Transit Center - Pinole - Contra Costa College, JL/Hercules Transit Center - Pinole - Richmond - BART, JR/Hercules Transit Center - Pinole - Richmond - BART"
28,791521,20,San Pablo Ave and Alverez Ave,"C3/Hercules Transit Center - Pinole - Contra Costa College, JL/Hercules Transit Center - Pinole - Richmond - BART, JR/Hercules Transit Center - Pinole - Richmond - BART"
28,791441,21,San Pablo and Oak Ridge Rd,"16/Pinole Valley - Old Town Pinole - Richmond Parkway Transit Center, C3/Hercules Transit Center - Pinole - Contra Costa College, JL/Hercules Transit Center - Pinole - Richmond - BART, JR/Hercules Transit Center - Pinole - Richmond - BART"
28,791462,22,San Pablo Ave and John St - Northbound,"19/Hercules - Pinole - Richmond Parkway Transit Center - Hilltop Mall, C3/Hercules Transit Center - Pinole - Contra Costa College, JL/Hercules Transit Center - Pinole - Richmond - BART, JPX/Hercules Transit Center - El Cerrito del Norte BART, JR/Hercules Transit Center - Pinole - Richmond - BART"
28,791473,23,San Pablo Ave and Hercules Ave - Northbound,"19/Hercules - Pinole - Richmond Parkway Transit Center - Hilltop Mall, C3/Hercules Transit Center - Pinole - Contra Costa College, JL/Hercules Transit Center - Pinole - Richmond - BART, JPX/Hercules Transit Center - El Cerrito del Norte BART, JR/Hercules Transit Center - Pinole - Richmond - BART"
28,836604,24,San Pablo Ave and Sycamore,"C3/Hercules Transit Center - Pinole - Contra Costa College, JL/Hercules Transit Center - Pinole - Richmond - BART, JPX/Hercules Transit Center - El Cerrito del Norte BART, JR/Hercules Transit Center - Pinole - Richmond - BART"
28,791617,25,7th St and Parker Ave,"15/Rodeo - Hercules (Viewpointe/North Shore Business Park), JL/Hercules Transit Center - Pinole - Richmond - BART, JR/Hercules Transit Center - Pinole - Richmond - BART"
28,791619,26,Willow Ave Shopping Center ,"15/Rodeo - Hercules (Viewpointe/North Shore Business Park), JL/Hercules Transit Center - Pinole - Richmond - BART, JR/Hercules Transit Center - Pinole - Richmond - BART"
28,791474,27,Willow Ave and Viewpointe Blvd - Southbound,"JL/Hercules Transit Center - Pinole - Richmond - BART, JR/Hercules Transit Center - Pinole - Richmond - BART"
28,791638,28,Hercules Transit Center,"10/Gems and Birds, 11/Crockett - Rodeo - Hercules, 12/Trees and Flowers, 15/Rodeo - Hercules (Viewpointe/North Shore Business Park), 19/Hercules - Pinole - Richmond Parkway Transit Center - Hilltop Mall, 30Z/Hercules Transit Center - Martinez, C3/Hercules Transit Center - Pinole - Contra Costa College, JL/Hercules Transit Center - Pinole - Richmond - BART, JPX/Hercules Transit Center - El Cerrito del Norte BART, JR/Hercules Transit Center - Pinole - Richmond - BART, JX/Hercules Transit Center - El Cerrito del Norte BART, Lynx/Rodeo/Hercules/San Francisco Transbay Terminal"
29,791638,1,Hercules Transit Center,"10/Gems and Birds, 11/Crockett - Rodeo - Hercules, 12/Trees and Flowers, 15/Rodeo - Hercules (Viewpointe/North Shore Business Park), 19/Hercules - Pinole - Richmond Parkway Transit Center - Hilltop Mall, 30Z/Hercules Transit Center - Martinez, C3/Hercules Transit Center - Pinole - Contra Costa College, JL/Hercules Transit Center - Pinole - Richmond - BART, JPX/Hercules Transit Center - El Cerrito del Norte BART, JR/Hercules Transit Center - Pinole - Richmond - BART, JX/Hercules Transit Center - El Cerrito del Norte BART, Lynx/Rodeo/Hercules/San Francisco Transbay Terminal"
29,848767,2,San Pablo Ave and Tsushima ave,"C3/Hercules Transit Center - Pinole - Contra Costa College, JL/Hercules Transit Center - Pinole - Richmond - BART, JPX/Hercules Transit Center - El Cerrito del Norte BART, JR/Hercules Transit Center - Pinole - Richmond - BART"
29,844542,3,San Pablo and Hercules - Southbound,"19/Hercules - Pinole - Richmond Parkway Transit Center - Hilltop Mall, C3/Hercules Transit Center - Pinole - Contra Costa College, JL/Hercules Transit Center - Pinole - Richmond - BART, JPX/Hercules Transit Center - El Cerrito del Norte BART, JR/Hercules Transit Center - Pinole - Richmond - BART"
29,791451,4,San Pablo Ave and John St - Southbound,"19/Hercules - Pinole - Richmond Parkway Transit Center - Hilltop Mall, C3/Hercules Transit Center - Pinole - Contra Costa College, JL/Hercules Transit Center - Pinole - Richmond - BART, JPX/Hercules Transit Center - El Cerrito del Norte BART, JR/Hercules Transit Center - Pinole - Richmond - BART"
29,791438,5,San Pablo and Oak Ridge - Southbound,"16/Pinole Valley - Old Town Pinole - Richmond Parkway Transit Center, C3/Hercules Transit Center - Pinole - Contra Costa College, JL/Hercules Transit Center - Pinole - Richmond - BART, JR/Hercules Transit Center - Pinole - Richmond - BART"
29,791514,6,San Pablo Ave and Fern Ave,"16/Pinole Valley - Old Town Pinole - Richmond Parkway Transit Center, C3/Hercules Transit Center - Pinole - Contra Costa College, JL/Hercules Transit Center - Pinole - Richmond - BART, JR/Hercules Transit Center - Pinole - Richmond - BART"
29,791452,7,San Pablo Ave and Appian Way - Eastbound,"C3/Hercules Transit Center - Pinole - Contra Costa College, JL/Hercules Transit Center - Pinole - Richmond - BART, JR/Hercules Transit Center - Pinole - Richmond - BART"
29,791515,8,San Pablo Ave and Roble Ave,"C3/Hercules Transit Center - Pinole - Contra Costa College, JL/Hercules Transit Center - Pinole - Richmond - BART, JR/Hercules Transit Center - Pinole - Richmond - BART"
29,791453,9,San Pablo Ave and Sunnyview Dr - Eastbound,"17/BayView - Richmond Parkway Transit Center, C3/Hercules Transit Center - Pinole - Contra Costa College, JL/Hercules Transit Center - Pinole - Richmond - BART, JR/Hercules Transit Center - Pinole - Richmond - BART"
29,791516,10,San Pablo Ave - Sugar City Building Materials,"17/BayView - Richmond Parkway Transit Center, C3/Hercules Transit Center - Pinole - Contra Costa College, JL/Hercules Transit Center - Pinole - Richmond - BART, JR/Hercules Transit Center - Pinole - Richmond - BART"
29,791517,11,San Pablo Ave - Public Storage,"17/BayView - Richmond Parkway Transit Center, C3/Hercules Transit Center - Pinole - Contra Costa College, JL/Hercules Transit Center - Pinole - Richmond - BART, JR/Hercules Transit Center - Pinole - Richmond - BART"
29,791454,12,San Pablo Ave and Del Monte Dr,"C3/Hercules Transit Center - Pinole - Contra Costa College, JL/Hercules Transit Center - Pinole - Richmond - BART, JR/Hercules Transit Center - Pinole - Richmond - BART"
29,791455,13,San Pablo Ave and Tara Hills Dr - Southbound,"C3/Hercules Transit Center - Pinole - Contra Costa College, JL/Hercules Transit Center - Pinole - Richmond - BART, JR/Hercules Transit Center - Pinole - Richmond - BART"
29,791456,14,San Pablo Ave and Shamrock Dr - Southbound,"18/Tara Hills - Richmond Parkway Transit Center - Hilltop Mall, C3/Hercules Transit Center - Pinole - Contra Costa College, JL/Hercules Transit Center - Pinole - Richmond - BART, JR/Hercules Transit Center - Pinole - Richmond - BART"
29,791457,15,San Pablo Ave and Crestwood Dr - Southbound,"18/Tara Hills - Richmond Parkway Transit Center - Hilltop Mall, C3/Hercules Transit Center - Pinole - Contra Costa College, JL/Hercules Transit Center - Pinole - Richmond - BART, JR/Hercules Transit Center - Pinole - Richmond - BART"
29,791475,16,Richmond Parkway and Lakeside Dr - Westbound,"JL/Hercules Transit Center - Pinole - Richmond - BART, JR/Hercules Transit Center - Pinole - Richmond - BART"
29,791616,17,Richmond Parkway Westbound -  Hilltop Bayview,JR/Hercules Transit Center - Pinole - Richmond - BART
29,791648,18,Richmond Parkway Transit Center,"16/Pinole Valley - Old Town Pinole - Richmond Parkway Transit Center, 17/BayView - Richmond Parkway Transit Center, 18/Tara Hills - Richmond Parkway Transit Center - Hilltop Mall, JPX/Hercules Transit Center - El Cerrito del Norte BART, JR/Hercules Transit Center - Pinole - Richmond - BART"
29,791501,19,Blume Dr and Auto Plaza - Southbound,"18/Tara Hills - Richmond Parkway Transit Center - Hilltop Mall, 19/Hercules - Pinole - Richmond Parkway Transit Center - Hilltop Mall, JL/Hercules Transit Center - Pinole - Richmond - BART, JR/Hercules Transit Center - Pinole - Richmond - BART"
29,791559,20,Blume Dr and Klose Way,"18/Tara Hills - Richmond Parkway Transit Center - Hilltop Mall, 19/Hercules - Pinole - Richmond Parkway Transit Center - Hilltop Mall, JL/Hercules Transit Center - Pinole - Richmond - BART, JR/Hercules Transit Center - Pinole - Richmond - BART"
29,791449,21,Hilltop Mall - Westbound,"18/Tara Hills - Richmond Parkway Transit Center - Hilltop Mall, 19/Hercules - Pinole - Richmond Parkway Transit Center - Hilltop Mall, JL/Hercules Transit Center - Pinole - Richmond - BART, JR/Hercules Transit Center - Pinole - Richmond - BART"
29,791627,22,Blume Dr and Auto Plaza - Northbound,"18/Tara Hills - Richmond Parkway Transit Center - Hilltop Mall, 19/Hercules - Pinole - Richmond Parkway Transit Center - Hilltop Mall, JL/Hercules Transit Center - Pinole - Richmond - BART, JR/Hercules Transit Center - Pinole - Richmond - BART"
29,791564,23,Blume Dr and Klose Way - Hilltop Mall Sign,"18/Tara Hills - Richmond Parkway Transit Center - Hilltop Mall, JL/Hercules Transit Center - Pinole - Richmond - BART, JR/Hercules Transit Center - Pinole - Richmond - BART"
29,791469,24,El Cerrito Del Norte BART,"JL/Hercules Transit Center - Pinole - Richmond - BART, JPX/Hercules Transit Center - El Cerrito del Norte BART, JR/Hercules Transit Center - Pinole - Richmond - BART, JX/Hercules Transit Center - El Cerrito del Norte BART"
30,791638,1,Hercules Transit Center,"10/Gems and Birds, 11/Crockett - Rodeo - Hercules, 12/Trees and Flowers, 15/Rodeo - Hercules (Viewpointe/North Shore Business Park), 19/Hercules - Pinole - Richmond Parkway Transit Center - Hilltop Mall, 30Z/Hercules Transit Center - Martinez, C3/Hercules Transit Center - Pinole - Contra Costa College, JL/Hercules Transit Center - Pinole - Richmond - BART, JPX/Hercules Transit Center - El Cerrito del Norte BART, JR/Hercules Transit Center - Pinole - Richmond - BART, JX/Hercules Transit Center - El Cerrito del Norte BART, Lynx/Rodeo/Hercules/San Francisco Transbay Terminal"
30,848767,2,San Pablo Ave and Tsushima ave,"C3/Hercules Transit Center - Pinole - Contra Costa College, JL/Hercules Transit Center - Pinole - Richmond - BART, JPX/Hercules Transit Center - El Cerrito del Norte BART, JR/Hercules Transit Center - Pinole - Richmond - BART"
30,844542,3,San Pablo and Hercules - Southbound,"19/Hercules - Pinole - Richmond Parkway Transit Center - Hilltop Mall, C3/Hercules Transit Center - Pinole - Contra Costa College, JL/Hercules Transit Center - Pinole - Richmond - BART, JPX/Hercules Transit Center - El Cerrito del Norte BART, JR/Hercules Transit Center - Pinole - Richmond - BART"
30,791451,4,San Pablo Ave and John St - Southbound,"19/Hercules - Pinole - Richmond Parkway Transit Center - Hilltop Mall, C3/Hercules Transit Center - Pinole - Contra Costa College, JL/Hercules Transit Center - Pinole - Richmond - BART, JPX/Hercules Transit Center - El Cerrito del Norte BART, JR/Hercules Transit Center - Pinole - Richmond - BART"
30,791438,5,San Pablo and Oak Ridge - Southbound,"16/Pinole Valley - Old Town Pinole - Richmond Parkway Transit Center, C3/Hercules Transit Center - Pinole - Contra Costa College, JL/Hercules Transit Center - Pinole - Richmond - BART, JR/Hercules Transit Center - Pinole - Richmond - BART"
30,791514,6,San Pablo Ave and Fern Ave,"16/Pinole Valley - Old Town Pinole - Richmond Parkway Transit Center, C3/Hercules Transit Center - Pinole - Contra Costa College, JL/Hercules Transit Center - Pinole - Richmond - BART, JR/Hercules Transit Center - Pinole - Richmond - BART"
30,791452,7,San Pablo Ave and Appian Way - Eastbound,"C3/Hercules Transit Center - Pinole - Contra Costa College, JL/Hercules Transit Center - Pinole - Richmond - BART, JR/Hercules Transit Center - Pinole - Richmond - BART"
30,791515,8,San Pablo Ave and Roble Ave,"C3/Hercules Transit Center - Pinole - Contra Costa College, JL/Hercules Transit Center - Pinole - Richmond - BART, JR/Hercules Transit Center - Pinole - Richmond - BART"
30,791453,9,San Pablo Ave and Sunnyview Dr - Eastbound,"17/BayView - Richmond Parkway Transit Center, C3/Hercules Transit Center - Pinole - Contra Costa College, JL/Hercules Transit Center - Pinole - Richmond - BART, JR/Hercules Transit Center - Pinole - Richmond - BART"
30,791516,10,San Pablo Ave - Sugar City Building Materials,"17/BayView - Richmond Parkway Transit Center, C3/Hercules Transit Center - Pinole - Contra Costa College, JL/Hercules Transit Center - Pinole - Richmond - BART, JR/Hercules Transit Center - Pinole - Richmond - BART"
30,791517,11,San Pablo Ave - Public Storage,"17/BayView - Richmond Parkway Transit Center, C3/Hercules Transit Center - Pinole - Contra Costa College, JL/Hercules Transit Center - Pinole - Richmond - BART, JR/Hercules Transit Center - Pinole - Richmond - BART"
30,791454,12,San Pablo Ave and Del Monte Dr,"C3/Hercules Transit Center - Pinole - Contra Costa College, JL/Hercules Transit Center - Pinole - Richmond - BART, JR/Hercules Transit Center - Pinole - Richmond - BART"
30,791455,13,San Pablo Ave and Tara Hills Dr - Southbound,"C3/Hercules Transit Center - Pinole - Contra Costa College, JL/Hercules Transit Center - Pinole - Richmond - BART, JR/Hercules Transit Center - Pinole - Richmond - BART"
30,791456,14,San Pablo Ave and Shamrock Dr - Southbound,"18/Tara Hills - Richmond Parkway Transit Center - Hilltop Mall, C3/Hercules Transit Center - Pinole - Contra Costa College, JL/Hercules Transit Center - Pinole - Richmond - BART, JR/Hercules Transit Center - Pinole - Richmond - BART"
30,791457,15,San Pablo Ave and Crestwood Dr - Southbound,"18/Tara Hills - Richmond Parkway Transit Center - Hilltop Mall, C3/Hercules Transit Center - Pinole - Contra Costa College, JL/Hercules Transit Center - Pinole - Richmond - BART, JR/Hercules Transit Center - Pinole - Richmond - BART"
30,791475,16,Richmond Parkway and Lakeside Dr - Westbound,"JL/Hercules Transit Center - Pinole - Richmond - BART, JR/Hercules Transit Center - Pinole - Richmond - BART"
30,791616,17,Richmond Parkway Westbound -  Hilltop Bayview,JR/Hercules Transit Center - Pinole - Richmond - BART
30,791648,18,Richmond Parkway Transit Center,"16/Pinole Valley - Old Town Pinole - Richmond Parkway Transit Center, 17/BayView - Richmond Parkway Transit Center, 18/Tara Hills - Richmond Parkway Transit Center - Hilltop Mall, JPX/Hercules Transit Center - El Cerrito del Norte BART, JR/Hercules Transit Center - Pinole - Richmond - BART"
30,791501,19,Blume Dr and Auto Plaza - Southbound,"18/Tara Hills - Richmond Parkway Transit Center - Hilltop Mall, 19/Hercules - Pinole - Richmond Parkway Transit Center - Hilltop Mall, JL/Hercules Transit Center - Pinole - Richmond - BART, JR/Hercules Transit Center - Pinole - Richmond - BART"
30,791559,20,Blume Dr and Klose Way,"18/Tara Hills - Richmond Parkway Transit Center - Hilltop Mall, 19/Hercules - Pinole - Richmond Parkway Transit Center - Hilltop Mall, JL/Hercules Transit Center - Pinole - Richmond - BART, JR/Hercules Transit Center - Pinole - Richmond - BART"
30,791449,21,Hilltop Mall - Westbound,"18/Tara Hills - Richmond Parkway Transit Center - Hilltop Mall, 19/Hercules - Pinole - Richmond Parkway Transit Center - Hilltop Mall, JL/Hercules Transit Center - Pinole - Richmond - BART, JR/Hercules Transit Center - Pinole - Richmond - BART"
30,791627,22,Blume Dr and Auto Plaza - Northbound,"18/Tara Hills - Richmond Parkway Transit Center - Hilltop Mall, 19/Hercules - Pinole - Richmond Parkway Transit Center - Hilltop Mall, JL/Hercules Transit Center - Pinole - Richmond - BART, JR/Hercules Transit Center - Pinole - Richmond - BART"
30,791564,23,Blume Dr and Klose Way - Hilltop Mall Sign,"18/Tara Hills - Richmond Parkway Transit Center - Hilltop Mall, JL/Hercules Transit Center - Pinole - Richmond - BART, JR/Hercules Transit Center - Pinole - Richmond - BART"
30,791469,24,El Cerrito Del Norte BART,"JL/Hercules Transit Center - Pinole - Richmond - BART, JPX/Hercules Transit Center - El Cerrito del Norte BART, JR/Hercules Transit Center - Pinole - Richmond - BART, JX/Hercules Transit Center - El Cerrito del Norte BART"
31,791638,1,Hercules Transit Center,"10/Gems and Birds, 11/Crockett - Rodeo - Hercules, 12/Trees and Flowers, 15/Rodeo - Hercules (Viewpointe/North Shore Business Park), 19/Hercules - Pinole - Richmond Parkway Transit Center - Hilltop Mall, 30Z/Hercules Transit Center - Martinez, C3/Hercules Transit Center - Pinole - Contra Costa College, JL/Hercules Transit Center - Pinole - Richmond - BART, JPX/Hercules Transit Center - El Cerrito del Norte BART, JR/Hercules Transit Center - Pinole - Richmond - BART, JX/Hercules Transit Center - El Cerrito del Norte BART, Lynx/Rodeo/Hercules/San Francisco Transbay Terminal"
31,848767,2,San Pablo Ave and Tsushima ave,"C3/Hercules Transit Center - Pinole - Contra Costa College, JL/Hercules Transit Center - Pinole - Richmond - BART, JPX/Hercules Transit Center - El Cerrito del Norte BART, JR/Hercules Transit Center - Pinole - Richmond - BART"
31,844542,3,San Pablo and Hercules - Southbound,"19/Hercules - Pinole - Richmond Parkway Transit Center - Hilltop Mall, C3/Hercules Transit Center - Pinole - Contra Costa College, JL/Hercules Transit Center - Pinole - Richmond - BART, JPX/Hercules Transit Center - El Cerrito del Norte BART, JR/Hercules Transit Center - Pinole - Richmond - BART"
31,791451,4,San Pablo Ave and John St - Southbound,"19/Hercules - Pinole - Richmond Parkway Transit Center - Hilltop Mall, C3/Hercules Transit Center - Pinole - Contra Costa College, JL/Hercules Transit Center - Pinole - Richmond - BART, JPX/Hercules Transit Center - El Cerrito del Norte BART, JR/Hercules Transit Center - Pinole - Richmond - BART"
31,791438,5,San Pablo and Oak Ridge - Southbound,"16/Pinole Valley - Old Town Pinole - Richmond Parkway Transit Center, C3/Hercules Transit Center - Pinole - Contra Costa College, JL/Hercules Transit Center - Pinole - Richmond - BART, JR/Hercules Transit Center - Pinole - Richmond - BART"
31,791514,6,San Pablo Ave and Fern Ave,"16/Pinole Valley - Old Town Pinole - Richmond Parkway Transit Center, C3/Hercules Transit Center - Pinole - Contra Costa College, JL/Hercules Transit Center - Pinole - Richmond - BART, JR/Hercules Transit Center - Pinole - Richmond - BART"
31,791452,7,San Pablo Ave and Appian Way - Eastbound,"C3/Hercules Transit Center - Pinole - Contra Costa College, JL/Hercules Transit Center - Pinole - Richmond - BART, JR/Hercules Transit Center - Pinole - Richmond - BART"
31,791515,8,San Pablo Ave and Roble Ave,"C3/Hercules Transit Center - Pinole - Contra Costa College, JL/Hercules Transit Center - Pinole - Richmond - BART, JR/Hercules Transit Center - Pinole - Richmond - BART"
31,791453,9,San Pablo Ave and Sunnyview Dr - Eastbound,"17/BayView - Richmond Parkway Transit Center, C3/Hercules Transit Center - Pinole - Contra Costa College, JL/Hercules Transit Center - Pinole - Richmond - BART, JR/Hercules Transit Center - Pinole - Richmond - BART"
31,791516,10,San Pablo Ave - Sugar City Building Materials,"17/BayView - Richmond Parkway Transit Center, C3/Hercules Transit Center - Pinole - Contra Costa College, JL/Hercules Transit Center - Pinole - Richmond - BART, JR/Hercules Transit Center - Pinole - Richmond - BART"
31,791517,11,San Pablo Ave - Public Storage,"17/BayView - Richmond Parkway Transit Center, C3/Hercules Transit Center - Pinole - Contra Costa College, JL/Hercules Transit Center - Pinole - Richmond - BART, JR/Hercules Transit Center - Pinole - Richmond - BART"
31,791454,12,San Pablo Ave and Del Monte Dr,"C3/Hercules Transit Center - Pinole - Contra Costa College, JL/Hercules Transit Center - Pinole - Richmond - BART, JR/Hercules Transit Center - Pinole - Richmond - BART"
31,791455,13,San Pablo Ave and Tara Hills Dr - Southbound,"C3/Hercules Transit Center - Pinole - Contra Costa College, JL/Hercules Transit Center - Pinole - Richmond - BART, JR/Hercules Transit Center - Pinole - Richmond - BART"
31,791456,14,San Pablo Ave and Shamrock Dr - Southbound,"18/Tara Hills - Richmond Parkway Transit Center - Hilltop Mall, C3/Hercules Transit Center - Pinole - Contra Costa College, JL/Hercules Transit Center - Pinole - Richmond - BART, JR/Hercules Transit Center - Pinole - Richmond - BART"
31,791457,15,San Pablo Ave and Crestwood Dr - Southbound,"18/Tara Hills - Richmond Parkway Transit Center - Hilltop Mall, C3/Hercules Transit Center - Pinole - Contra Costa College, JL/Hercules Transit Center - Pinole - Richmond - BART, JR/Hercules Transit Center - Pinole - Richmond - BART"
31,791475,16,Richmond Parkway and Lakeside Dr - Westbound,"JL/Hercules Transit Center - Pinole - Richmond - BART, JR/Hercules Transit Center - Pinole - Richmond - BART"
31,791616,17,Richmond Parkway Westbound -  Hilltop Bayview,JR/Hercules Transit Center - Pinole - Richmond - BART
31,791648,18,Richmond Parkway Transit Center,"16/Pinole Valley - Old Town Pinole - Richmond Parkway Transit Center, 17/BayView - Richmond Parkway Transit Center, 18/Tara Hills - Richmond Parkway Transit Center - Hilltop Mall, JPX/Hercules Transit Center - El Cerrito del Norte BART, JR/Hercules Transit Center - Pinole - Richmond - BART"
31,791501,19,Blume Dr and Auto Plaza - Southbound,"18/Tara Hills - Richmond Parkway Transit Center - Hilltop Mall, 19/Hercules - Pinole - Richmond Parkway Transit Center - Hilltop Mall, JL/Hercules Transit Center - Pinole - Richmond - BART, JR/Hercules Transit Center - Pinole - Richmond - BART"
31,791559,20,Blume Dr and Klose Way,"18/Tara Hills - Richmond Parkway Transit Center - Hilltop Mall, 19/Hercules - Pinole - Richmond Parkway Transit Center - Hilltop Mall, JL/Hercules Transit Center - Pinole - Richmond - BART, JR/Hercules Transit Center - Pinole - Richmond - BART"
31,791449,21,Hilltop Mall - Westbound,"18/Tara Hills - Richmond Parkway Transit Center - Hilltop Mall, 19/Hercules - Pinole - Richmond Parkway Transit Center - Hilltop Mall, JL/Hercules Transit Center - Pinole - Richmond - BART, JR/Hercules Transit Center - Pinole - Richmond - BART"
31,791627,22,Blume Dr and Auto Plaza - Northbound,"18/Tara Hills - Richmond Parkway Transit Center - Hilltop Mall, 19/Hercules - Pinole - Richmond Parkway Transit Center - Hilltop Mall, JL/Hercules Transit Center - Pinole - Richmond - BART, JR/Hercules Transit Center - Pinole - Richmond - BART"
31,791564,23,Blume Dr and Klose Way - Hilltop Mall Sign,"18/Tara Hills - Richmond Parkway Transit Center - Hilltop Mall, JL/Hercules Transit Center - Pinole - Richmond - BART, JR/Hercules Transit Center - Pinole - Richmond - BART"
31,791469,24,El Cerrito Del Norte BART,"JL/Hercules Transit Center - Pinole - Richmond - BART, JPX/Hercules Transit Center - El Cerrito del Norte BART, JR/Hercules Transit Center - Pinole - Richmond - BART, JX/Hercules Transit Center - El Cerrito del Norte BART"
32,791469,1,El Cerrito Del Norte BART,"JL/Hercules Transit Center - Pinole - Richmond - BART, JPX/Hercules Transit Center - El Cerrito del Norte BART, JR/Hercules Transit Center - Pinole - Richmond - BART, JX/Hercules Transit Center - El Cerrito del Norte BART"
32,791501,2,Blume Dr and Auto Plaza - Southbound,"18/Tara Hills - Richmond Parkway Transit Center - Hilltop Mall, 19/Hercules - Pinole - Richmond Parkway Transit Center - Hilltop Mall, JL/Hercules Transit Center - Pinole - Richmond - BART, JR/Hercules Transit Center - Pinole - Richmond - BART"
32,791559,3,Blume Dr and Klose Way,"18/Tara Hills - Richmond Parkway Transit Center - Hilltop Mall, 19/Hercules - Pinole - Richmond Parkway Transit Center - Hilltop Mall, JL/Hercules Transit Center - Pinole - Richmond - BART, JR/Hercules Transit Center - Pinole - Richmond - BART"
32,791449,4,Hilltop Mall - Westbound,"18/Tara Hills - Richmond Parkway Transit Center - Hilltop Mall, 19/Hercules - Pinole - Richmond Parkway Transit Center - Hilltop Mall, JL/Hercules Transit Center - Pinole - Richmond - BART, JR/Hercules Transit Center - Pinole - Richmond - BART"
32,791498,5,Hilltop Dr and Robert Miller Dr,"19/Hercules - Pinole - Richmond Parkway Transit Center - Hilltop Mall, JL/Hercules Transit Center - Pinole - Richmond - BART"
32,791621,6,Hilltop Dr and Hillview Dr,"18/Tara Hills - Richmond Parkway Transit Center - Hilltop Mall, JL/Hercules Transit Center - Pinole - Richmond - BART"
32,791613,7,4050 Lakeside Ave,JL/Hercules Transit Center - Pinole - Richmond - BART
32,791470,8,Richmond Parkway and Lakeside Dr - Eastbound,"JL/Hercules Transit Center - Pinole - Richmond - BART, JR/Hercules Transit Center - Pinole - Richmond - BART"
32,791518,9,San Pablo Ave and Kay Rd,"18/Tara Hills - Richmond Parkway Transit Center - Hilltop Mall, C3/Hercules Transit Center - Pinole - Contra Costa College, JL/Hercules Transit Center - Pinole - Richmond - BART, JR/Hercules Transit Center - Pinole - Richmond - BART"
32,791458,10,San Pablo Ave and Crestwood Dr - Northbound,"18/Tara Hills - Richmond Parkway Transit Center - Hilltop Mall, C3/Hercules Transit Center - Pinole - Contra Costa College, JL/Hercules Transit Center - Pinole - Richmond - BART, JR/Hercules Transit Center - Pinole - Richmond - BART"
32,791459,11,San Pablo Ave and Shamrock Dr - Northbound,"18/Tara Hills - Richmond Parkway Transit Center - Hilltop Mall, C3/Hercules Transit Center - Pinole - Contra Costa College, JL/Hercules Transit Center - Pinole - Richmond - BART, JR/Hercules Transit Center - Pinole - Richmond - BART"
32,791460,12,San Pablo Ave and Tara Hills Dr - Northbound,"18/Tara Hills - Richmond Parkway Transit Center - Hilltop Mall, C3/Hercules Transit Center - Pinole - Contra Costa College, JL/Hercules Transit Center - Pinole - Richmond - BART, JR/Hercules Transit Center - Pinole - Richmond - BART"
32,791471,13,San Pablo Ave and Belmont Way,"C3/Hercules Transit Center - Pinole - Contra Costa College, JL/Hercules Transit Center - Pinole - Richmond - BART, JR/Hercules Transit Center - Pinole - Richmond - BART"
32,791519,14,San Pablo Ave and Crestview Dr,"C3/Hercules Transit Center - Pinole - Contra Costa College, JL/Hercules Transit Center - Pinole - Richmond - BART, JR/Hercules Transit Center - Pinole - Richmond - BART"
32,791571,15,San Pablo Ave and Meadow Ave,"17/BayView - Richmond Parkway Transit Center, C3/Hercules Transit Center - Pinole - Contra Costa College, JL/Hercules Transit Center - Pinole - Richmond - BART, JR/Hercules Transit Center - Pinole - Richmond - BART"
32,791461,16,San Pablo Ave and Sunnyview Dr - Westbound,"C3/Hercules Transit Center - Pinole - Contra Costa College, JL/Hercules Transit Center - Pinole - Richmond - BART, JR/Hercules Transit Center - Pinole - Richmond - BART"
32,791520,17,San Pablo Ave and 4th Ave,"C3/Hercules Transit Center - Pinole - Contra Costa College, JL/Hercules Transit Center - Pinole - Richmond - BART, JR/Hercules Transit Center - Pinole - Richmond - BART"
32,791577,18,San Pablo Ave and Appian Way - Westbound,"16/Pinole Valley - Old Town Pinole - Richmond Parkway Transit Center, C3/Hercules Transit Center - Pinole - Contra Costa College, JL/Hercules Transit Center - Pinole - Richmond - BART, JR/Hercules Transit Center - Pinole - Richmond - BART"
32,791521,19,San Pablo Ave and Alverez Ave,"C3/Hercules Transit Center - Pinole - Contra Costa College, JL/Hercules Transit Center - Pinole - Richmond - BART, JR/Hercules Transit Center - Pinole - Richmond - BART"
32,791441,20,San Pablo and Oak Ridge Rd,"16/Pinole Valley - Old Town Pinole - Richmond Parkway Transit Center, C3/Hercules Transit Center - Pinole - Contra Costa College, JL/Hercules Transit Center - Pinole - Richmond - BART, JR/Hercules Transit Center - Pinole - Richmond - BART"
32,791494,21,Tennant Ave and Peach St - Southbound,"16/Pinole Valley - Old Town Pinole - Richmond Parkway Transit Center, 19/Hercules - Pinole - Richmond Parkway Transit Center - Hilltop Mall, JL/Hercules Transit Center - Pinole - Richmond - BART, JPX/Hercules Transit Center - El Cerrito del Norte BART"
32,791620,22,Pinole Valley Shopping Center,"16/Pinole Valley - Old Town Pinole - Richmond Parkway Transit Center, JL/Hercules Transit Center - Pinole - Richmond - BART"
32,791472,23,Pinole Valley High School,"JL/Hercules Transit Center - Pinole - Richmond - BART, JR/Hercules Transit Center - Pinole - Richmond - BART"
33,791472,1,Pinole Valley High School,"JL/Hercules Transit Center - Pinole - Richmond - BART, JR/Hercules Transit Center - Pinole - Richmond - BART"
33,791437,2,Pinole Valley Rd and Henry Ave - Northbound,"16/Pinole Valley - Old Town Pinole - Richmond Parkway Transit Center, 19/Hercules - Pinole - Richmond Parkway Transit Center - Hilltop Mall, JL/Hercules Transit Center - Pinole - Richmond - BART, JPX/Hercules Transit Center - El Cerrito del Norte BART, JR/Hercules Transit Center - Pinole - Richmond - BART"
33,791502,3,Tennant Ave and Peach St - Northbound,"16/Pinole Valley - Old Town Pinole - Richmond Parkway Transit Center, 19/Hercules - Pinole - Richmond Parkway Transit Center - Hilltop Mall, JL/Hercules Transit Center - Pinole - Richmond - BART, JPX/Hercules Transit Center - El Cerrito del Norte BART, JR/Hercules Transit Center - Pinole - Richmond - BART"
33,791438,4,San Pablo and Oak Ridge - Southbound,"16/Pinole Valley - Old Town Pinole - Richmond Parkway Transit Center, C3/Hercules Transit Center - Pinole - Contra Costa College, JL/Hercules Transit Center - Pinole - Richmond - BART, JR/Hercules Transit Center - Pinole - Richmond - BART"
33,791514,5,San Pablo Ave and Fern Ave,"16/Pinole Valley - Old Town Pinole - Richmond Parkway Transit Center, C3/Hercules Transit Center - Pinole - Contra Costa College, JL/Hercules Transit Center - Pinole - Richmond - BART, JR/Hercules Transit Center - Pinole - Richmond - BART"
33,791452,6,San Pablo Ave and Appian Way - Eastbound,"C3/Hercules Transit Center - Pinole - Contra Costa College, JL/Hercules Transit Center - Pinole - Richmond - BART, JR/Hercules Transit Center - Pinole - Richmond - BART"
33,791515,7,San Pablo Ave and Roble Ave,"C3/Hercules Transit Center - Pinole - Contra Costa College, JL/Hercules Transit Center - Pinole - Richmond - BART, JR/Hercules Transit Center - Pinole - Richmond - BART"
33,791453,8,San Pablo Ave and Sunnyview Dr - Eastbound,"17/BayView - Richmond Parkway Transit Center, C3/Hercules Transit Center - Pinole - Contra Costa College, JL/Hercules Transit Center - Pinole - Richmond - BART, JR/Hercules Transit Center - Pinole - Richmond - BART"
33,791516,9,San Pablo Ave - Sugar City Building Materials,"17/BayView - Richmond Parkway Transit Center, C3/Hercules Transit Center - Pinole - Contra Costa College, JL/Hercules Transit Center - Pinole - Richmond - BART, JR/Hercules Transit Center - Pinole - Richmond - BART"
33,791517,10,San Pablo Ave - Public Storage,"17/BayView - Richmond Parkway Transit Center, C3/Hercules Transit Center - Pinole - Contra Costa College, JL/Hercules Transit Center - Pinole - Richmond - BART, JR/Hercules Transit Center - Pinole - Richmond - BART"
33,791454,11,San Pablo Ave and Del Monte Dr,"C3/Hercules Transit Center - Pinole - Contra Costa College, JL/Hercules Transit Center - Pinole - Richmond - BART, JR/Hercules Transit Center - Pinole - Richmond - BART"
33,791455,12,San Pablo Ave and Tara Hills Dr - Southbound,"C3/Hercules Transit Center - Pinole - Contra Costa College, JL/Hercules Transit Center - Pinole - Richmond - BART, JR/Hercules Transit Center - Pinole - Richmond - BART"
33,791456,13,San Pablo Ave and Shamrock Dr - Southbound,"18/Tara Hills - Richmond Parkway Transit Center - Hilltop Mall, C3/Hercules Transit Center - Pinole - Contra Costa College, JL/Hercules Transit Center - Pinole - Richmond - BART, JR/Hercules Transit Center - Pinole - Richmond - BART"
33,791457,14,San Pablo Ave and Crestwood Dr - Southbound,"18/Tara Hills - Richmond Parkway Transit Center - Hilltop Mall, C3/Hercules Transit Center - Pinole - Contra Costa College, JL/Hercules Transit Center - Pinole - Richmond - BART, JR/Hercules Transit Center - Pinole - Richmond - BART"
33,791475,15,Richmond Parkway and Lakeside Dr - Westbound,"JL/Hercules Transit Center - Pinole - Richmond - BART, JR/Hercules Transit Center - Pinole - Richmond - BART"
33,791612,16,4075 Lakeside Ave,JL/Hercules Transit Center - Pinole - Richmond - BART
33,791614,17,Lakeside Dr and Research Dr,JL/Hercules Transit Center - Pinole - Richmond - BART
33,791563,18,Hillview Dr and Hilltop Dr,"18/Tara Hills - Richmond Parkway Transit Center - Hilltop Mall, JL/Hercules Transit Center - Pinole - Richmond - BART"
33,791449,19,Hilltop Mall - Westbound,"18/Tara Hills - Richmond Parkway Transit Center - Hilltop Mall, 19/Hercules - Pinole - Richmond Parkway Transit Center - Hilltop Mall, JL/Hercules Transit Center - Pinole - Richmond - BART, JR/Hercules Transit Center - Pinole - Richmond - BART"
33,791627,20,Blume Dr and Auto Plaza - Northbound,"18/Tara Hills - Richmond Parkway Transit Center - Hilltop Mall, 19/Hercules - Pinole - Richmond Parkway Transit Center - Hilltop Mall, JL/Hercules Transit Center - Pinole - Richmond - BART, JR/Hercules Transit Center - Pinole - Richmond - BART"
33,791564,21,Blume Dr and Klose Way - Hilltop Mall Sign,"18/Tara Hills - Richmond Parkway Transit Center - Hilltop Mall, JL/Hercules Transit Center - Pinole - Richmond - BART, JR/Hercules Transit Center - Pinole - Richmond - BART"
33,791469,22,El Cerrito Del Norte BART,"JL/Hercules Transit Center - Pinole - Richmond - BART, JPX/Hercules Transit Center - El Cerrito del Norte BART, JR/Hercules Transit Center - Pinole - Richmond - BART, JX/Hercules Transit Center - El Cerrito del Norte BART"
34,791472,1,Pinole Valley High School,"JL/Hercules Transit Center - Pinole - Richmond - BART, JR/Hercules Transit Center - Pinole - Richmond - BART"
34,791437,2,Pinole Valley Rd and Henry Ave - Northbound,"16/Pinole Valley - Old Town Pinole - Richmond Parkway Transit Center, 19/Hercules - Pinole - Richmond Parkway Transit Center - Hilltop Mall, JL/Hercules Transit Center - Pinole - Richmond - BART, JPX/Hercules Transit Center - El Cerrito del Norte BART, JR/Hercules Transit Center - Pinole - Richmond - BART"
34,791502,3,Tennant Ave and Peach St - Northbound,"16/Pinole Valley - Old Town Pinole - Richmond Parkway Transit Center, 19/Hercules - Pinole - Richmond Parkway Transit Center - Hilltop Mall, JL/Hercules Transit Center - Pinole - Richmond - BART, JPX/Hercules Transit Center - El Cerrito del Norte BART, JR/Hercules Transit Center - Pinole - Richmond - BART"
34,791438,4,San Pablo and Oak Ridge - Southbound,"16/Pinole Valley - Old Town Pinole - Richmond Parkway Transit Center, C3/Hercules Transit Center - Pinole - Contra Costa College, JL/Hercules Transit Center - Pinole - Richmond - BART, JR/Hercules Transit Center - Pinole - Richmond - BART"
34,791514,5,San Pablo Ave and Fern Ave,"16/Pinole Valley - Old Town Pinole - Richmond Parkway Transit Center, C3/Hercules Transit Center - Pinole - Contra Costa College, JL/Hercules Transit Center - Pinole - Richmond - BART, JR/Hercules Transit Center - Pinole - Richmond - BART"
34,791452,6,San Pablo Ave and Appian Way - Eastbound,"C3/Hercules Transit Center - Pinole - Contra Costa College, JL/Hercules Transit Center - Pinole - Richmond - BART, JR/Hercules Transit Center - Pinole - Richmond - BART"
34,791515,7,San Pablo Ave and Roble Ave,"C3/Hercules Transit Center - Pinole - Contra Costa College, JL/Hercules Transit Center - Pinole - Richmond - BART, JR/Hercules Transit Center - Pinole - Richmond - BART"
34,791453,8,San Pablo Ave and Sunnyview Dr - Eastbound,"17/BayView - Richmond Parkway Transit Center, C3/Hercules Transit Center - Pinole - Contra Costa College, JL/Hercules Transit Center - Pinole - Richmond - BART, JR/Hercules Transit Center - Pinole - Richmond - BART"
34,791516,9,San Pablo Ave - Sugar City Building Materials,"17/BayView - Richmond Parkway Transit Center, C3/Hercules Transit Center - Pinole - Contra Costa College, JL/Hercules Transit Center - Pinole - Richmond - BART, JR/Hercules Transit Center - Pinole - Richmond - BART"
34,791517,10,San Pablo Ave - Public Storage,"17/BayView - Richmond Parkway Transit Center, C3/Hercules Transit Center - Pinole - Contra Costa College, JL/Hercules Transit Center - Pinole - Richmond - BART, JR/Hercules Transit Center - Pinole - Richmond - BART"
34,791454,11,San Pablo Ave and Del Monte Dr,"C3/Hercules Transit Center - Pinole - Contra Costa College, JL/Hercules Transit Center - Pinole - Richmond - BART, JR/Hercules Transit Center - Pinole - Richmond - BART"
34,791455,12,San Pablo Ave and Tara Hills Dr - Southbound,"C3/Hercules Transit Center - Pinole - Contra Costa College, JL/Hercules Transit Center - Pinole - Richmond - BART, JR/Hercules Transit Center - Pinole - Richmond - BART"
34,791456,13,San Pablo Ave and Shamrock Dr - Southbound,"18/Tara Hills - Richmond Parkway Transit Center - Hilltop Mall, C3/Hercules Transit Center - Pinole - Contra Costa College, JL/Hercules Transit Center - Pinole - Richmond - BART, JR/Hercules Transit Center - Pinole - Richmond - BART"
34,791457,14,San Pablo Ave and Crestwood Dr - Southbound,"18/Tara Hills - Richmond Parkway Transit Center - Hilltop Mall, C3/Hercules Transit Center - Pinole - Contra Costa College, JL/Hercules Transit Center - Pinole - Richmond - BART, JR/Hercules Transit Center - Pinole - Richmond - BART"
34,791475,15,Richmond Parkway and Lakeside Dr - Westbound,"JL/Hercules Transit Center - Pinole - Richmond - BART, JR/Hercules Transit Center - Pinole - Richmond - BART"
34,791612,16,4075 Lakeside Ave,JL/Hercules Transit Center - Pinole - Richmond - BART
34,791614,17,Lakeside Dr and Research Dr,JL/Hercules Transit Center - Pinole - Richmond - BART
34,791563,18,Hillview Dr and Hilltop Dr,"18/Tara Hills - Richmond Parkway Transit Center - Hilltop Mall, JL/Hercules Transit Center - Pinole - Richmond - BART"
34,791449,19,Hilltop Mall - Westbound,"18/Tara Hills - Richmond Parkway Transit Center - Hilltop Mall, 19/Hercules - Pinole - Richmond Parkway Transit Center - Hilltop Mall, JL/Hercules Transit Center - Pinole - Richmond - BART, JR/Hercules Transit Center - Pinole - Richmond - BART"
34,791627,20,Blume Dr and Auto Plaza - Northbound,"18/Tara Hills - Richmond Parkway Transit Center - Hilltop Mall, 19/Hercules - Pinole - Richmond Parkway Transit Center - Hilltop Mall, JL/Hercules Transit Center - Pinole - Richmond - BART, JR/Hercules Transit Center - Pinole - Richmond - BART"
34,791564,21,Blume Dr and Klose Way - Hilltop Mall Sign,"18/Tara Hills - Richmond Parkway Transit Center - Hilltop Mall, JL/Hercules Transit Center - Pinole - Richmond - BART, JR/Hercules Transit Center - Pinole - Richmond - BART"
34,791469,22,El Cerrito Del Norte BART,"JL/Hercules Transit Center - Pinole - Richmond - BART, JPX/Hercules Transit Center - El Cerrito del Norte BART, JR/Hercules Transit Center - Pinole - Richmond - BART, JX/Hercules Transit Center - El Cerrito del Norte BART"
35,791469,1,El Cerrito Del Norte BART,"JL/Hercules Transit Center - Pinole - Richmond - BART, JPX/Hercules Transit Center - El Cerrito del Norte BART, JR/Hercules Transit Center - Pinole - Richmond - BART, JX/Hercules Transit Center - El Cerrito del Norte BART"
35,791648,2,Richmond Parkway Transit Center,"16/Pinole Valley - Old Town Pinole - Richmond Parkway Transit Center, 17/BayView - Richmond Parkway Transit Center, 18/Tara Hills - Richmond Parkway Transit Center - Hilltop Mall, JPX/Hercules Transit Center - El Cerrito del Norte BART, JR/Hercules Transit Center - Pinole - Richmond - BART"
35,791615,3,Richmond Parkway Eastbound  - Hilltop Bayview,JR/Hercules Transit Center - Pinole - Richmond - BART
35,791470,4,Richmond Parkway and Lakeside Dr - Eastbound,"JL/Hercules Transit Center - Pinole - Richmond - BART, JR/Hercules Transit Center - Pinole - Richmond - BART"
35,791518,5,San Pablo Ave and Kay Rd,"18/Tara Hills - Richmond Parkway Transit Center - Hilltop Mall, C3/Hercules Transit Center - Pinole - Contra Costa College, JL/Hercules Transit Center - Pinole - Richmond - BART, JR/Hercules Transit Center - Pinole - Richmond - BART"
35,791458,6,San Pablo Ave and Crestwood Dr - Northbound,"18/Tara Hills - Richmond Parkway Transit Center - Hilltop Mall, C3/Hercules Transit Center - Pinole - Contra Costa College, JL/Hercules Transit Center - Pinole - Richmond - BART, JR/Hercules Transit Center - Pinole - Richmond - BART"
35,791459,7,San Pablo Ave and Shamrock Dr - Northbound,"18/Tara Hills - Richmond Parkway Transit Center - Hilltop Mall, C3/Hercules Transit Center - Pinole - Contra Costa College, JL/Hercules Transit Center - Pinole - Richmond - BART, JR/Hercules Transit Center - Pinole - Richmond - BART"
35,791460,8,San Pablo Ave and Tara Hills Dr - Northbound,"18/Tara Hills - Richmond Parkway Transit Center - Hilltop Mall, C3/Hercules Transit Center - Pinole - Contra Costa College, JL/Hercules Transit Center - Pinole - Richmond - BART, JR/Hercules Transit Center - Pinole - Richmond - BART"
35,791471,9,San Pablo Ave and Belmont Way,"C3/Hercules Transit Center - Pinole - Contra Costa College, JL/Hercules Transit Center - Pinole - Richmond - BART, JR/Hercules Transit Center - Pinole - Richmond - BART"
35,791519,10,San Pablo Ave and Crestview Dr,"C3/Hercules Transit Center - Pinole - Contra Costa College, JL/Hercules Transit Center - Pinole - Richmond - BART, JR/Hercules Transit Center - Pinole - Richmond - BART"
35,791571,11,San Pablo Ave and Meadow Ave,"17/BayView - Richmond Parkway Transit Center, C3/Hercules Transit Center - Pinole - Contra Costa College, JL/Hercules Transit Center - Pinole - Richmond - BART, JR/Hercules Transit Center - Pinole - Richmond - BART"
35,791461,12,San Pablo Ave and Sunnyview Dr - Westbound,"C3/Hercules Transit Center - Pinole - Contra Costa College, JL/Hercules Transit Center - Pinole - Richmond - BART, JR/Hercules Transit Center - Pinole - Richmond - BART"
35,791520,13,San Pablo Ave and 4th Ave,"C3/Hercules Transit Center - Pinole - Contra Costa College, JL/Hercules Transit Center - Pinole - Richmond - BART, JR/Hercules Transit Center - Pinole - Richmond - BART"
35,791577,14,San Pablo Ave and Appian Way - Westbound,"16/Pinole Valley - Old Town Pinole - Richmond Parkway Transit Center, C3/Hercules Transit Center - Pinole - Contra Costa College, JL/Hercules Transit Center - Pinole - Richmond - BART, JR/Hercules Transit Center - Pinole - Richmond - BART"
35,791521,15,San Pablo Ave and Alverez Ave,"C3/Hercules Transit Center - Pinole - Contra Costa College, JL/Hercules Transit Center - Pinole - Richmond - BART, JR/Hercules Transit Center - Pinole - Richmond - BART"
35,791441,16,San Pablo and Oak Ridge Rd,"16/Pinole Valley - Old Town Pinole - Richmond Parkway Transit Center, C3/Hercules Transit Center - Pinole - Contra Costa College, JL/Hercules Transit Center - Pinole - Richmond - BART, JR/Hercules Transit Center - Pinole - Richmond - BART"
35,791472,17,Pinole Valley High School,"JL/Hercules Transit Center - Pinole - Richmond - BART, JR/Hercules Transit Center - Pinole - Richmond - BART"
36,791472,1,Pinole Valley High School,"JL/Hercules Transit Center - Pinole - Richmond - BART, JR/Hercules Transit Center - Pinole - Richmond - BART"
36,791437,2,Pinole Valley Rd and Henry Ave - Northbound,"16/Pinole Valley - Old Town Pinole - Richmond Parkway Transit Center, 19/Hercules - Pinole - Richmond Parkway Transit Center - Hilltop Mall, JL/Hercules Transit Center - Pinole - Richmond - BART, JPX/Hercules Transit Center - El Cerrito del Norte BART, JR/Hercules Transit Center - Pinole - Richmond - BART"
36,791502,3,Tennant Ave and Peach St - Northbound,"16/Pinole Valley - Old Town Pinole - Richmond Parkway Transit Center, 19/Hercules - Pinole - Richmond Parkway Transit Center - Hilltop Mall, JL/Hercules Transit Center - Pinole - Richmond - BART, JPX/Hercules Transit Center - El Cerrito del Norte BART, JR/Hercules Transit Center - Pinole - Richmond - BART"
36,791438,4,San Pablo and Oak Ridge - Southbound,"16/Pinole Valley - Old Town Pinole - Richmond Parkway Transit Center, C3/Hercules Transit Center - Pinole - Contra Costa College, JL/Hercules Transit Center - Pinole - Richmond - BART, JR/Hercules Transit Center - Pinole - Richmond - BART"
36,791514,5,San Pablo Ave and Fern Ave,"16/Pinole Valley - Old Town Pinole - Richmond Parkway Transit Center, C3/Hercules Transit Center - Pinole - Contra Costa College, JL/Hercules Transit Center - Pinole - Richmond - BART, JR/Hercules Transit Center - Pinole - Richmond - BART"
36,791452,6,San Pablo Ave and Appian Way - Eastbound,"C3/Hercules Transit Center - Pinole - Contra Costa College, JL/Hercules Transit Center - Pinole - Richmond - BART, JR/Hercules Transit Center - Pinole - Richmond - BART"
36,791515,7,San Pablo Ave and Roble Ave,"C3/Hercules Transit Center - Pinole - Contra Costa College, JL/Hercules Transit Center - Pinole - Richmond - BART, JR/Hercules Transit Center - Pinole - Richmond - BART"
36,791453,8,San Pablo Ave and Sunnyview Dr - Eastbound,"17/BayView - Richmond Parkway Transit Center, C3/Hercules Transit Center - Pinole - Contra Costa College, JL/Hercules Transit Center - Pinole - Richmond - BART, JR/Hercules Transit Center - Pinole - Richmond - BART"
36,791516,9,San Pablo Ave - Sugar City Building Materials,"17/BayView - Richmond Parkway Transit Center, C3/Hercules Transit Center - Pinole - Contra Costa College, JL/Hercules Transit Center - Pinole - Richmond - BART, JR/Hercules Transit Center - Pinole - Richmond - BART"
36,791517,10,San Pablo Ave - Public Storage,"17/BayView - Richmond Parkway Transit Center, C3/Hercules Transit Center - Pinole - Contra Costa College, JL/Hercules Transit Center - Pinole - Richmond - BART, JR/Hercules Transit Center - Pinole - Richmond - BART"
36,791454,11,San Pablo Ave and Del Monte Dr,"C3/Hercules Transit Center - Pinole - Contra Costa College, JL/Hercules Transit Center - Pinole - Richmond - BART, JR/Hercules Transit Center - Pinole - Richmond - BART"
36,791455,12,San Pablo Ave and Tara Hills Dr - Southbound,"C3/Hercules Transit Center - Pinole - Contra Costa College, JL/Hercules Transit Center - Pinole - Richmond - BART, JR/Hercules Transit Center - Pinole - Richmond - BART"
36,791456,13,San Pablo Ave and Shamrock Dr - Southbound,"18/Tara Hills - Richmond Parkway Transit Center - Hilltop Mall, C3/Hercules Transit Center - Pinole - Contra Costa College, JL/Hercules Transit Center - Pinole - Richmond - BART, JR/Hercules Transit Center - Pinole - Richmond - BART"
36,791457,14,San Pablo Ave and Crestwood Dr - Southbound,"18/Tara Hills - Richmond Parkway Transit Center - Hilltop Mall, C3/Hercules Transit Center - Pinole - Contra Costa College, JL/Hercules Transit Center - Pinole - Richmond - BART, JR/Hercules Transit Center - Pinole - Richmond - BART"
36,791475,15,Richmond Parkway and Lakeside Dr - Westbound,"JL/Hercules Transit Center - Pinole - Richmond - BART, JR/Hercules Transit Center - Pinole - Richmond - BART"
36,791616,16,Richmond Parkway Westbound -  Hilltop Bayview,JR/Hercules Transit Center - Pinole - Richmond - BART
36,791648,17,Richmond Parkway Transit Center,"16/Pinole Valley - Old Town Pinole - Richmond Parkway Transit Center, 17/BayView - Richmond Parkway Transit Center, 18/Tara Hills - Richmond Parkway Transit Center - Hilltop Mall, JPX/Hercules Transit Center - El Cerrito del Norte BART, JR/Hercules Transit Center - Pinole - Richmond - BART"
36,791469,18,El Cerrito Del Norte BART,"JL/Hercules Transit Center - Pinole - Richmond - BART, JPX/Hercules Transit Center - El Cerrito del Norte BART, JR/Hercules Transit Center - Pinole - Richmond - BART, JX/Hercules Transit Center - El Cerrito del Norte BART"
37,791472,1,Pinole Valley High School,"JL/Hercules Transit Center - Pinole - Richmond - BART, JR/Hercules Transit Center - Pinole - Richmond - BART"
37,791437,2,Pinole Valley Rd and Henry Ave - Northbound,"16/Pinole Valley - Old Town Pinole - Richmond Parkway Transit Center, 19/Hercules - Pinole - Richmond Parkway Transit Center - Hilltop Mall, JL/Hercules Transit Center - Pinole - Richmond - BART, JPX/Hercules Transit Center - El Cerrito del Norte BART, JR/Hercules Transit Center - Pinole - Richmond - BART"
37,791502,3,Tennant Ave and Peach St - Northbound,"16/Pinole Valley - Old Town Pinole - Richmond Parkway Transit Center, 19/Hercules - Pinole - Richmond Parkway Transit Center - Hilltop Mall, JL/Hercules Transit Center - Pinole - Richmond - BART, JPX/Hercules Transit Center - El Cerrito del Norte BART, JR/Hercules Transit Center - Pinole - Richmond - BART"
37,791438,4,San Pablo and Oak Ridge - Southbound,"16/Pinole Valley - Old Town Pinole - Richmond Parkway Transit Center, C3/Hercules Transit Center - Pinole - Contra Costa College, JL/Hercules Transit Center - Pinole - Richmond - BART, JR/Hercules Transit Center - Pinole - Richmond - BART"
37,791514,5,San Pablo Ave and Fern Ave,"16/Pinole Valley - Old Town Pinole - Richmond Parkway Transit Center, C3/Hercules Transit Center - Pinole - Contra Costa College, JL/Hercules Transit Center - Pinole - Richmond - BART, JR/Hercules Transit Center - Pinole - Richmond - BART"
37,791452,6,San Pablo Ave and Appian Way - Eastbound,"C3/Hercules Transit Center - Pinole - Contra Costa College, JL/Hercules Transit Center - Pinole - Richmond - BART, JR/Hercules Transit Center - Pinole - Richmond - BART"
37,791515,7,San Pablo Ave and Roble Ave,"C3/Hercules Transit Center - Pinole - Contra Costa College, JL/Hercules Transit Center - Pinole - Richmond - BART, JR/Hercules Transit Center - Pinole - Richmond - BART"
37,791453,8,San Pablo Ave and Sunnyview Dr - Eastbound,"17/BayView - Richmond Parkway Transit Center, C3/Hercules Transit Center - Pinole - Contra Costa College, JL/Hercules Transit Center - Pinole - Richmond - BART, JR/Hercules Transit Center - Pinole - Richmond - BART"
37,791516,9,San Pablo Ave - Sugar City Building Materials,"17/BayView - Richmond Parkway Transit Center, C3/Hercules Transit Center - Pinole - Contra Costa College, JL/Hercules Transit Center - Pinole - Richmond - BART, JR/Hercules Transit Center - Pinole - Richmond - BART"
37,791517,10,San Pablo Ave - Public Storage,"17/BayView - Richmond Parkway Transit Center, C3/Hercules Transit Center - Pinole - Contra Costa College, JL/Hercules Transit Center - Pinole - Richmond - BART, JR/Hercules Transit Center - Pinole - Richmond - BART"
37,791454,11,San Pablo Ave and Del Monte Dr,"C3/Hercules Transit Center - Pinole - Contra Costa College, JL/Hercules Transit Center - Pinole - Richmond - BART, JR/Hercules Transit Center - Pinole - Richmond - BART"
37,791455,12,San Pablo Ave and Tara Hills Dr - Southbound,"C3/Hercules Transit Center - Pinole - Contra Costa College, JL/Hercules Transit Center - Pinole - Richmond - BART, JR/Hercules Transit Center - Pinole - Richmond - BART"
37,791456,13,San Pablo Ave and Shamrock Dr - Southbound,"18/Tara Hills - Richmond Parkway Transit Center - Hilltop Mall, C3/Hercules Transit Center - Pinole - Contra Costa College, JL/Hercules Transit Center - Pinole - Richmond - BART, JR/Hercules Transit Center - Pinole - Richmond - BART"
37,791457,14,San Pablo Ave and Crestwood Dr - Southbound,"18/Tara Hills - Richmond Parkway Transit Center - Hilltop Mall, C3/Hercules Transit Center - Pinole - Contra Costa College, JL/Hercules Transit Center - Pinole - Richmond - BART, JR/Hercules Transit Center - Pinole - Richmond - BART"
37,791475,15,Richmond Parkway and Lakeside Dr - Westbound,"JL/Hercules Transit Center - Pinole - Richmond - BART, JR/Hercules Transit Center - Pinole - Richmond - BART"
37,791616,16,Richmond Parkway Westbound -  Hilltop Bayview,JR/Hercules Transit Center - Pinole - Richmond - BART
37,791648,17,Richmond Parkway Transit Center,"16/Pinole Valley - Old Town Pinole - Richmond Parkway Transit Center, 17/BayView - Richmond Parkway Transit Center, 18/Tara Hills - Richmond Parkway Transit Center - Hilltop Mall, JPX/Hercules Transit Center - El Cerrito del Norte BART, JR/Hercules Transit Center - Pinole - Richmond - BART"
37,791469,18,El Cerrito Del Norte BART,"JL/Hercules Transit Center - Pinole - Richmond - BART, JPX/Hercules Transit Center - El Cerrito del Norte BART, JR/Hercules Transit Center - Pinole - Richmond - BART, JX/Hercules Transit Center - El Cerrito del Norte BART"
38,791648,1,Richmond Parkway Transit Center,"16/Pinole Valley - Old Town Pinole - Richmond Parkway Transit Center, 17/BayView - Richmond Parkway Transit Center, 18/Tara Hills - Richmond Parkway Transit Center - Hilltop Mall, JPX/Hercules Transit Center - El Cerrito del Norte BART, JR/Hercules Transit Center - Pinole - Richmond - BART"
38,791527,2,Fitzgerald Dr - Target,"16/Pinole Valley - Old Town Pinole - Richmond Parkway Transit Center, 17/BayView - Richmond Parkway Transit Center, 19/Hercules - Pinole - Richmond Parkway Transit Center - Hilltop Mall"
38,791427,3,Fitzgerald Dr - Best Buy,"16/Pinole Valley - Old Town Pinole - Richmond Parkway Transit Center, 17/BayView - Richmond Parkway Transit Center, 19/Hercules - Pinole - Richmond Parkway Transit Center - Hilltop Mall, JPX/Hercules Transit Center - El Cerrito del Norte BART"
38,791428,4,Fitzgerald Dr - Starbucks,"16/Pinole Valley - Old Town Pinole - Richmond Parkway Transit Center, 17/BayView - Richmond Parkway Transit Center, 19/Hercules - Pinole - Richmond Parkway Transit Center - Hilltop Mall, JPX/Hercules Transit Center - El Cerrito del Norte BART"
38,791429,5,Canyon Dr and Appian Way - Eastbound,16/Pinole Valley - Old Town Pinole - Richmond Parkway Transit Center
38,791574,6,Ridgecrest Rd and Foothill Ave - Westbound,16/Pinole Valley - Old Town Pinole - Richmond Parkway Transit Center
38,791575,7,Ridgecrest Rd and Greenfield Cir - Northbound,16/Pinole Valley - Old Town Pinole - Richmond Parkway Transit Center
38,791600,8,Ridgecrest Rd and Tesoro Ct - Northbound,16/Pinole Valley - Old Town Pinole - Richmond Parkway Transit Center
38,791430,9,Marionola Way and Marlesta Rd - Northbound,16/Pinole Valley - Old Town Pinole - Richmond Parkway Transit Center
38,791636,10,1624 Marlesta Rd,16/Pinole Valley - Old Town Pinole - Richmond Parkway Transit Center
38,791577,11,San Pablo Ave and Appian Way - Westbound,"16/Pinole Valley - Old Town Pinole - Richmond Parkway Transit Center, C3/Hercules Transit Center - Pinole - Contra Costa College, JL/Hercules Transit Center - Pinole - Richmond - BART, JR/Hercules Transit Center - Pinole - Richmond - BART"
38,791441,12,San Pablo and Oak Ridge Rd,"16/Pinole Valley - Old Town Pinole - Richmond Parkway Transit Center, C3/Hercules Transit Center - Pinole - Contra Costa College, JL/Hercules Transit Center - Pinole - Richmond - BART, JR/Hercules Transit Center - Pinole - Richmond - BART"
38,791494,13,Tennant Ave and Peach St - Southbound,"16/Pinole Valley - Old Town Pinole - Richmond Parkway Transit Center, 19/Hercules - Pinole - Richmond Parkway Transit Center - Hilltop Mall, JL/Hercules Transit Center - Pinole - Richmond - BART, JPX/Hercules Transit Center - El Cerrito del Norte BART"
38,2328345,14,Sprouts,"16/Pinole Valley - Old Town Pinole - Richmond Parkway Transit Center, 19/Hercules - Pinole - Richmond Parkway Transit Center - Hilltop Mall, JPX/Hercules Transit Center - El Cerrito del Norte BART"
38,791620,15,Pinole Valley Shopping Center,"16/Pinole Valley - Old Town Pinole - Richmond Parkway Transit Center, JL/Hercules Transit Center - Pinole - Richmond - BART"
38,791432,16,Pinole Valley Rd and Ramona St,16/Pinole Valley - Old Town Pinole - Richmond Parkway Transit Center
38,791582,17,Pinole Valley Rd and Johanna Ct,16/Pinole Valley - Old Town Pinole - Richmond Parkway Transit Center
38,791433,18,Simas Ave and Pinole Valley Rd,16/Pinole Valley - Old Town Pinole - Richmond Parkway Transit Center
39,791433,1,Simas Ave and Pinole Valley Rd,16/Pinole Valley - Old Town Pinole - Richmond Parkway Transit Center
39,791583,2,Simas Ave and Estates Ave,16/Pinole Valley - Old Town Pinole - Richmond Parkway Transit Center
39,791584,3,Simas Ave and Diablo Ct,16/Pinole Valley - Old Town Pinole - Richmond Parkway Transit Center
39,791585,4,Simas Ave and Lassen Way,16/Pinole Valley - Old Town Pinole - Richmond Parkway Transit Center
39,791586,5,Simas Ave and Remuda ,16/Pinole Valley - Old Town Pinole - Richmond Parkway Transit Center
39,791587,6,Wright Ave and Doidge Ave,16/Pinole Valley - Old Town Pinole - Richmond Parkway Transit Center
39,791588,7,Wright Ave and Victor St,16/Pinole Valley - Old Town Pinole - Richmond Parkway Transit Center
39,791434,8,Doidge Ave and Wright Ave,16/Pinole Valley - Old Town Pinole - Richmond Parkway Transit Center
39,791589,9,Marcus Ct and Doidge Ave,16/Pinole Valley - Old Town Pinole - Richmond Parkway Transit Center
39,791590,10,Wright Ave and Brazil Ct,16/Pinole Valley - Old Town Pinole - Richmond Parkway Transit Center
39,791591,11,Wright Ave and Madera St,16/Pinole Valley - Old Town Pinole - Richmond Parkway Transit Center
39,791435,12,Pinole Valley Rd and Simas Ave ,16/Pinole Valley - Old Town Pinole - Richmond Parkway Transit Center
39,791592,13,Ellerhorst School,16/Pinole Valley - Old Town Pinole - Richmond Parkway Transit Center
39,791593,14,Pinole Valley Rd and Simas Ave - Eastbound,16/Pinole Valley - Old Town Pinole - Richmond Parkway Transit Center
39,791594,15,Pinole Valley Rd and Helena Ct,16/Pinole Valley - Old Town Pinole - Richmond Parkway Transit Center
39,791436,16,Pinole Valley Rd - Library,16/Pinole Valley - Old Town Pinole - Richmond Parkway Transit Center
39,791595,17,Pinole Valley Rd and Estates Ave,16/Pinole Valley - Old Town Pinole - Richmond Parkway Transit Center
39,791437,18,Pinole Valley Rd and Henry Ave - Northbound,"16/Pinole Valley - Old Town Pinole - Richmond Parkway Transit Center, 19/Hercules - Pinole - Richmond Parkway Transit Center - Hilltop Mall, JL/Hercules Transit Center - Pinole - Richmond - BART, JPX/Hercules Transit Center - El Cerrito del Norte BART, JR/Hercules Transit Center - Pinole - Richmond - BART"
39,791502,19,Tennant Ave and Peach St - Northbound,"16/Pinole Valley - Old Town Pinole - Richmond Parkway Transit Center, 19/Hercules - Pinole - Richmond Parkway Transit Center - Hilltop Mall, JL/Hercules Transit Center - Pinole - Richmond - BART, JPX/Hercules Transit Center - El Cerrito del Norte BART, JR/Hercules Transit Center - Pinole - Richmond - BART"
39,791438,20,San Pablo and Oak Ridge - Southbound,"16/Pinole Valley - Old Town Pinole - Richmond Parkway Transit Center, C3/Hercules Transit Center - Pinole - Contra Costa College, JL/Hercules Transit Center - Pinole - Richmond - BART, JR/Hercules Transit Center - Pinole - Richmond - BART"
39,791514,21,San Pablo Ave and Fern Ave,"16/Pinole Valley - Old Town Pinole - Richmond Parkway Transit Center, C3/Hercules Transit Center - Pinole - Contra Costa College, JL/Hercules Transit Center - Pinole - Richmond - BART, JR/Hercules Transit Center - Pinole - Richmond - BART"
39,791635,22,Marlesta Rd and Appian Way - SE Corner,16/Pinole Valley - Old Town Pinole - Richmond Parkway Transit Center
39,791439,23,Marionola Way near Marlesta Rd,16/Pinole Valley - Old Town Pinole - Richmond Parkway Transit Center
39,791440,24,1236 Marionola Way,16/Pinole Valley - Old Town Pinole - Richmond Parkway Transit Center
39,791626,25,Ridgecrest Rd and Greenfield Circle - Southbound,16/Pinole Valley - Old Town Pinole - Richmond Parkway Transit Center
39,791624,26,Ridgecrest Rd and Foothill Ave - Eastbound,16/Pinole Valley - Old Town Pinole - Richmond Parkway Transit Center
39,791596,27,Ridgecrest Rd and Canyon Dr,16/Pinole Valley - Old Town Pinole - Richmond Parkway Transit Center
39,791493,28,Canyon Dr and Appian Way - Westbound,16/Pinole Valley - Old Town Pinole - Richmond Parkway Transit Center
39,791442,29,Fitzgerald Dr - Sizzler,"16/Pinole Valley - Old Town Pinole - Richmond Parkway Transit Center, 17/BayView - Richmond Parkway Transit Center, 19/Hercules - Pinole - Richmond Parkway Transit Center - Hilltop Mall, JPX/Hercules Transit Center - El Cerrito del Norte BART"
39,791496,30,Fitzgerald Dr - FedEx,"16/Pinole Valley - Old Town Pinole - Richmond Parkway Transit Center, 17/BayView - Richmond Parkway Transit Center, 19/Hercules - Pinole - Richmond Parkway Transit Center - Hilltop Mall, JPX/Hercules Transit Center - El Cerrito del Norte BART"
39,791497,31,Fitzgerald Dr - Applebees,"16/Pinole Valley - Old Town Pinole - Richmond Parkway Transit Center, 17/BayView - Richmond Parkway Transit Center, 19/Hercules - Pinole - Richmond Parkway Transit Center - Hilltop Mall, JPX/Hercules Transit Center - El Cerrito del Norte BART"
39,791648,32,Richmond Parkway Transit Center,"16/Pinole Valley - Old Town Pinole - Richmond Parkway Transit Center, 17/BayView - Richmond Parkway Transit Center, 18/Tara Hills - Richmond Parkway Transit Center - Hilltop Mall, JPX/Hercules Transit Center - El Cerrito del Norte BART, JR/Hercules Transit Center - Pinole - Richmond - BART"
40,791467,1,San Francisco Transbay Terminal,Lynx/Rodeo/Hercules/San Francisco Transbay Terminal
40,791638,2,Hercules Transit Center,"10/Gems and Birds, 11/Crockett - Rodeo - Hercules, 12/Trees and Flowers, 15/Rodeo - Hercules (Viewpointe/North Shore Business Park), 19/Hercules - Pinole - Richmond Parkway Transit Center - Hilltop Mall, 30Z/Hercules Transit Center - Martinez, C3/Hercules Transit Center - Pinole - Contra Costa College, JL/Hercules Transit Center - Pinole - Richmond - BART, JPX/Hercules Transit Center - El Cerrito del Norte BART, JR/Hercules Transit Center - Pinole - Richmond - BART, JX/Hercules Transit Center - El Cerrito del Norte BART, Lynx/Rodeo/Hercules/San Francisco Transbay Terminal"
41,791465,1,Willow Ave and I-80 - Northbound,"11/Crockett - Rodeo - Hercules, 15/Rodeo - Hercules (Viewpointe/North Shore Business Park), Lynx/Rodeo/Hercules/San Francisco Transbay Terminal"
41,791466,2,Victoria Crescent and Victoria Park,Lynx/Rodeo/Hercules/San Francisco Transbay Terminal
41,791638,3,Hercules Transit Center,"10/Gems and Birds, 11/Crockett - Rodeo - Hercules, 12/Trees and Flowers, 15/Rodeo - Hercules (Viewpointe/North Shore Business Park), 19/Hercules - Pinole - Richmond Parkway Transit Center - Hilltop Mall, 30Z/Hercules Transit Center - Martinez, C3/Hercules Transit Center - Pinole - Contra Costa College, JL/Hercules Transit Center - Pinole - Richmond - BART, JPX/Hercules Transit Center - El Cerrito del Norte BART, JR/Hercules Transit Center - Pinole - Richmond - BART, JX/Hercules Transit Center - El Cerrito del Norte BART, Lynx/Rodeo/Hercules/San Francisco Transbay Terminal"
41,791467,4,San Francisco Transbay Terminal,Lynx/Rodeo/Hercules/San Francisco Transbay Terminal
42,791638,1,Hercules Transit Center,"10/Gems and Birds, 11/Crockett - Rodeo - Hercules, 12/Trees and Flowers, 15/Rodeo - Hercules (Viewpointe/North Shore Business Park), 19/Hercules - Pinole - Richmond Parkway Transit Center - Hilltop Mall, 30Z/Hercules Transit Center - Martinez, C3/Hercules Transit Center - Pinole - Contra Costa College, JL/Hercules Transit Center - Pinole - Richmond - BART, JPX/Hercules Transit Center - El Cerrito del Norte BART, JR/Hercules Transit Center - Pinole - Richmond - BART, JX/Hercules Transit Center - El Cerrito del Norte BART, Lynx/Rodeo/Hercules/San Francisco Transbay Terminal"
42,791522,2,Alfred Nobel and John Muir Pkwy,15/Rodeo - Hercules (Viewpointe/North Shore Business Park)
42,791637,3,Alfred Nobel Dr - Near Venture Commerce Ctr,15/Rodeo - Hercules (Viewpointe/North Shore Business Park)
42,791426,4,Linus Pauling and Alfred Nobel,15/Rodeo - Hercules (Viewpointe/North Shore Business Park)
42,791525,5,Linus Pauling - County EHS,15/Rodeo - Hercules (Viewpointe/North Shore Business Park)
42,791526,6,San Pablo Ave and Victoria Crescent - Southbound,15/Rodeo - Hercules (Viewpointe/North Shore Business Park)
42,791617,7,7th St and Parker Ave,"15/Rodeo - Hercules (Viewpointe/North Shore Business Park), JL/Hercules Transit Center - Pinole - Richmond - BART, JR/Hercules Transit Center - Pinole - Richmond - BART"
42,791619,8,Willow Ave Shopping Center ,"15/Rodeo - Hercules (Viewpointe/North Shore Business Park), JL/Hercules Transit Center - Pinole - Richmond - BART, JR/Hercules Transit Center - Pinole - Richmond - BART"
42,791422,9,Viewpointe Blvd and Coral Dr - Northbound,15/Rodeo - Hercules (Viewpointe/North Shore Business Park)
43,791422,1,Viewpointe Blvd and Coral Dr - Northbound,15/Rodeo - Hercules (Viewpointe/North Shore Business Park)
43,791597,2,Viewpointe Blvd and Sandy Cove Dr,15/Rodeo - Hercules (Viewpointe/North Shore Business Park)
43,791599,3,Viewpointe Blvd and Sandpoint Dr,15/Rodeo - Hercules (Viewpointe/North Shore Business Park)
43,791576,4,Viewpointe Blvd and Seascape Cir,15/Rodeo - Hercules (Viewpointe/North Shore Business Park)
43,791601,5,Viewpointe Blvd and Myrna Way,15/Rodeo - Hercules (Viewpointe/North Shore Business Park)
43,791423,6,Coral Dr and Stirling Dr,15/Rodeo - Hercules (Viewpointe/North Shore Business Park)
43,791578,7,Coral Dr and Sandpoint Dr,15/Rodeo - Hercules (Viewpointe/North Shore Business Park)
43,791579,8,Coral Dr and Reef Point Dr,15/Rodeo - Hercules (Viewpointe/North Shore Business Park)
43,791580,9,Coral Dr and Bodega Way,15/Rodeo - Hercules (Viewpointe/North Shore Business Park)
43,791424,10,Viewpointe Blvd and Coral Dr - Southbound,15/Rodeo - Hercules (Viewpointe/North Shore Business Park)
43,791581,11,Willow Ave and Viewpointe Blvd - Northbound,"11/Crockett - Rodeo - Hercules, 15/Rodeo - Hercules (Viewpointe/North Shore Business Park)"
43,791465,12,Willow Ave and I-80 - Northbound,"11/Crockett - Rodeo - Hercules, 15/Rodeo - Hercules (Viewpointe/North Shore Business Park), Lynx/Rodeo/Hercules/San Francisco Transbay Terminal"
43,791622,13,San Pablo Ave and Victoria Crescent - Northbound,"11/Crockett - Rodeo - Hercules, 15/Rodeo - Hercules (Viewpointe/North Shore Business Park), Lynx/Rodeo/Hercules/San Francisco Transbay Terminal"
43,791425,14,Linus Pauling - County EHS Office,"15/Rodeo - Hercules (Viewpointe/North Shore Business Park), Lynx/Rodeo/Hercules/San Francisco Transbay Terminal"
43,791426,15,Linus Pauling and Alfred Nobel,15/Rodeo - Hercules (Viewpointe/North Shore Business Park)
43,791630,16,825 Alfred Nobel Dr,"15/Rodeo - Hercules (Viewpointe/North Shore Business Park), Lynx/Rodeo/Hercules/San Francisco Transbay Terminal"
43,791638,17,Hercules Transit Center,"10/Gems and Birds, 11/Crockett - Rodeo - Hercules, 12/Trees and Flowers, 15/Rodeo - Hercules (Viewpointe/North Shore Business Park), 19/Hercules - Pinole - Richmond Parkway Transit Center - Hilltop Mall, 30Z/Hercules Transit Center - Martinez, C3/Hercules Transit Center - Pinole - Contra Costa College, JL/Hercules Transit Center - Pinole - Richmond - BART, JPX/Hercules Transit Center - El Cerrito del Norte BART, JR/Hercules Transit Center - Pinole - Richmond - BART, JX/Hercules Transit Center - El Cerrito del Norte BART, Lynx/Rodeo/Hercules/San Francisco Transbay Terminal"
44,791648,1,Richmond Parkway Transit Center,"16/Pinole Valley - Old Town Pinole - Richmond Parkway Transit Center, 17/BayView - Richmond Parkway Transit Center, 18/Tara Hills - Richmond Parkway Transit Center - Hilltop Mall, JPX/Hercules Transit Center - El Cerrito del Norte BART, JR/Hercules Transit Center - Pinole - Richmond - BART"
44,791501,2,Blume Dr and Auto Plaza - Southbound,"18/Tara Hills - Richmond Parkway Transit Center - Hilltop Mall, 19/Hercules - Pinole - Richmond Parkway Transit Center - Hilltop Mall, JL/Hercules Transit Center - Pinole - Richmond - BART, JR/Hercules Transit Center - Pinole - Richmond - BART"
44,791559,3,Blume Dr and Klose Way,"18/Tara Hills - Richmond Parkway Transit Center - Hilltop Mall, 19/Hercules - Pinole - Richmond Parkway Transit Center - Hilltop Mall, JL/Hercules Transit Center - Pinole - Richmond - BART, JR/Hercules Transit Center - Pinole - Richmond - BART"
44,791449,4,Hilltop Mall - Westbound,"18/Tara Hills - Richmond Parkway Transit Center - Hilltop Mall, 19/Hercules - Pinole - Richmond Parkway Transit Center - Hilltop Mall, JL/Hercules Transit Center - Pinole - Richmond - BART, JR/Hercules Transit Center - Pinole - Richmond - BART"
44,791621,5,Hilltop Dr and Hillview Dr,"18/Tara Hills - Richmond Parkway Transit Center - Hilltop Mall, JL/Hercules Transit Center - Pinole - Richmond - BART"
44,791518,6,San Pablo Ave and Kay Rd,"18/Tara Hills - Richmond Parkway Transit Center - Hilltop Mall, C3/Hercules Transit Center - Pinole - Contra Costa College, JL/Hercules Transit Center - Pinole - Richmond - BART, JR/Hercules Transit Center - Pinole - Richmond - BART"
44,791458,7,San Pablo Ave and Crestwood Dr - Northbound,"18/Tara Hills - Richmond Parkway Transit Center - Hilltop Mall, C3/Hercules Transit Center - Pinole - Contra Costa College, JL/Hercules Transit Center - Pinole - Richmond - BART, JR/Hercules Transit Center - Pinole - Richmond - BART"
44,791459,8,San Pablo Ave and Shamrock Dr - Northbound,"18/Tara Hills - Richmond Parkway Transit Center - Hilltop Mall, C3/Hercules Transit Center - Pinole - Contra Costa College, JL/Hercules Transit Center - Pinole - Richmond - BART, JR/Hercules Transit Center - Pinole - Richmond - BART"
44,791460,9,San Pablo Ave and Tara Hills Dr - Northbound,"18/Tara Hills - Richmond Parkway Transit Center - Hilltop Mall, C3/Hercules Transit Center - Pinole - Contra Costa College, JL/Hercules Transit Center - Pinole - Richmond - BART, JR/Hercules Transit Center - Pinole - Richmond - BART"
45,791460,1,San Pablo Ave and Tara Hills Dr - Northbound,"18/Tara Hills - Richmond Parkway Transit Center - Hilltop Mall, C3/Hercules Transit Center - Pinole - Contra Costa College, JL/Hercules Transit Center - Pinole - Richmond - BART, JR/Hercules Transit Center - Pinole - Richmond - BART"
45,791560,2,Tara Hills Dr and Flannery Rd,18/Tara Hills - Richmond Parkway Transit Center - Hilltop Mall
45,791561,3,Dolan Way and Mahan Way,18/Tara Hills - Richmond Parkway Transit Center - Hilltop Mall
45,791562,4,Shamrock Dr and Kavanagh Rd,18/Tara Hills - Richmond Parkway Transit Center - Hilltop Mall
45,791456,5,San Pablo Ave and Shamrock Dr - Southbound,"18/Tara Hills - Richmond Parkway Transit Center - Hilltop Mall, C3/Hercules Transit Center - Pinole - Contra Costa College, JL/Hercules Transit Center - Pinole - Richmond - BART, JR/Hercules Transit Center - Pinole - Richmond - BART"
45,791457,6,San Pablo Ave and Crestwood Dr - Southbound,"18/Tara Hills - Richmond Parkway Transit Center - Hilltop Mall, C3/Hercules Transit Center - Pinole - Contra Costa College, JL/Hercules Transit Center - Pinole - Richmond - BART, JR/Hercules Transit Center - Pinole - Richmond - BART"
45,791563,7,Hillview Dr and Hilltop Dr,"18/Tara Hills - Richmond Parkway Transit Center - Hilltop Mall, JL/Hercules Transit Center - Pinole - Richmond - BART"
45,791449,8,Hilltop Mall - Westbound,"18/Tara Hills - Richmond Parkway Transit Center - Hilltop Mall, 19/Hercules - Pinole - Richmond Parkway Transit Center - Hilltop Mall, JL/Hercules Transit Center - Pinole - Richmond - BART, JR/Hercules Transit Center - Pinole - Richmond - BART"
45,791627,9,Blume Dr and Auto Plaza - Northbound,"18/Tara Hills - Richmond Parkway Transit Center - Hilltop Mall, 19/Hercules - Pinole - Richmond Parkway Transit Center - Hilltop Mall, JL/Hercules Transit Center - Pinole - Richmond - BART, JR/Hercules Transit Center - Pinole - Richmond - BART"
45,791564,10,Blume Dr and Klose Way - Hilltop Mall Sign,"18/Tara Hills - Richmond Parkway Transit Center - Hilltop Mall, JL/Hercules Transit Center - Pinole - Richmond - BART, JR/Hercules Transit Center - Pinole - Richmond - BART"
45,791648,11,Richmond Parkway Transit Center,"16/Pinole Valley - Old Town Pinole - Richmond Parkway Transit Center, 17/BayView - Richmond Parkway Transit Center, 18/Tara Hills - Richmond Parkway Transit Center - Hilltop Mall, JPX/Hercules Transit Center - El Cerrito del Norte BART, JR/Hercules Transit Center - Pinole - Richmond - BART"
46,791488,1,Coronado St and Carson St,12/Trees and Flowers
46,791537,2,Armstrong St and Grissom St,12/Trees and Flowers
46,791538,3,Grissom St and Shepard St,12/Trees and Flowers
46,791631,4,Coronado St and Decatur,12/Trees and Flowers
46,791632,5,Coronado St and Refugio Valley,12/Trees and Flowers
46,791633,6,Refugio Valley and Redwood Rd,12/Trees and Flowers
46,791489,7,Violet Rd and Lupine Rd,12/Trees and Flowers
46,791539,8,Violet Rd and Lilac Circle,12/Trees and Flowers
46,791540,9,Violet Rd and Iris Rd,12/Trees and Flowers
46,791492,10,Lupine Rd and Woodfield Park,12/Trees and Flowers
46,791541,11,Lupine Rd and Poppy Ct,12/Trees and Flowers
46,791542,12,Sycamore Ave and Redwood Rd,12/Trees and Flowers
46,791543,13,Sycamore Ave - Civic Center,12/Trees and Flowers
46,791490,14,Sycamore Ave - Creekside Shopping Center,12/Trees and Flowers
46,791638,15,Hercules Transit Center,"10/Gems and Birds, 11/Crockett - Rodeo - Hercules, 12/Trees and Flowers, 15/Rodeo - Hercules (Viewpointe/North Shore Business Park), 19/Hercules - Pinole - Richmond Parkway Transit Center - Hilltop Mall, 30Z/Hercules Transit Center - Martinez, C3/Hercules Transit Center - Pinole - Contra Costa College, JL/Hercules Transit Center - Pinole - Richmond - BART, JPX/Hercules Transit Center - El Cerrito del Norte BART, JR/Hercules Transit Center - Pinole - Richmond - BART, JX/Hercules Transit Center - El Cerrito del Norte BART, Lynx/Rodeo/Hercules/San Francisco Transbay Terminal"
47,791638,1,Hercules Transit Center,"10/Gems and Birds, 11/Crockett - Rodeo - Hercules, 12/Trees and Flowers, 15/Rodeo - Hercules (Viewpointe/North Shore Business Park), 19/Hercules - Pinole - Richmond Parkway Transit Center - Hilltop Mall, 30Z/Hercules Transit Center - Martinez, C3/Hercules Transit Center - Pinole - Contra Costa College, JL/Hercules Transit Center - Pinole - Richmond - BART, JPX/Hercules Transit Center - El Cerrito del Norte BART, JR/Hercules Transit Center - Pinole - Richmond - BART, JX/Hercules Transit Center - El Cerrito del Norte BART, Lynx/Rodeo/Hercules/San Francisco Transbay Terminal"
47,791419,2,Refugio Valley and Pheasant Dr,"12/Trees and Flowers, JR/Hercules Transit Center - Pinole - Richmond - BART"
47,791480,3,Hercules Middle and High School,"10/Gems and Birds, 12/Trees and Flowers, JR/Hercules Transit Center - Pinole - Richmond - BART"
47,791529,4,Refugio Valley and Falcon Way,12/Trees and Flowers
47,791530,5,Refugio Valley and Southwind Dr,12/Trees and Flowers
47,791531,6,Refugio Valley and Midship Dr,12/Trees and Flowers
47,791532,7,Refugio Valley and Mirimar Ave,12/Trees and Flowers
47,791533,8,Hannah Ranch School,12/Trees and Flowers
47,791486,9,Mandalay Ave and Bonaire Ave,12/Trees and Flowers
47,791534,10,Bonaire Ave and Refugio Valley Rd,12/Trees and Flowers
47,791535,11,Refugio Valley and Mandalay Ave,12/Trees and Flowers
47,791487,12,Carson St and Raleigh Ct,12/Trees and Flowers
47,791536,13,Carson St and Stanley Ct,12/Trees and Flowers
47,791488,14,Coronado St and Carson St,12/Trees and Flowers
48,791480,1,Hercules Middle and High School,"10/Gems and Birds, 12/Trees and Flowers, JR/Hercules Transit Center - Pinole - Richmond - BART"
48,791529,2,Refugio Valley and Falcon Way,12/Trees and Flowers
48,791530,3,Refugio Valley and Southwind Dr,12/Trees and Flowers
48,791531,4,Refugio Valley and Midship Dr,12/Trees and Flowers
48,791532,5,Refugio Valley and Mirimar Ave,12/Trees and Flowers
48,791533,6,Hannah Ranch School,12/Trees and Flowers
48,791486,7,Mandalay Ave and Bonaire Ave,12/Trees and Flowers
48,791534,8,Bonaire Ave and Refugio Valley Rd,12/Trees and Flowers
48,791535,9,Refugio Valley and Mandalay Ave,12/Trees and Flowers
48,791487,10,Carson St and Raleigh Ct,12/Trees and Flowers
48,791536,11,Carson St and Stanley Ct,12/Trees and Flowers
48,791488,12,Coronado St and Carson St,12/Trees and Flowers
48,791537,13,Armstrong St and Grissom St,12/Trees and Flowers
48,791538,14,Grissom St and Shepard St,12/Trees and Flowers
48,791631,15,Coronado St and Decatur,12/Trees and Flowers
48,791632,16,Coronado St and Refugio Valley,12/Trees and Flowers
48,791633,17,Refugio Valley and Redwood Rd,12/Trees and Flowers
48,791489,18,Violet Rd and Lupine Rd,12/Trees and Flowers
48,791539,19,Violet Rd and Lilac Circle,12/Trees and Flowers
48,791540,20,Violet Rd and Iris Rd,12/Trees and Flowers
48,791492,21,Lupine Rd and Woodfield Park,12/Trees and Flowers
48,791541,22,Lupine Rd and Poppy Ct,12/Trees and Flowers
48,791542,23,Sycamore Ave and Redwood Rd,12/Trees and Flowers
48,791543,24,Sycamore Ave - Civic Center,12/Trees and Flowers
48,791490,25,Sycamore Ave - Creekside Shopping Center,12/Trees and Flowers
48,791638,26,Hercules Transit Center,"10/Gems and Birds, 11/Crockett - Rodeo - Hercules, 12/Trees and Flowers, 15/Rodeo - Hercules (Viewpointe/North Shore Business Park), 19/Hercules - Pinole - Richmond Parkway Transit Center - Hilltop Mall, 30Z/Hercules Transit Center - Martinez, C3/Hercules Transit Center - Pinole - Contra Costa College, JL/Hercules Transit Center - Pinole - Richmond - BART, JPX/Hercules Transit Center - El Cerrito del Norte BART, JR/Hercules Transit Center - Pinole - Richmond - BART, JX/Hercules Transit Center - El Cerrito del Norte BART, Lynx/Rodeo/Hercules/San Francisco Transbay Terminal"
49,791480,1,Hercules Middle and High School,"10/Gems and Birds, 12/Trees and Flowers, JR/Hercules Transit Center - Pinole - Richmond - BART"
49,791529,2,Refugio Valley and Falcon Way,12/Trees and Flowers
49,791530,3,Refugio Valley and Southwind Dr,12/Trees and Flowers
49,791531,4,Refugio Valley and Midship Dr,12/Trees and Flowers
49,791532,5,Refugio Valley and Mirimar Ave,12/Trees and Flowers
49,791533,6,Hannah Ranch School,12/Trees and Flowers
49,791486,7,Mandalay Ave and Bonaire Ave,12/Trees and Flowers
49,791534,8,Bonaire Ave and Refugio Valley Rd,12/Trees and Flowers
49,791535,9,Refugio Valley and Mandalay Ave,12/Trees and Flowers
49,791487,10,Carson St and Raleigh Ct,12/Trees and Flowers
49,791536,11,Carson St and Stanley Ct,12/Trees and Flowers
49,791488,12,Coronado St and Carson St,12/Trees and Flowers
49,791537,13,Armstrong St and Grissom St,12/Trees and Flowers
49,791538,14,Grissom St and Shepard St,12/Trees and Flowers
49,791631,15,Coronado St and Decatur,12/Trees and Flowers
49,791632,16,Coronado St and Refugio Valley,12/Trees and Flowers
49,791633,17,Refugio Valley and Redwood Rd,12/Trees and Flowers
49,791489,18,Violet Rd and Lupine Rd,12/Trees and Flowers
49,791539,19,Violet Rd and Lilac Circle,12/Trees and Flowers
49,791540,20,Violet Rd and Iris Rd,12/Trees and Flowers
49,791492,21,Lupine Rd and Woodfield Park,12/Trees and Flowers
49,791541,22,Lupine Rd and Poppy Ct,12/Trees and Flowers
49,791542,23,Sycamore Ave and Redwood Rd,12/Trees and Flowers
49,791543,24,Sycamore Ave - Civic Center,12/Trees and Flowers
49,791490,25,Sycamore Ave - Creekside Shopping Center,12/Trees and Flowers
49,791638,26,Hercules Transit Center,"10/Gems and Birds, 11/Crockett - Rodeo - Hercules, 12/Trees and Flowers, 15/Rodeo - Hercules (Viewpointe/North Shore Business Park), 19/Hercules - Pinole - Richmond Parkway Transit Center - Hilltop Mall, 30Z/Hercules Transit Center - Martinez, C3/Hercules Transit Center - Pinole - Contra Costa College, JL/Hercules Transit Center - Pinole - Richmond - BART, JPX/Hercules Transit Center - El Cerrito del Norte BART, JR/Hercules Transit Center - Pinole - Richmond - BART, JX/Hercules Transit Center - El Cerrito del Norte BART, Lynx/Rodeo/Hercules/San Francisco Transbay Terminal"
