stop_id,stop_code,stop_name,stop_desc,stop_lat,stop_lon,zone_id,stop_url,location_type,parent_station,stop_timezone,wheelchair_boarding
5,BRSH,BRAWLEY - SHIELDS,N BRAWLEY AVE & W FOUNTAIN WAY,36.779591,-119.862246,,,,,,0
6,SHBREB,SHAW - BRAWLEY,W SHAW AVE & N BRAWLEY AVE,36.808145,-119.862218,,,,,,0
7,SHWEEB,SHAW - WEST,W SHAW AVE & N WEST AVE,36.80825,-119.826818,,,,,,0
8,SHBLEB,SHAW - BLACKSTONE,E SHAW AVE & N BLACKSTONE AVE,36.808498,-119.790072,,,,,,0
9,SHFIEB,SHAW - FIRST,E SHAW AVE & N FIRST ST,36.808537,-119.771948,,,,,,0
10,SHCEEB,SHAW - CEDAR,E SHAW AVE & N CEDAR AVE,36.808565,-119.753608,,,,,,0
11,WLSH,WILLOW - SHAW,,36.807989,-119.727404,,,,,,0
13,SHCEWB,SHAW - CEDAR,E SHAW AVE & N CEDAR AVE,36.808653,-119.755124,,,,,,0
14,SHFIWB,SHAW - FIRST,E SHAW AVE & E FRONTAGE RD N,36.80859,-119.772728,,,,,,0
15,SHBLWB,SHAW - BLACKSTONE,W SHAW AVE & N BLACKSTONE AVE,36.808541,-119.790909,,,,,,0
16,SHWEWB,SHAW - WEST,W SHAW AVE & N WEST AVE,36.808303,-119.826841,,,,,,0
17,SHBRWB,SHAW - BRAWLEY,W SHAW AVE & N SONORA LN,36.808232,-119.86309,,,,,,0
28,BRMR,BRAWLEY - WALMART,N BRAWLEY AVE & W SHAW AVE,36.810313,-119.862542,,,,,,0
29,MASHSB,MARKS - SHAW,,36.807821,-119.844618,,,,,,0
30,HUSDSB,HUGHES - SHIELDS,,36.778951,-119.835619,,,,,,0
33,CECHSB,CESAR CHAVEZ,,36.742289,-119.790697,,,,,,0
36,CECHNB,CESAR CHAVEZ,,36.741839,-119.789214,,,,,,0
38,MCPA,NE MCKINLEY - PALM,,36.765013,-119.807723,,,,,,0
39,HUSDNB,HUGHES - SHIELDS,,36.778817,-119.835419,,,,,,0
40,SHMANB,SHAW - MARKS,,36.808444,-119.845027,,,,,,0
42,WEBU,WEST - BULLARD,,36.821733,-119.826521,,,,,,0
43,WESHSB,WEST - SHAW,,36.807186,-119.826514,,,,,,0
44,WESDSB,SW WEST - SHIELDS,,36.778982,-119.826714,,,,,,0
45,OLVASB,OLIVE - VAN NESS,,36.757616,-119.798463,,,,,,0
48,TUCESB,TULARE - CEDAR,,36.743081,-119.754118,,,,,,0
49,TUPESB,TULARE - PEACH,,36.743076,-119.717889,,,,,,0
50,BUBUSB,BURGAN - BUTLER,,36.730799,-119.677657,,,,,,0
51,KCCL,KINGS CANYON - CLOVIS,E KINGS CANYON RD & S PHILLIP AVE,36.735985,-119.697492,,,,,,0
61,NEBK,NEES - BLACKSTONE,,36.85215,-119.791532,,,,,,0
62,PSHESB,PALM - HERNDON,,36.836627,-119.808473,,,,,,0
63,PSSDSB,PALM - SHIELDS,,36.77911,-119.808768,,,,,,0
64,BUCHSB,BUTLER - CHESTNUT,,36.728617,-119.735779,,,,,,0
65,FAT WB,FRESNO YOSEMITE INTL - WB,N TERRY COOPER WAY & UNNAMED ALY,36.76923,-119.719794,,,,,,0
67,CLWESB,CLINTON - WEST,,36.772085,-119.827028,,,,,,0
68,SDBR,SHIELDS - BRAWLEY,W SHIELDS AVE & N BRAWLEY AVE,36.779163,-119.861827,,,,,,0
70,CLWEEB,CLINTON - WEST,,36.771924,-119.82611,,,,,,0
71,MTCEEB,MANCHESTER TRANSIT CENTER EB,,36.783094,-119.790188,,,,,,0
72,FAT EB,FRESNO YOSEMITE INTL - EB,E CLINTON WAY & UNNAMED ALY,36.76996,-119.722373,,,,,,0
73,BUCHEB,BUTLER - CHESTNUT,,36.728748,-119.736883,,,,,,0
76,PNSD,PALM - SHIELDS,,36.780037,-119.808579,,,,,,0
77,HEPN,HERNDON - PALM,,36.836876,-119.807869,,,,,,0
79,SHCW,SHAWCOLE W/B,SHAW AVE & RAILROAD AVE,36.808535,-119.696576,,,,,,0
81,SHCESB,NW SHAW - CEDAR,,36.808792,-119.755154,,,,,,0
82,FISHSB,FIRST/SHAW S/B,,36.809227,-119.772456,,,,,,0
83,MTCSSB,MANCHESTER TRANSIT CENTER SB,,36.783667,-119.790286,,,,,,0
84,VECESB,VENTURA - CEDAR,,36.735759,-119.753707,,,,,,0
85,CHBUSB,CHESTNUT - BUTLER,,36.728239,-119.736585,,,,,,0
88,VECENB,VENTURA - CEDAR,,36.735978,-119.754184,,,,,,0
89,MTCNNB,MANCHESTER TRANSIT CENTER NB,,36.783114,-119.790387,,,,,,0
90,FISHNB,FIRST - SHAW NB,,36.807187,-119.772185,,,,,,0
91,SHCENB,SHAW - CEDAR,,36.808477,-119.753311,,,,,,0
95,BLHESB,BLACKSTONE - HERNDON,,36.836797,-119.790432,,,,,,0
96,BLSHSB,BLACKSTONE - SHAW,,36.808012,-119.790662,,,,,,0
106,FRHESB,FRESNO - HERNDON,,36.836195,-119.781417,,,,,,0
107,FRSHSB,FRESNO - SHAW,,36.807765,-119.781546,,,,,,0
108,FRCLSB,FRESNO - CLINTON,,36.771889,-119.78165,,,,,,0
111,MKJESB,MLK - JENSEN,,36.706467,-119.799956,,,,,,0
112,NOEL,NORTH - ELM,W NORTH AVE & E NORTH AVE,36.692351,-119.791736,,,,,,0
114,MKJENB,MLK - JENSEN,,36.707348,-119.79976,,,,,,0
117,FRCLNB,FRESNO - CLINTON,,36.772622,-119.781463,,,,,,0
118,FRSHNB,FRESNO - SHAW,,36.807594,-119.781273,,,,,,0
119,FRHENB,FRESNO - HERNDON,,36.83822,-119.78108,,,,,,0
122,BEDE,BELMONT - DELNO,,36.750222,-119.819129,,,,,,0
123,BEABEB,BELMONT - ABBY,,36.750275,-119.789685,,,,,,0
124,BEFIEB,BELMONT - FIRST,,36.750359,-119.771894,,,,,,0
125,MABE,MAPLE - BELMONT,,36.749715,-119.745494,,,,,,0
126,MAKCEB,MAPLE - KINGS CANYON - EL MONTE,,36.735091,-119.745605,,,,,,0
127,MABU,MAPLE - BUTLER,,36.729939,-119.74544,,,,,,0
128,CHMA,CHURCH - MAPLE,,36.713758,-119.745786,,,,,,0
130,MAKCWB,MAPLE - KINGS CANYON,,36.736321,-119.745401,,,,,,0
131,BEMA,BELMONT - MAPLE,,36.750573,-119.745909,,,,,,0
132,BEFIWB,BELMONT - FIRST,,36.750558,-119.772917,,,,,,0
133,BEABWB,BELMONT - ABBY,,36.750492,-119.789751,,,,,,0
135,FINE,FIRST - NEES,N FIRST ST,36.851511,-119.774594,,,,,,0
136,FIBUSB,FIRST - BULLARD,,36.822554,-119.772411,,,,,,0
137,FISDSB,FIRST - SHIELDS,,36.780555,-119.772685,,,,,,0
138,VEFISB,VENTURA - FIRST,,36.735994,-119.77296,,,,,,0
140,JECR,JENSEN - CHERRY,E JENSEN AVE & S CHERRY AVE,36.70693,-119.782162,,,,,,0
142,ELGRNB,ELM - GROVE,,36.710815,-119.790655,,,,,,0
143,FIVENB,FIRST - VENTURA,,36.736322,-119.772485,,,,,,0
144,FISDNB,FIRST - SHIELDS,,36.78042,-119.772459,,,,,,0
145,FIBUNB,FIRST - BULLARD,,36.823464,-119.772153,,,,,,0
146,STAGNB,SAINT AGNES HOSPITAL,E FRONTAGE RD S & PRIVATE DR,36.837035,-119.765298,,,,,,0
149,OLPAEB,OLIVE - PALM,,36.757586,-119.808913,,,,,,0
150,OLABEB,OLIVE - ABBY,,36.757188,-119.789025,,,,,,0
152,OLCEEB,OLIVE - CEDAR,,36.757629,-119.753864,,,,,,0
153,OLCHEB,OLIVE - CHESTNUT,,36.757589,-119.735737,,,,,,0
154,OLPEEB,OLIVE - PEACH,,36.757418,-119.717948,,,,,,0
155,BECL,BELMONT - CLOVIS,,36.750549,-119.700681,,,,,,0
157,OLPEWB,OLIVE - PEACH,,36.757563,-119.719683,,,,,,0
158,OLCHWB,OLIVE - CHESTNUT,,36.757807,-119.737107,,,,,,0
159,OLCEWB,OLIVE - CEDAR,,36.757815,-119.755314,,,,,,0
160,OLFRWB,OLIVE - FIRST,,36.757797,-119.773111,,,,,,0
161,OLBLWB,OLIVE - BLACKSTONE,,36.757804,-119.79118,,,,,,0
162,OLPAWB,OLIVE - PALM,E OLIVE AVE & N SAFFORD AVE,36.757676,-119.808918,,,,,,0
164,BLEP,BLACKSTONE - EL PASO,N BLACKSTONE AVE & E EL PASO AVE,36.846538,-119.790658,,,,,,0
167,CESSSB,CEDAR - SHAW,N CEDAR AVE & E SIERRA MADRE AVE,36.808243,-119.754218,,,,,,0
168,CESDSB,CEDAR - SHIELDS,N CEDAR AVE & E FOUNTAIN WAY,36.779841,-119.754401,,,,,,0
169,CEVESB,CEDAR - VENTURA,S CEDAR AVE & E KINGS CANYON RD,36.735559,-119.754581,,,,,,0
170,CEJSSB,CEDAR - JENSEN,S CEDAR AVE & E JENSEN AVE,36.70713,-119.754718,,,,,,0
171,HICTSB,HINTON CENTER,S FAIRVIEW AVE & E CHURCH AVE,36.71448,-119.804289,,,,,,0
173,HICTNB,HINTON CENTER,E CHURCH AVE & S FAIRVIEW AVE,36.714158,-119.804673,,,,,,0
174,CEJNNB,CEDAR - JENSEN,S CEDAR AVE & UNNAMED ALY,36.70721,-119.754605,,,,,,0
175,CEVENB,CEDAR - VENTURA,S CEDAR AVE & E BALCH AVE,36.736238,-119.754492,,,,,,0
176,CESDNB,CEDAR - SHIELDS,N CEDAR AVE & E FOUNTAIN WAY,36.780189,-119.7543,,,,,,0
177,CESNNB,CEDAR - SHAW,N CEDAR AVE & E SCOTT AVE,36.808966,-119.754106,,,,,,0
179,CEHENB,CEDAR - HERNDON,N CEDAR AVE & E HERNDON AVE,36.837751,-119.754106,,,,,,0
181,MASH,MARKS - SHAW,,36.807758,-119.844606,,,,,,0
182,SDWEEB,SHIELDS - WEST,,36.779217,-119.825482,,,,,,0
183,SDCEEB,SHIELDS - CEDAR,,36.779518,-119.753275,,,,,,0
184,CHCLEB,CHESTNUT - CLINTON,,36.77247,-119.736485,,,,,,0
185,CHBUEB,CHESTNUT - BUTLER,,36.728296,-119.73658,,,,,,0
186,MACHEB,MAPLE - CHURCH,,36.713736,-119.745783,,,,,,0
187,GRHA,GRAND - HARDING,,36.683905,-119.733648,,,,,,0
189,CHBUWB,CHESTNUT - BUTLER,S CHESTNUT AVE & E BUTLER AVE,36.729326,-119.736325,,,,,,0
190,CHCLWB,CHESTNUT - CLINTON,,36.772565,-119.736211,,,,,,0
191,SDCEWB,SHIELDS - CEDAR,,36.779732,-119.753677,,,,,,0
193,SDWEWB,SHIELDS - WEST,W SHIELDS AVE & N CHANNING WAY,36.779358,-119.825977,,,,,,0
195,SDST,SHIELDS - STANFORD,,36.779527,-119.687578,,,,,,0
196,ASCLWB,ASHLAN - CLOVIS,,36.793272,-119.701009,,,,,,0
197,ASCEWB,ASHLAN - CEDAR,,36.794249,-119.755452,,,,,,0
198,MCPAWB,MCKINLEY - PALM,,36.76503,-119.807851,,,,,,0
199,FRSDWB,FRUIT - SHIELDS,,36.779612,-119.817528,,,,,,0
200,FRSHWB,NE FRUIT - SHAW,,36.809137,-119.817328,,,,,,0
201,PAHEWB,PALM - HERNDON,,36.837618,-119.808113,,,,,,0
202,HEMI,HERNDON - MILBURN,,36.836912,-119.87853,,,,,,0
204,PAHEEB,PALM - HERNDON,,36.836655,-119.808486,,,,,,0
205,FRSHEB,SW FRUIT - SHAW,,36.808079,-119.81755,,,,,,0
206,FRSDEB,FRUIT - SHIELDS,,36.778978,-119.817724,,,,,,0
207,MCPAEB,MCKINLEY - PALM,,36.764865,-119.80819,,,,,,0
208,ASCEEB,ASHLAN - CEDAR,,36.794047,-119.753875,,,,,,0
209,CLASEB,CLOVIS - ASHLAN,,36.793116,-119.70108,,,,,,0
211,MAPE,MAULPIN - PECK,,36.885088,-119.800032,,,,,,0
213,MITEEB,MILLBROOK - TEAGUE,N MILLBROOK AVE & E TEAGUE AVE,36.859723,-119.76571,,,,,,0
214,CHPR,CHAMPLAIN - PERRIN,,36.871971,-119.764516,,,,,,0
216,MITEWB,MILLBROOK - TEAGUE,,36.858811,-119.765875,,,,,,0
231,BRAWFED,NE BRAWLEY - FEDORA,N BRAWLEY AVE & W FEDORA AVE,36.784322,-119.862249,,,,,,0
232,BRAWDAK,NE BRAWLEY - DAKOTA,N BRAWLEY AVE & W DAKOTA AVE,36.786839,-119.862257,,,,,,0
234,ASH PKWY,NW ASHLAN - PARKWAY,W ASHLAN AVE & N BLYTHE AVE,36.793657,-119.867537,,,,,,0
235,ASH MITR,NW ASHLAN - MITRE,W ASHLAN AVE & N MITRE AVE,36.793639,-119.872061,,,,,,0
236,ASH MILB,NW ASHLAN - MILBURN,W ASHLAN AVE & N MELANIE WAY,36.793631,-119.876552,,,,,,0
237,CORN ASH,NE CORNELIA - ASHLAN,N CORNELIA AVE & W ASHLAN AVE,36.794007,-119.880354,,,,,,0
238,CORNSWFT,NE CORNELIA - SWIFT,N CORNELIA AVE & W SWIFT AVE,36.79631,-119.880384,,,,,,0
239,CORNDNNR,NE 4488 CORNELIA - DONNER,N CORNELIA AVE & PRIVATE DR,36.800835,-119.88041,,,,,,0
240,CORNMPRK,NB 4734 CORNELIA - MOBIL PARK,N CORNELIA AVE & N PARKWAY DR,36.802558,-119.880438,,,,,,0
241,FRMT STE,NE FAIRMONT - STATE,W FAIRMONT AVE & N BARCUS AVE,36.806302,-119.887091,,,,,,0
243,SHAWDALE,SW SHAW - DALE,W SHAW AVE & N DALE AVE,36.808084,-119.88411,,,,,,0
244,SHAWCORN,SE SHAW - CORNELIA,W SHAW AVE & N CORNELIA AVE,36.808183,-119.879551,,,,,,0
245,SHAWBLTH,SW SHAW - BLYTHE,W SHAW AVE & W JENNIFER AVE,36.808135,-119.871993,,,,,,0
246,SHAWELCN,SE SHAW - EL CAPITAN,W SHAW AVE & FRONTAGE RD,36.808205,-119.868124,,,,,,0
248,SHAWMART,SE SHAW - MARTY,W SHAW AVE & N MARTY AVE,36.808153,-119.857704,,,,,,0
249,SHAW3077,3077 W SHAW EB,W SHAW AVE & N MARKS AVE,36.808218,-119.846278,,,,,,0
250,SHAWHOLT,SE SHAW - HOLT,W SHAW AVE & N MARKS AVE,36.808188,-119.843008,,,,,,0
251,SHAWHGHS,SW SHAW - HUGHES,W SHAW AVE & N HUGHES AVE,36.808219,-119.834998,,,,,,0
252,SHAW SEQ,SE SHAW - SEQUOIA,W SHAW AVE & N CRYSTAL AVE,36.808232,-119.832339,,,,,,0
255,SHAWCHNG,SE SHAW - CHANNING,W SHAW AVE & N CHANNING CT,36.808272,-119.823854,,,,,,0
256,SHAWDLNO,SE SHAW - DELNO,W SHAW AVE & N FRUIT AVE,36.808288,-119.819578,,,,,,0
257,SHAWFRT,SE SHAW - FRUIT,W SHAW AVE & N ARTHUR AVE,36.8083,-119.817077,,,,,,0
258,SHAWTHNE,SE SHAW - THRONE,W SHAW AVE & N THORNE AVE,36.808334,-119.81262,,,,,,0
259,SHAWPALM,SE SHAW - PALM,W SHAW AVE & N PALM AVE,36.808358,-119.807721,,,,,,0
260,SHAWWISH,SE SHAW - WISHON,W SHAW AVE & N PALM AVE,36.808391,-119.803445,,,,,,0
261,SHAWMARO,SE SHAW - MAROA,W SHAW AVE & N MAROA AVE,36.808424,-119.798636,,,,,,0
262,SHAWDMAR,SE SHAW - DEL MAR,W SHAW AVE & N DEL MAR AVE,36.808456,-119.794609,,,,,,0
263,SHAWGLEN,SE SHAW - GLENN,W SHAW AVE & E SHAW AVE,36.808477,-119.792233,,,,,,0
265,SHAWFRES,SE SHAW - FRESNO,E SHAW AVE & N FRESNO ST,36.808536,-119.780433,,,,,,0
266,SHAWANGS,SE SHAW - ANGUS,E SHAW AVE & E FRONTAGE RD N,36.808533,-119.776088,,,,,,0
268,SHAWFRTH,SE SHAW - FOURTH,E SHAW AVE & N SIXTH ST,36.808535,-119.765318,,,,,,0
269,SHAWSXTH,SE SHAW - SIXTH,E SHAW AVE & N SIXTH ST,36.808556,-119.762987,,,,,,0
272,WILLRLTO,SW WILLOW - RIALTO,,36.803248,-119.727345,,,,,,0
273,GETTWILL,NW GETTYSBURG - WILLOW,,36.801372,-119.727716,,,,,,0
274,GETTWINE,NW GETTYSBURG - WINERY,,36.801389,-119.73198,,,,,,0
275,GETT4857,4857 E GETTYSBURG WB,,36.801382,-119.73393,,,,,,0
276,GETTCHES,NW GETTYSBURG - CHESTNUT,,36.801394,-119.73681,,,,,,0
277,GETTWOO,NW GETTYSBURG - WOODROW,,36.80141,-119.741107,,,,,,0
278,GETTMAPL,NE GETTYSBURG - MAPLE,,36.801423,-119.744976,,,,,,0
279,MAPLRLTO,NE MAPLE - RIALTO,N MAPLE AVE & E RIALTO AVE,36.803289,-119.745206,,,,,,0
280,MAPLSMAD,SE MAPLE - SIERRA MADRE,N MAPLE AVE & FAIRMONT/SIERRA MADRE ALY,36.807493,-119.7452,,,,,,0
281,SHAWMPLN,NW SHAW - MAPLE,E SHAW AVE & N MAPLE AVE,36.808608,-119.745553,,,,,,0
282,SHAW9TH,NW SHAW - NINTH,E SHAW AVE & N NINTH ST,36.808631,-119.759061,,,,,,0
283,SHAWMLBK,NW SHAW - MILLBROOK,E SHAW AVE & FRONTAGE RD,36.80862,-119.761403,,,,,,0
284,SHAW6TH,NW SHAW - SIXTH,E SHAW AVE & N SIXTH ST,36.8086,-119.763677,,,,,,0
286,SHAWANGN,NW SHAW - ANGUS,E SHAW AVE & N MARIPOSA ST,36.808585,-119.777016,,,,,,0
287,SHAWFRSN,NW SHAW - FRESNO,E SHAW AVE & 41 HWY,36.80857,-119.782141,,,,,,0
289,SHAWDMRN,NW SHAW - DEL MAR,W SHAW AVE & N DEL MAR AVE,36.808509,-119.795299,,,,,,0
290,SHAWMRON,NW SHAW - MAROA,W SHAW AVE & N MAROA AVE,36.808476,-119.799734,,,,,,0
291,SHAWWSHN,NW SHAW - WISHON,W SHAW AVE & N WISHON CT,36.808444,-119.804248,,,,,,0
292,SHAWPLME,NE SHAW - PALM,W SHAW AVE & N PALM AVE,36.808413,-119.807167,,,,,,0
293,SHAWPLMW,NW SHAW - PALM,W SHAW AVE & N PALM AVE,36.808401,-119.80892,,,,,,0
294,SHAWTHRW,NW SHAW - THORNE,W SHAW AVE & N THORNE AVE,36.808388,-119.812122,,,,,,0
295,SHAWFRTW,NW SHAW - FRUIT,W SHAW AVE & N FRUIT AVE,36.808344,-119.817802,,,,,,0
296,SHAWTMNW,NW SHAW - TEILMAN,W SHAW AVE & N TEILMAN AVE,36.808328,-119.822214,,,,,,0
297,SHAWCHNW,NW SHAW - CHANNING,W SHAW AVE & N CHANNING CT,36.808307,-119.824578,,,,,,0
299,SHAWFRKE,NE SHAW - FORKNER,W SHAW AVE & N CRYSTAL AVE,36.808298,-119.830009,,,,,,0
300,SHAWSEQW,NW SHAW - SEQUOIA,W SHAW AVE & N SEQUOIA DR,36.808276,-119.83303,,,,,,0
301,SHAWHGHW,NW SHAW - HUGHES,W SHAW AVE & PRIVATE DR,36.80828,-119.835734,,,,,,0
302,SHAWSHWW,NW SHAW - SHAW LANE,W SHAW AVE & W SHAW LN,36.808311,-119.838788,,,,,,0
304,SHAWCAPW,NW SHAW - EL CAPITAN,W SHAW AVE & N EL CAPITAN AVE,36.808257,-119.868781,,,,,,0
305,SHAWBLYW,NW SHAW - BLYTHE,W SHAW AVE & W JENNIFER AVE,36.808188,-119.872118,,,,,,0
306,SHAWJENE,NE SHAW - JENNIFER,W SHAW AVE & N BLYTHE AVE,36.808184,-119.87429,,,,,,0
307,SAHWCRNW,NW SHAW - CORNELIA,W SHAW AVE & N FORESTIERE AVE,36.808233,-119.881056,,,,,,0
308,SHAWDLEW,NW SHAW - DALE,W SHAW AVE & N DALE AVE,36.808138,-119.884167,,,,,,0
309,SHAWPLKE,NE SHAW-POLK,W SHAW AVE & N POLK AVE,36.808085,-119.888036,,,,,,0
310,POLK4953,4953 N POLK WB,N POLK AVE & N ISLAND WATERPARK DR,36.807243,-119.889515,,,,,,0
311,FMNT5347,5347 W FAIRMONT WB,W FAIRMONT AVE & N BARCUS AVE,36.80625,-119.886231,,,,,,0
312,CORNDNRW,SW CORNELIA - DONNER,N CORNELIA AVE & N PARKWAY DR,36.802317,-119.880494,,,,,,0
313,CORNSWTW,NW CORNELIA - SWIFT,N CORNELIA AVE & PRIVATE DR,36.796577,-119.880453,,,,,,0
314,ASH CRNE,SE ASHLAN - CORNELIA,W ASHLAN AVE & N CORNELIA AVE,36.793553,-119.879753,,,,,,0
315,ASH BLYW,SE ASHLAN - BLYTHE,W ASHLAN AVE & N 99 HWY,36.793589,-119.870625,,,,,,0
316,PRKWASHW,SW PARKWAY - ASHLAN,N PARKWAY DR & N 99 HWY,36.79331,-119.866948,,,,,,0
317,BRAWGRIF,SW BRAWLEY - GRIFFITH,N BRAWLEY AVE & W SAGINAW WAY,36.789543,-119.862333,,,,,,0
318,BRAWDAKN,NW BRAWLEY - DAKOTA,N BRAWLEY AVE & W DAKOTA AVE,36.786937,-119.862336,,,,,,0
319,BRAWDYTN,NW BRAWLEY - DAYTON,N BRAWLEY AVE & W DAYTON AVE,36.78325,-119.862325,,,,,,0
320,BRAWPRNS,SW BRAWLEY - PRINCETON,N BRAWLEY AVE & W BROWN AVE,36.774717,-119.862311,,,,,,0
321,CLNTBRWN,NW CLINTON - BRAWLEY,W CLINTON AVE & N SONORA LN,36.771878,-119.862868,,,,,,0
322,CLNTBRNN,NW CLINTON - BRUINSWICK,W CLINTON AVE & N WAPOMA AVE,36.77186,-119.867482,,,,,,0
323,BLYTCLTE,NE BLYTHE - CLINTON,N BLYTHE AVE & W CLINTON AVE,36.772264,-119.871249,,,,,,0
324,BLYTPRNE,NE BLYTHE - PRINCETON,N BLYTHE AVE & W CORNELL AVE,36.775807,-119.87126,,,,,,0
325,SHLD4355,4355 W SHIELDS WB,W SHIELDS AVE & N BLYTHE AVE,36.779049,-119.870263,,,,,,0
337,WILLKNGW,SW WILLOW - KINGS CANYON,,36.735308,-119.727514,,,,,,0
338,WILLKNGE,SE WILLOW - KINGS CANYON,,36.73532,-119.727337,,,,,,0
342,BRAWSJSE,SE BRAWLEY - SAN JOSE,,36.811395,-119.862486,,,,,,0
343,SJSWMRTE,SW SAN JOSE - MARTY,,36.811756,-119.85873,,,,,,0
344,SAJOVALE,SW SAN JOSE - VALENTINE,,36.811765,-119.853942,,,,,,0
345,SHAWVALE,SE SHAW - VALENTINE,W SHAW AVE & N FELAND AVE,36.808242,-119.853111,,,,,,0
346,SHAWFELA,SW SHAW - FELAND,W SHAW AVE & N VALENTINE AVE,36.808247,-119.849909,,,,,,0
347,MARKSANG,NW MARKS - SAN GABRIEL,,36.803799,-119.844501,,,,,,0
348,EMERMARK,SE EMERSON - MARKS,,36.800945,-119.843965,,,,,,0
349,EMERPLES,SW EMERSON - PLEASANT,,36.800194,-119.840323,,,,,,0
350,EMERKAVA,SE EMERSON - KAVANAUGH,,36.7988,-119.837259,,,,,,0
351,HUGH4323,4323 N HUGHES SOUTHBOUND,,36.795652,-119.835491,,,,,,0
352,HUGHASHL,SW HUGHES - ASHLAN,,36.793545,-119.835458,,,,,,0
353,HUGHBELL,SW HUGHES - BELLAIRE,,36.791604,-119.835474,,,,,,0
354,HUGHGRIF,NW HUGHES - GRIFFITH,,36.790492,-119.835491,,,,,,0
356,HUGHDAKO,NW HUGHES - DAKOTA,,36.78711,-119.835557,,,,,,0
357,HUGHLORN,NW HUGHES - LORNA,,36.782333,-119.83557,,,,,,0
359,HUGHMICH,SW HUGHES - MICHIGAN,,36.776821,-119.835622,,,,,,0
360,HUGHBROW,NW HUGHES - BROWN,,36.774582,-119.835618,,,,,,0
361,WESTCAMB,SW WEST - CAMBRIDGE,,36.769092,-119.826814,,,,,,0
362,MCKITEIL,SE McKINLEY - TEILMAN,,36.764693,-119.821723,,,,,,0
363,MCKITDEL,SE McKINLEY - DELNO,,36.764714,-119.819654,,,,,,0
364,MCKIFRUT,SE McKINLEY - FRUIT,,36.764711,-119.8174,,,,,,0
365,MCKIVANN,SE McKINLEY - VAN NESS,,36.764923,-119.798814,,,,,,0
366,MCKISANP,SW McKINLEY - SAN PABLO,,36.764961,-119.794875,,,,,,0
367,MCKIBLAK,SW BLACKSTONE - McKINLEY,,36.764547,-119.790734,,,,,,0
368,BLAKHEDG,SW BLACKSTONE - HEDGES,,36.759498,-119.79069,,,,,,0
369,BLAKWEBS,SW BLACKSTONE - WEBSTER,,36.756531,-119.790639,,,,,,0
370,BLAKMCKE,SW BLACKSTONE - McKENZIE,,36.746739,-119.790624,,,,,,0
372,M STSTAN,SW M ST - STANISLAUS,,36.740778,-119.792342,,,,,,0
373,O STFRES,NE O ST - FRESNO,,36.739812,-119.787432,,,,,,0
374,ABBYDIVI,NE ABBY - DIVISADERO,N ABBY ST & E DIVISADERO ST,36.743313,-119.789398,,,,,,0
375,ABBYILLI,NE ABBY - ILLINOIS,,36.745353,-119.789329,,,,,,0
376,ABBYBELM,SE ABBY - BELMONT,,36.749871,-119.789333,,,,,,0
377,ABBYOLIV,NE ABBY - OLIVE,,36.75751,-119.789179,,,,,,0
378,BLAKFLOR,SE BLACKSTONE - FLORADORA,,36.761126,-119.790409,,,,,,0
380,MCKIPOPL,NW McKINLEY - POPLAR,,36.765131,-119.79731,,,,,,0
381,MCKIWSHN,NW McKINLEY - WISHON,,36.765042,-119.801602,,,,,,0
382,MCKIHARN,NW McKINLEY - HARRISON,,36.764954,-119.811297,,,,,,0
383,MCKITHRN,NE McKINLEY - THORNE,,36.764913,-119.813045,,,,,,0
384,MCKITLMN,NE McKINLEY - TIELMAN,,36.764853,-119.82203,,,,,,0
385,MCKIWEST,NW McKINLEY - WEST,,36.764796,-119.827098,,,,,,0
387,WEBR2020,2020 N WEBER NB,,36.768802,-119.833067,,,,,,0
388,WEBRCLIN,NE WEBER - CLINTON,,36.772414,-119.834471,,,,,,0
389,HUGHBRWN,NE HUGHES - BROWN,,36.774719,-119.835406,,,,,,0
390,HUGHCORN,SE HUGHES - CORNELL,,36.777076,-119.835393,,,,,,0
393,HUGHGRLN,NE HUGHES - GARLAND,,36.784786,-119.835383,,,,,,0
394,HUGHDKTA,NE HUGHES - DAKOTA,,36.786824,-119.835364,,,,,,0
395,HUGHSAGW,NE HUGHES - SAGINAW,,36.788623,-119.835349,,,,,,0
396,HUGHGRTH,NE HUGHES - GRIFFITH,,36.790281,-119.835316,,,,,,0
397,HUGHHAMP,SE HUGHES - HAMPTON,,36.7921,-119.835304,,,,,,0
398,HUGHASLN,NE HUGHES - ASHLAN,,36.794027,-119.835297,,,,,,0
399,HUGHEMER,NE HUGHES - EMERSON,,36.797955,-119.834693,,,,,,0
400,EMERKANA,NW EMERSON - KAVANAUGH,,36.799234,-119.837661,,,,,,0
401,EMERPLSA,NW EMERSON - PLEASANT,,36.800365,-119.840063,,,,,,0
402,MARKEMRN,NE MARKS - EMERSON,,36.801527,-119.844239,,,,,,0
403,MARKSAAN,NE MARKS - SANTA ANA,,36.804948,-119.844296,,,,,,0
404,MARKFAIR,SE MARKS - FAIRMONT,,36.806334,-119.844306,,,,,,0
405,SHAWMARK,NW SHAW - MARKS,W SHAW AVE & N MARKS AVE,36.808256,-119.84509,,,,,,0
406,SHAWFELD,NW SHAW - FELAND,W SHAW AVE & N VALENTINE AVE,36.808301,-119.849808,,,,,,0
407,SHAWVENT,NW SHAW - VALENTINE,W SHAW AVE & PRIVATE DR,36.808285,-119.853915,,,,,,0
408,SHAWMRTY,NW SHAW - MARTY,W SHAW AVE & N MARTY AVE,36.808214,-119.858485,,,,,,0
409,BRAWSHAW,NE BRAWLEY - SHAW,N BRAWLEY AVE & W SAN JOSE AVE,36.808662,-119.862571,,,,,,0
412,CLOVINYO,SE CLOVIS - INYO,S CLOVIS AVE & E INYO ST,36.737438,-119.70007,,,,,,0
413,CLOVHUNT,NE CLOVIS - HUNTINGTON,S CLOVIS AVE & E INYO ST,36.740295,-119.700084,,,,,,0
414,TULECLOV,NW TULARE - CLOVIS,E TULARE ST & N CLOVIS AVE,36.743213,-119.700753,,,,,,0
416,TULEDEWI,NW TULARE - DEWITT,E TULARE ST & N DEWITT AVE,36.743184,-119.704302,,,,,,0
417,TULEMINN,NW TULARE - MINNEWAWA,E TULARE ST & S LIND AVE,36.743182,-119.709479,,,,,,0
418,TULEVILL,NE TULARE - VILLA,E TULARE ST & N VILLA AVE,36.743188,-119.713436,,,,,,0
420,TULEHELM,NW TULARE - HELM,E TULARE ST & PRIVATE DR,36.743208,-119.723112,,,,,,0
421,TULEWILL,NW TULARE - WILLOW,,36.743274,-119.727644,,,,,,0
422,TULEWINE,NE TULARE - WINERY,,36.743278,-119.731728,,,,,,0
423,TULEGARD,NE TULARE - GARDEN,,36.74329,-119.733674,,,,,,0
424,TULEDEAR,NE TULARE - DEARING,,36.743287,-119.737397,,,,,,0
425,TULESIER,NE TULARE - SIERRA VISTA,,36.74329,-119.740638,,,,,,0
426,TULEBACK,NW TULARE - BACKER,,36.74329,-119.743505,,,,,,0
427,TULEMAPL,NW TULARE - MAPLE,,36.743289,-119.745782,,,,,,0
428,TULEBART,NE TULARE - BARTON,,36.743252,-119.749676,,,,,,0
429,TULACEDR,NW TULARE - CEDAR,E TULARE ST & S CEDAR AVE,36.743244,-119.754966,,,,,,0
430,TULETENT,NW TULARE - TENTH,,36.743285,-119.758373,,,,,,0
431,TULEEIGH,NE TULARE - EIGHTH,,36.743283,-119.76067,,,,,,0
432,TULESXTH,NE TULARE - SIXTH,,36.743286,-119.764075,,,,,,0
433,TULETHRD,NW TULARE - THIRD,,36.743273,-119.769545,,,,,,0
434,TULEFRST,NW TULARE - FIRST,,36.743318,-119.772919,,,,,,0
435,TULE UST,NW TULARE - U ST,,36.742172,-119.778703,,,,,,0
436,TULE SST,NW TULARE - S ST,,36.740331,-119.781289,,,,,,0
437,TULE QST,NW TULARE - Q ST,,36.738875,-119.783316,,,,,,0
438,TULE OST,NW TULARE - O ST,,36.737422,-119.785317,,,,,,0
439,VANNTUOL,NE VAN NESS - TUOLUMNE,,36.738909,-119.793737,,,,,,0
440,CALA LST,SE CALAVERAS - L ST,,36.741445,-119.794376,,,,,,0
441,M STCALA,NE M ST - CALAVERAS,,36.742288,-119.79376,,,,,,0
442,SANPVOOR,NE SAN PABLO - VOORMAN,,36.744108,-119.794616,,,,,,0
443,SANPMCKE,NE SAN PABLO - McKENZIE,,36.747143,-119.794638,,,,,,0
444,SANPBELM,NE SAN PABLO - BELMONT,,36.751126,-119.795025,,,,,,0
445,SANPTHOM,NE SAN PABLO -THOMAS,,36.752539,-119.795012,,,,,,0
446,SANPENGL,NE SAN PABLO - ENGLEWOOD,,36.754241,-119.795007,,,,,,0
447,SANPPATT,NE SAN PABLO - PATTERSON,N SAN PABLO AVE & E ALHAMBRA AVE,36.756079,-119.794975,,,,,,0
448,OLIVDELM,NW OLIVE - DEL MAR,,36.757736,-119.795954,,,,,,0
450,OLIVECHO,NW OLIVE - ECHO,,36.75772,-119.804835,,,,,,0
451,OLIVWISH,NE OLIVE - WILSON,,36.757697,-119.806645,,,,,,0
453,OLIVADOL,NW OLIVE - ADOLINE,,36.757675,-119.814449,,,,,,0
454,FRUTOLIV,NE FRUIT - OLIVE,,36.757956,-119.817572,,,,,,0
455,FURTFLOR,NE FRUIT - FLORADORA,,36.761387,-119.817555,,,,,,0
456,FRUTHOME,NE FRUIT - HOME,,36.763186,-119.817569,,,,,,0
457,MCKIFRIT,NW McKINLEY - FRUIT,,36.764891,-119.818595,,,,,,0
458,WESTMCKL,NE WEST - McKINLEY,,36.765183,-119.826599,,,,,,0
459,WESTNORM,NE WEST - NORMAL,,36.767643,-119.826571,,,,,,0
460,WESTCRDG,NE WEST - CAMBRIDGE,,36.769508,-119.826545,,,,,,0
461,WESTCLIN,SE WEST - CLINTON,,36.771647,-119.826521,,,,,,0
462,WESTHARV,NE WEST - HARVARD,,36.774101,-119.826498,,,,,,0
463,WESTMICH,SE WEST - MICHIGAN,,36.776365,-119.826474,,,,,,0
466,WESTFOUN,SE WEST - FOUNTAIN WAY,,36.781011,-119.826422,,,,,,0
467,WESTDAYT,NE WEST - DAYTON,,36.783174,-119.826424,,,,,,0
468,WESTDAKO,NE WEST - DAKOTA,,36.786881,-119.826379,,,,,,0
469,WESTSAGI,NE WEST - SAGINAW,,36.788621,-119.826361,,,,,,0
470,WESTGRIF,NE WEST - GRIFFITH,,36.790498,-119.826338,,,,,,0
471,WESTASHL,SE WEST - ASHLAN,,36.79252,-119.826321,,,,,,0
472,WESTHOLL,SE WEST - HOLLAND,,36.794766,-119.826305,,,,,,0
473,WESTHOLT,NE WEST - HOLT,,36.797489,-119.82629,,,,,,0
474,WESTGETT,SE WEST - GETTYSBURG,,36.800907,-119.826301,,,,,,0
475,WESTRIAL,SE WEST - RIALTO,,36.802677,-119.826281,,,,,,0
476,WESTSNTA,NE WEST - SANTA ANA,,36.804915,-119.826269,,,,,,0
478,WESTSABR,SE WEST - SAN BRUNO,,36.813332,-119.826277,,,,,,0
479,BARSWEST,NW BARSTOW - WEST,,36.815623,-119.827255,,,,,,0
480,BARSFORK,NE BARSTOW - FORKNER,,36.815576,-119.830454,,,,,,0
481,BARSVANN,NE BARSTOW - VAN NESS,,36.815561,-119.83578,,,,,,0
482,MARKBARS,NE MARKS - BARSTOW,,36.815711,-119.844282,,,,,,0
483,MARKBROW,SE MARKS - BROWNING,,36.818813,-119.844294,,,,,,0
484,BULLMARK,SE BULLARD - MARKS,,36.822643,-119.843692,,,,,,0
485,BULLPLEA,SE BULLARD - PLEASANT,,36.822661,-119.839621,,,,,,0
486,BULLVANE,SW BULLARD - VAN NESS,,36.822674,-119.835677,,,,,,0
487,BULLFORK,SE BULLARD - FORKNER,,36.822691,-119.830384,,,,,,0
489,WESTBRWN,SW WEST - BROWNING,,36.818785,-119.826508,,,,,,0
490,WESTBARS,SW WEST - BARSTOW,,36.81524,-119.826528,,,,,,0
491,WESTSABU,SW WEST - SAN BRUNO,,36.812758,-119.8265,,,,,,0
493,WESTALAM,SW WEST - ALAMOS,,36.805297,-119.826528,,,,,,0
494,WESTRALT,SW WEST - RIALTO,,36.802592,-119.826547,,,,,,0
495,WESTINDI,SW WEST - INDIANAPOLIS,,36.79964,-119.826534,,,,,,0
496,WESTEMER,SW WEST - EMERSON,,36.795191,-119.826551,,,,,,0
497,WESTASLA,SW WEST - ASHLAN,,36.793478,-119.826551,,,,,,0
498,WESTGRFF,SW WEST - GRIFFITH,,36.789926,-119.82658,,,,,,0
499,WESTSAGW,SW WEST - SAGINAW,,36.788132,-119.826606,,,,,,0
500,WESTDAKT,SW WEST - DAKOTA,,36.786339,-119.826628,,,,,,0
501,WESTFEDO,SW WEST - FEDORA,,36.783436,-119.826659,,,,,,0
503,WESTPRIN,SW WEST - PRINCETON,,36.775564,-119.826738,,,,,,0
504,WESTHAVD,NW WEST - HARVARD,,36.77408,-119.826759,,,,,,0
505,WESTCLNT,SW WEST - CLINTON,,36.771691,-119.826778,,,,,,0
506,WESTMCKI,NW WEST - McKINLEY,,36.765677,-119.826862,,,,,,0
507,MCKIBROO,SE McKINLEY - BROOKS,,36.764642,-119.825378,,,,,,0
508,FRUITHME,SW FRUIT - HOME,,36.762815,-119.817761,,,,,,0
509,FRUTFLOR,NW FRUIT - FLORADORA,,36.761325,-119.817749,,,,,,0
510,FRUTHEDG,SW FRUIT - HEDGES,,36.759173,-119.817735,,,,,,0
511,OLIVADLS,SE OLIVE - ADOLINE,,36.757555,-119.814044,,,,,,0
512,OLIVEPLM,SW OLIVE - PALM,E OLIVE AVE & N SAFFORD AVE,36.757587,-119.808692,,,,,,0
513,OLIVWSHN,SW OLIVE - WILSON,E OLIVE AVE & N WILSON AVE,36.757572,-119.806906,,,,,,0
514,OLIVVANS,SE OLIVE - VAN NESS,,36.757606,-119.798534,,,,,,0
515,SANPELIZ,NW SAN PABLO - ELIZABETH,,36.755565,-119.795132,,,,,,0
516,SANPBREM,SW SAN PABLO - BREMER,,36.75279,-119.795124,,,,,,0
517,SANPBLMT,NW SAN PABLO - BELMONT,,36.751022,-119.795144,,,,,,0
518,SANPMCZE,SW SAN PABLO - McKENZIE,,36.746693,-119.794761,,,,,,0
519,SANPDIVI,NW SAN PABLO - DIVISADERO,,36.744008,-119.794747,,,,,,0
520,M STSANJ,SW M ST - SAN JOAQUIN,,36.742896,-119.794634,,,,,,0
521,M STTUOL,SW M ST - TUOLUMNE,,36.739879,-119.791343,,,,,,0
522,MERC MST,NW MERCED - M ST,,36.738709,-119.791052,,,,,,0
523,TULEMSTS,SE TULARE - M ST,,36.736848,-119.785861,,,,,,0
525,TULARPST,SE TULARE - P ST,,36.738387,-119.783668,,,,,,0
526,TULARSST,SW TULARE - S ST,,36.740393,-119.780832,,,,,,0
527,TULARUST,SE TULARE - U ST,,36.742013,-119.778553,,,,,,0
528,TULEORCH,SW TULARE - ORCHARD,,36.743047,-119.774876,,,,,,0
529,TULEFIRS,SE TULARE - FIRST,,36.743068,-119.771044,,,,,,0
530,TULETHRI,SE TULARE - THIRD,,36.743091,-119.76884,,,,,,0
531,TULESIXT,SE TULARE - SIXTH,,36.743116,-119.764061,,,,,,0
532,TULENINT,SE TULARE - NINTH,,36.743118,-119.759057,,,,,,0
534,TULEBARN,SE TULARE - BARTON,,36.743083,-119.749694,,,,,,0
535,TULEMPLE,SW TULARE - MAPLE,,36.743108,-119.745904,,,,,,0
536,TULEBCKR,SE TULARE - BACKER,,36.743106,-119.743504,,,,,,0
537,TULESERR,SE TULARE - SIERRA VISTA,,36.743129,-119.74024,,,,,,0
538,TULE4830,4830 E TULARE EB,,36.743125,-119.735271,,,,,,0
539,TULEWIRY,SW TULARE - WINERY,,36.743133,-119.732789,,,,,,0
540,TULE4974,4974 TULARE EB,,36.743118,-119.728939,,,,,,0
541,TULEWILO,SE TULARE - WILLOW,,36.743113,-119.727025,,,,,,0
542,TULARHLM,SW TULARE - HELM,,36.743101,-119.723463,,,,,,0
544,TULEVILA,SW TULARE - VILLA,,36.743093,-119.713964,,,,,,0
545,TULELIND,SE TULARE - LIND,,36.743084,-119.71119,,,,,,0
546,TULEMIWA,SE TULARE - MINNEWAWA,,36.743088,-119.70877,,,,,,0
547,TULEDEWT,SW TULARE - DEWITT,,36.743136,-119.704254,,,,,,0
548,TULE5546,5546 TULARE EB,,36.743111,-119.701599,,,,,,0
550,CLOVTULE,SW CLOVIS - TULARE,,36.742902,-119.700252,,,,,,0
551,CLOVI250,250 S CLOVIS - VILLAGE APARTMENTS,,36.741058,-119.700225,,,,,,0
552,BALCCLOV,SE BALCH - CLOVIS,,36.738419,-119.699461,,,,,,0
553,BALCWAVE,SE BALCH - WAVERLY,,36.738427,-119.696627,,,,,,0
554,PHILLMON,SE PHILLIP - MONO,,36.737121,-119.695697,,,,,,0
556,KSCAARGY,SE KINGS CANYON - ARGYLE,,36.73616,-119.692545,,,,,,0
557,KSCASUNN,SE KINGS CANYON - SUNNYSIDE,,36.736372,-119.689173,,,,,,0
558,KSCASTAN,SE KINGS CANYON - STANFORD,,36.736531,-119.686405,,,,,,0
559,FOWLKGCA,SW FOWLER - KINGS CANYON,,36.736595,-119.682225,,,,,,0
560,FOWLALTA,SW FOWLER - ALTA,,36.733785,-119.682202,,,,,,0
561,LIBY6037,6037 LIBERTY - FOWLER EB,,36.731355,-119.681332,,,,,,0
563,FOWLLYEL,NE FOWLER - LYELL,,36.730759,-119.682036,,,,,,0
564,FOWLLANE,NE FOWLER - LANE,,36.733524,-119.682033,,,,,,0
565,KNGSFOWL,NW KINGS CANYON - FOWLER,E KINGS CANYON RD & S STANFORD AVE,36.736758,-119.684686,,,,,,0
566,KNGSSNNY,NE KINGS CANYON - SUNNYSIDE,E KINGS CANYON RD & S SUNNYSIDE AVE,36.736443,-119.689931,,,,,,0
567,KNGSAYLE,NW KINGS CANYON - ARGYLE,E KINGS CANYON RD & S PHILLIP AVE,36.736219,-119.693479,,,,,,0
569,BRAWSHIE,SW BRAWLEY - SHIELDS,N BRAWLEY AVE & W SHIELDS AVE,36.778779,-119.862323,,,,,,0
570,CLINBRAW,SE CLINTON - BRAWLEY,,36.771767,-119.861829,,,,,,0
571,CLIN3587,3587 W CLINTON,W CLINTON AVE & N SELLAND AVE,36.771845,-119.85649,,,,,,0
572,CLINVALE,SE CLINTON - VALENTINE,,36.771854,-119.852991,,,,,,0
573,CLINCARL,SE CLINTON - CAROL,W CLINTON AVE & N CAROL AVE,36.771865,-119.850429,,,,,,0
574,CLINMARK,SE CLINTON - MARKS,W CLINTON AVE & N MARKS AVE,36.771877,-119.843474,,,,,,0
575,CLINCRYS,SE CLINTON - CRYSTAL,,36.771889,-119.83135,,,,,,0
576,CLINWARR,SE CLINTON - WARREN,,36.77189,-119.828585,,,,,,0
578,CLNTTEIL,SE CLINTON - TEILMAN,,36.771961,-119.821965,,,,,,0
579,CLNTDELN,SE CLINTON - DELNO,,36.771988,-119.818802,,,,,,0
580,CLNTVAGE,SW CLINTON - VAGEDES,W CLINTON AVE & N FRUIT/VAGEDES ALY,36.772017,-119.816776,,,,,,0
581,CLNTTHOR,SE CLINTON - THORNE,,36.772023,-119.812849,,,,,,0
582,CLNTPALM,SW CLINTON - PALM,,36.772047,-119.809311,,,,,,0
583,CLNTVANN,SW CLINTON - VAN NESS,,36.77213,-119.80437,,,,,,0
584,CLNTWISH,SW CLINTON - WISHON,,36.772138,-119.801297,,,,,,0
585,CLNTMARO,SE CLINTON - MAROA,,36.77216,-119.799223,,,,,,0
587,CLNTSANP,SW CLINTON - SAN PABLO,,36.77231,-119.79479,,,,,,0
588,CLNTGLEN,SE CLINTON - GLENN,,36.77235,-119.79297,,,,,,0
590,BLAKPRIN,NE BLACKSTONE - PRINCETON,,36.776189,-119.79043,,,,,,0
592,BLAKCORN,NW BLACKSTONE - CORNELL,,36.778942,-119.79071,,,,,,0
593,BLAKPRTN,SW BLACKSTONE - PRINCETON,,36.775643,-119.790718,,,,,,0
594,CLINBLKS,SE CLINTON - BLACKSTONE,,36.772205,-119.78992,,,,,,0
595,CLINEFFE,SE CLINTON - EFFIE,,36.772216,-119.787996,,,,,,0
596,CLINTHSS,SW CLINTON - THESTA,,36.772202,-119.784671,,,,,,0
597,CLINTFRE,SE CLINTON - FRESNO,,36.7722,-119.781156,,,,,,0
598,CLINANGS,SW CLINTON - ANGUS,,36.772206,-119.777288,,,,,,0
599,CLINORCH,SE CLINTON - ORCHARD,,36.772217,-119.774392,,,,,,0
600,CLINFRST,SE CLINTON - FIRST,,36.772208,-119.772058,,,,,,0
601,CLINBOND,SE CLINTON - BOND,,36.772218,-119.767289,,,,,,0
602,CLINSXTH,SE CLINTON - SIXTH,,36.772225,-119.764319,,,,,,0
603,CLINMILL,SE CLINTON - MILLBROOK,,36.77223,-119.76272,,,,,,0
604,CLINNINT,SE CLINTON - NINTH,,36.772244,-119.759415,,,,,,0
605,CLINCEDR,SE CLINTON - CEDAR,,36.772228,-119.75379,,,,,,0
606,CLINROWL,SE CLINTON - ROWELL,E CLINTON AVE & N CHANCE AVE,36.772283,-119.751754,,,,,,0
607,CLINMPLS,SW CLINTON - MAPLE,,36.772211,-119.745665,,,,,,0
608,CLINSRVI,SW CLINTON - SIERRA VISTA,,36.772175,-119.74171,,,,,,0
609,CLINCHES,SW CLINTON - CHESTNUT,,36.77216,-119.736952,,,,,,0
610,CLINWINE,SE CLINTON - WINERY,,36.772086,-119.731399,,,,,,0
611,CLINFINE,SE CLINTON - FINE,,36.772081,-119.726369,,,,,,0
613,CLINHELM,NW CLINTON - HELM,,36.768665,-119.722469,,,,,,0
614,PECHMCKI,NW PEACH - McKINLEY,,36.765594,-119.718465,,,,,,0
615,PECHHOME,SW PEACH - HOME,,36.76412,-119.718495,,,,,,0
616,PECHLAMO,SW PEACH - LAMONA,,36.76008,-119.718443,,,,,,0
617,PECHOLIV,SW PEACH - OLIVE,,36.75663,-119.718431,,,,,,0
619,PECHBEMT,SW PEACH - BELMONT,,36.751631,-119.718437,,,,,,0
620,PECHNEVA,SW PEACH - NEVADA,,36.746047,-119.718316,,,,,,0
621,PECHTULE,SW PEACH -TULARE,,36.743024,-119.718398,,,,,,0
622,PECHHUNT,SW PEACH - HUNTINGTON,,36.738983,-119.718437,,,,,,0
623,PECHKGSC,NW 540 S PEACH - KINGS CANYON,,36.736902,-119.718534,,,,,,0
624,KGCAMART,5125 KINGS CANYON - WALMART,,36.73598,-119.721534,,,,,,0
625,LANEWILL,NW LANE - WILLOW,,36.732387,-119.728038,,,,,,0
626,WINELANE,SW WINERY - LANE,,36.731958,-119.732006,,,,,,0
627,BUTLWINE,NW BUTLER - WINERY,,36.728736,-119.733047,,,,,,0
629,BUTLSIVI,NW BUTLER - SIERRA VISTA,,36.728742,-119.741384,,,,,,0
630,BUTLMOSQ,NW BUTLER - MOSQUEDA CENTER,,36.728732,-119.742861,,,,,,0
631,BUTLMAPL,NW BUTLER - MAPLE,,36.72872,-119.746262,,,,,,0
632,BUTLCHAN,NE BUTLER - CHANCE,,36.728708,-119.750769,,,,,,0
633,BUTLCEDR,NW BUTLER - CEDAR,,36.728702,-119.754012,,,,,,0
634,BUTLTENT,NW BUTLER - TENTH,,36.728672,-119.758259,,,,,,0
636,BUTLORAN,NW BUTLER - ORANGE,,36.728739,-119.764021,,,,,,0
637,BUTLFORT,NE BUTLER - FOURTH,,36.728742,-119.767478,,,,,,0
638,BUTLTHRD,NE BUTLER - THIRD,,36.72875,-119.769047,,,,,,0
639,BUTLPARA,NW BUTLER - PARALLEL,,36.728739,-119.772251,,,,,,0
641,VANNLOSA,NE VAN NESS - LOS ANGELES,,36.72701,-119.780652,,,,,,0
642,VANNKERN,NE VAN NESS - KERN,,36.73403,-119.788438,,,,,,0
643,ASH,A SHELTER,VAN NESS AVE & TULARE ST,36.736028,-119.79057,,,,,,0
644,VANNMERC,NE VAN NESS - MERCED,,36.737875,-119.792613,,,,,,0
645,VANNCALA,NE VAN NESS - CALAVERAS,,36.74103,-119.796084,,,,,,0
646,AMADFULT,NE AMADOR - FULTON,,36.742021,-119.79874,,,,,,0
647,BROADAMA,NE BROADWAY - AMADOR,,36.741369,-119.800018,,,,,,0
648,DIVIBROA,NE DIVISADERO - BROADWAY,,36.743673,-119.803044,,,,,,0
649,HSTROOSE,NW H ST - ROOSEVELT,,36.745238,-119.806557,,,,,,0
650,HSTARROY,NE H ST - ARROYO,,36.746358,-119.807836,,,,,,0
651,PALMFRAN,NE PALM - FRANKLIN,,36.748946,-119.808196,,,,,,0
652,PALMBELM,NE PALM - BELMONT,,36.750586,-119.808332,,,,,,0
653,PALMDUDL,NE PALM - DUDLEY,,36.754217,-119.808508,,,,,,0
654,PALMDENN,SE PALM - DENNETT,,36.755584,-119.808516,,,,,,0
655,PALMOLIV,NE PALM - OLIVE,,36.757984,-119.808502,,,,,,0
657,PALMFLOR,SE PALM - FLORADORA,,36.761238,-119.808513,,,,,,0
658,PALMPINE,NE PALM - PINE,,36.762719,-119.80852,,,,,,0
659,PALMMCKI,NE PALM - MCKINLEY,,36.765503,-119.808533,,,,,,0
660,PALMWELD,SE PALM - WELDON,,36.768242,-119.808529,,,,,,0
661,PALMYALE,NE PALM - YALE,,36.77062,-119.808576,,,,,,0
662,PALMCLIN,NE PALM - CLINTON,,36.77247,-119.80858,,,,,,0
663,PALMHARV,NE PALM - HARVARD,,36.774068,-119.808609,,,,,,0
664,PALMPRIN,NE PALM - PRINCETON,,36.776223,-119.808602,,,,,,0
665,PALMCORN,SE PALM - CORNELL,,36.77736,-119.808602,,,,,,0
667,PALMFNTN,NE PALM - FOUNTAIN WAY,,36.781451,-119.80858,,,,,,0
668,PALMDAYT,NE PALM - DAYTON,,36.783333,-119.808568,,,,,,0
669,PALMGARL,NE PALM - GARLAND,,36.784631,-119.808567,,,,,,0
670,PALMDAKO,SE PALM - DAKOTA,,36.78619,-119.808561,,,,,,0
671,PALMLANS,NE PALM - LANSING,,36.787919,-119.808554,,,,,,0
672,PALMPONT,NE PALM - PONTAIC,,36.789675,-119.808557,,,,,,0
673,PALMSUSX,NE PALM - SUSSEX WAY,,36.791473,-119.80855,,,,,,0
674,PALMASLN,SE PALM - SWIFT,,36.795534,-119.808528,,,,,,0
675,PALMHOLL,NE PALM - HOLLAND,,36.797811,-119.808502,,,,,,0
676,PALMGETT,NE PALM - GETTYSBURG,,36.801514,-119.808476,,,,,,0
677,PALMRIAL,SE PALM - RIALTO,,36.802762,-119.808459,,,,,,0
678,PALMACDE,NE PALM - ARCADE,,36.80629,-119.808439,,,,,,0
679,PALMSHAW,NE PALM - SHAW,,36.808748,-119.808308,,,,,,0
680,PALMSNJO,NE PALM - SAN JOSE,,36.812242,-119.808302,,,,,,0
681,PALMSNRA,SE PALM - SAN RAMON,,36.813436,-119.808306,,,,,,0
682,PALMBROW,NE PALM - BROWNING,,36.81964,-119.808247,,,,,,0
683,PALMBULL,NE PALM - BULLARD,,36.823474,-119.80822,,,,,,0
684,PALMSTUA,NE PALM - STUART,,36.825359,-119.808247,,,,,,0
685,PALMSAMP,NE PALM - SAMPLE,,36.827208,-119.808236,,,,,,0
686,PALMSIER,NE PALM - SIERRA,,36.830419,-119.808236,,,,,,0
687,PALMMGLL,SE PALM - MAGILL,,36.834786,-119.808212,,,,,,0
689,INGRHERN,NE INGRAM - HERNDON,N INGRAM AVE & W FIR AVE,36.838499,-119.801836,,,,,,0
690,INGRSPRU,SE INGRAM - SPRUCE,,36.840583,-119.801791,,,,,,0
691,MINAINGR,SE MINARETS - INGRAM,,36.842598,-119.801283,,,,,,0
692,MINACOLL,SE MINARETS - COLLEGE,,36.842597,-119.797091,,,,,,0
693,MINASNPA,SE MINARETS - SAN PABLO,,36.842614,-119.794284,,,,,,0
694,MINASUGR,SE MINARETS - SUGAR PINE,,36.842598,-119.791579,,,,,,0
695,SBLKPINE,SE BLACKSTONE - PINEDALE,,36.843372,-119.790354,,,,,,0
696,ELPATARG,EL PASO - TARGET EB,,36.848154,-119.786963,,,,,,0
698,NEESPOPL,NW NEES - POPLAR,,36.851977,-119.796916,,,,,,0
699,NEESMARO,NE NEES - MAROA,,36.851958,-119.798938,,,,,,0
700,INGRNEES,SW INGRAM - NEES,,36.851455,-119.801961,,,,,,0
701,INGRFALL,SW INGRAM - FALLBROOK,,36.849152,-119.80195,,,,,,0
702,INGRBEDF,SW INGRAM - BEDFORD,,36.845847,-119.801958,,,,,,0
703,INGRALUV,SW INGRAM - ALLUVIAL,,36.843989,-119.80195,,,,,,0
707,PALMMAGL,SW PALM - MAGILL,,36.834875,-119.808442,,,,,,0
708,PALMSIRA,SW PALM - SIERRA,,36.829725,-119.808478,,,,,,0
709,PALMBRNG,SW PALM - BROWNING,,36.818983,-119.808495,,,,,,0
710,NPLMBSTW,NW PALM - BARSTOW,,36.81588,-119.808563,,,,,,0
711,PALMSNJE,SW PALM - SAN JOSE,,36.811669,-119.808551,,,,,,0
712,PALMSHAH,NW PALM - SHAW,,36.809312,-119.808565,,,,,,0
713,PALMSUNS,SW PALM - SUNSET,,36.805947,-119.808626,,,,,,0
714,PALMGETY,SW PALM - GETTYSBURG,,36.800879,-119.808674,,,,,,0
715,PALMHOLD,NW PALM - HOLLAND,,36.797709,-119.80869,,,,,,0
716,PALMSWFT,SW PALM - SWIFT,,36.795502,-119.808713,,,,,,0
717,PALMASLA,SW PALM - ASHLAN,,36.793647,-119.80873,,,,,,0
718,PALMGRIF,NW PALM - GRIFFITH,,36.790461,-119.808744,,,,,,0
719,PALMLNSG,SW PALM - LANSING,,36.787313,-119.808723,,,,,,0
720,PALMDKTA,SW PALM - DAKOTA,,36.786245,-119.808713,,,,,,0
721,PALMGARD,SW PALM - GARLAND,,36.784739,-119.808695,,,,,,0
722,PALMDATN,SW PALM - DAYTON,,36.782888,-119.80875,,,,,,0
723,PALMFNWA,SW PALM - FOUNTAIN WAY,,36.781074,-119.80876,,,,,,0
725,PALMCONL,SW PALM - CORNELL,,36.777382,-119.808734,,,,,,0
726,PALMHVRD,SW PALM - HARVARD,,36.773723,-119.80873,,,,,,0
727,PALMCLTN,SW PALM - CLINTON,,36.771779,-119.808758,,,,,,0
728,PALMYALL,NW PALM - YALE,,36.770602,-119.808758,,,,,,0
729,PALMWLDN,SW PALM - WELDON,,36.768422,-119.808731,,,,,,0
730,PALMMCKY,SW PALM - McKINLEY,,36.764285,-119.808742,,,,,,0
731,PALMPINN,SW PALM - PINE,,36.762397,-119.808722,,,,,,0
732,PALMFLDA,SW PALM - FLORADORA,,36.760919,-119.808722,,,,,,0
733,PALMHDGS,SW PALM - HEDGES,,36.759168,-119.808713,,,,,,0
734,PALMOIVE,SW PALM - OLIVE,,36.757337,-119.808715,,,,,,0
735,PALMDENT,SW PALM - DENNETT,,36.755579,-119.808698,,,,,,0
736,PALMDUDE,SW PALM - DUDLEY,,36.753795,-119.808707,,,,,,0
737,PALMBLMT,SW PALM - BELMONT,,36.74962,-119.80839,,,,,,0
738,HSTARRYO,SW H ST - ARROYO-FWY 180,,36.74497,-119.806523,,,,,,0
739,HSTROSVL,SW H ST - ROOSEVELT,,36.743986,-119.805219,,,,,,0
740,DIVISBRO,SE DIVISADERO - BROADWAY,,36.743528,-119.80335,,,,,,0
741,BROAAMAD,NW BROADWAY - AMADOR,,36.741212,-119.800075,,,,,,0
742,BRODCALA,NE BROADWAY - CALAVERAS,,36.739249,-119.797926,,,,,,0
743,TUOLFLTN,SE TUOLUMNE - FULTON,,36.738144,-119.794141,,,,,,0
744,L SH,L SHELTER,FRESNO ST & UNNAMED ALY,36.737135,-119.790425,,,,,,0
746,M STVENT,SW M ST - VENTURA,,36.731795,-119.782472,,,,,,0
747,M STFY41,SW M ST - FWY 41,,36.730522,-119.78105,,,,,,0
748,M STMONT,SW M ST - MONTEREY,,36.728916,-119.779325,,,,,,0
749,LOSA NST,NW LOS ANGELES - N ST,,36.728541,-119.777653,,,,,,0
750,BUTLPRLL,SW BUTLER - PARALLEL,,36.728588,-119.771903,,,,,,0
752,BUTLFRTH,SE BUTLER - FOURTH,,36.728611,-119.768941,,,,,,0
753,BUTLGEAR,SW BUTLER - GEARHEART,,36.728585,-119.765437,,,,,,0
755,BUTLNINE,SE BUTLER - NINTH,,36.728565,-119.759383,,,,,,0
757,BUTLCRDR,SE BUTLER - CEDAR,,36.728559,-119.753551,,,,,,0
758,BUTLCHNC,SE BUTLER - CHANCE,,36.728559,-119.750904,,,,,,0
759,BUTLMPLE,SE BUTLER - MAPLE,,36.728566,-119.744804,,,,,,0
760,BUTLMOQU,SE BUTLER - MOSQUEDA CENTER,,36.728577,-119.742667,,,,,,0
761,BUELSIER,SW BUTLER - SIERRA VISTA,,36.728587,-119.74118,,,,,,0
762,WINEBUTL,NE WINERY - BUTLER,,36.728992,-119.731922,,,,,,0
763,WINERTLN,SE WINERY - LANE,,36.732,-119.731899,,,,,,0
764,WILLALTA,NE WILLOW - ALTA,,36.733652,-119.727338,,,,,,0
765,KGCAWALM,KINGS CANYON - WALMART,,36.735806,-119.72248,,,,,,0
766,PECHKING,NE PEACH - KINGS CANYON,,36.736312,-119.718298,,,,,,0
767,PECHHTON,NE PEACH - HUNTINGTON,,36.738124,-119.718241,,,,,,0
768,PECHTULR,NE PEACH - TULARE,,36.743337,-119.718184,,,,,,0
769,PECHTRAL,SE PEACH - MCKENZIE TRAIL,,36.747032,-119.718142,,,,,,0
770,PECHHRVY,NE PEACH - HARVEY,,36.754466,-119.718154,,,,,,0
771,PECHOLVE,NE PEACH - OLIVE,,36.757779,-119.718122,,,,,,0
772,PECHPINE,SE PEACH - PINE,,36.761522,-119.718208,,,,,,0
774,PECHMCKY,SE PEACH - McKINLEY,,36.764022,-119.718217,,,,,,0
776,CLINASHL,NW CLINTON - ASHLEY,,36.771612,-119.723365,,,,,,0
777,CLINTFNE,NW CLINTON - FINE,,36.772337,-119.72718,,,,,,0
778,CLINWINY,NE CLINTON - WINERY,,36.772354,-119.731292,,,,,,0
779,CLINCHET,NW CLINTON - CHESTNUT,,36.772335,-119.736775,,,,,,0
780,CLINSIEV,NW CLINTON - SIERRA VISTA,,36.772336,-119.741094,,,,,,0
781,CLINMAPL,NW CLINTON - MAPLE,,36.772372,-119.745743,,,,,,0
782,CLINBART,NW CLINTON - BARTON,,36.772396,-119.750359,,,,,,0
783,CLINCEDA,NW CLINTON - CEDAR,,36.772436,-119.755198,,,,,,0
784,CLINNINE,NE CLINTON - NINTH,,36.772428,-119.75925,,,,,,0
785,CLINSIXT,NW CLINTON - SIXTH,,36.772404,-119.764665,,,,,,0
786,CLINTBND,NW CLINTON - BOND,,36.772391,-119.768283,,,,,,0
787,CLINFIRS,NW CLINTON - FIRST,,36.772372,-119.773483,,,,,,0
788,CLINOCRD,NW CLINTON - ORCHARD,,36.772374,-119.77511,,,,,,0
789,CLINANGU,NW CLINTON - ANGUS,,36.772361,-119.777517,,,,,,0
790,CLINFRES,NE CLINTON - FRESNO,,36.772352,-119.780823,,,,,,0
791,CLINTHES,NW CLINTON -THESTA,E CLINTON AVE & N THESTA ST,36.772329,-119.784322,,,,,,0
792,CLINEFFI,NW CLINTON - EFFIE,,36.772352,-119.788513,,,,,,0
794,CLINBLAK,NW CLINTON - BLACKSTONE,,36.772384,-119.790998,,,,,,0
795,CLINCOLL,NW CLINTON - COLLEGE,,36.772325,-119.797596,,,,,,0
796,CLINMARO,NW CLINTON - MAROA,,36.772296,-119.799983,,,,,,0
797,CLINWISH,NW CLINTON - WISHON,,36.772278,-119.801423,,,,,,0
798,CLINVANN,NW CLINTON - VAN NESS,,36.772259,-119.804566,,,,,,0
799,CLINPALM,NW CLINTON - PALM,,36.772196,-119.809101,,,,,,0
800,CLINFARR,NW CLINTON - FARRIS,,36.772163,-119.812279,,,,,,0
801,CLINADOL,NW CLINTON - ADOLINE,,36.772177,-119.81457,,,,,,0
802,CLINFRUT,NW CLINTON - FRUIT,,36.772151,-119.818326,,,,,,0
803,CLINDELN,NW CLINTON - DELNO,,36.772125,-119.820127,,,,,,0
804,CLINTEIL,NW CLINTON - TEILMAN,W CLINTON AVE & PRIVATE DR,36.77207,-119.823007,,,,,,0
806,CLINWARN,NW CLINTON - WARREN,W CLINTON AVE & N WARREN AVE,36.772016,-119.829057,,,,,,0
807,CLIN1814,1814 W CLINTON,W CLINTON AVE & N WEBER AVE,36.771983,-119.832947,,,,,,0
808,MARKCLIN,NE MARKS - CLINTON,,36.772462,-119.844207,,,,,,0
809,MARKPRIN,SE MARKS - PRINCETON,,36.775381,-119.844277,,,,,,0
810,SHLD3396,3396 SHIELDS,,36.778439,-119.846994,,,,,,0
811,SHLDVALE,NW SHIELDS - VALENTINE,,36.779275,-119.851441,,,,,,0
812,SHLDSELL,NW SHIELDS - SELLAND,,36.779249,-119.855857,,,,,,0
813,VANNVENT,NE VAN NESS - VENTURA,,36.731133,-119.785195,,,,,,0
814,VANNSTAN,NE VAN NESS - STANISLAUS,,36.739823,-119.794757,,,,,,0
816,VANNSJQU,NE VAN NESS - SAN JOAQUIN,,36.741898,-119.797047,,,,,,0
818,SHAWPOLL,NW SHAW - POLLASKY,SHAW AVE & POLLASKY AVE,36.808514,-119.702696,,,,,,0
819,SHAWHARV,NW SHAW - HARVARD,SHAW AVE & HARVARD AVE,36.808485,-119.706735,,,,,,0
820,SHAWMINN,NW SHAW - MINNEWAWA,W SHAW AVE & SHAW AVE,36.808465,-119.709858,,,,,,0
821,SHAWVILA,NW SHAW - VILLA,W SHAW AVE & N VILLA AVE,36.808462,-119.714474,,,,,,0
822,SHAWPECH,NW SHAW - PEACH,W SHAW AVE & N PEACH AVE,36.80846,-119.717008,,,,,,0
823,SHAWHELM,NW SHAW - HELM,W SHAW AVE & HELM AVE,36.808509,-119.724305,,,,,,0
824,SHAWWILL,NW SHAW-WILLOW,W SHAW AVE & E SHAW AVE,36.808533,-119.728005,,,,,,0
825,SHAWCHES,NW SHAW - CHESTNUT,E SHAW AVE & FRONTAGE RD,36.808579,-119.737429,,,,,,0
826,SHAWWOOD,NW SHAW - WOODROW,E SHAW AVE & N WOODROW AVE,36.808594,-119.741084,,,,,,0
827,SHAWBART,NW SHAW - BARTON,E SHAW AVE & N ROWELL AVE,36.808622,-119.75018,,,,,,0
829,FRSTSHAW,SW FIRST - SHAW,,36.806461,-119.77249,,,,,,0
830,FRSTSANT,SW FIRST - SANTA ANA,,36.804653,-119.772457,,,,,,0
831,FRSTGETS,SW FIRST - GETTYSBURG,,36.801056,-119.772442,,,,,,0
833,FRSTASHL,NW FIRST - ASHLAN,,36.794942,-119.772456,,,,,,0
834,FRSTSUSS,SW FIRST - SUSSEX,,36.791204,-119.772531,,,,,,0
835,DAKOMARI,NW DAKOTA - MARIPOSA,,36.786909,-119.77763,,,,,,0
838,DAKOBLAK,SE DAKOTA - BLACKSTONE,,36.786696,-119.789657,,,,,,0
839,DALPEFFE,SW DAKOTA - EFFIE,,36.786733,-119.787309,,,,,,0
840,DAKOFRES,SE DAKOTA - FRESNO,,36.786734,-119.780971,,,,,,0
841,DAKOANGS,SE DAKOTA - ANGUS,,36.786748,-119.776724,,,,,,0
842,DAKOORCH,SW DAKOTA - ORCHARD,,36.786748,-119.775145,,,,,,0
843,FRSTSUSX,NE FIRST - SUSSEX,,36.79177,-119.772231,,,,,,0
844,FRSTALAN,SE FIRST - ASHLAN,,36.793556,-119.772226,,,,,,0
846,SHAWFISH,SE SHAW - FISHER,E SHAW AVE & N FISHER ST,36.80854,-119.769696,,,,,,0
847,SHAWMILL,SE SHAW - MILLBROOK,E SHAW AVE & N SIXTH ST,36.808567,-119.760679,,,,,,0
848,SHAWNINE,SE SHAW - NINTH,E SHAW AVE & FRONTAGE RD,36.808569,-119.758473,,,,,,0
851,KGCACHES,NW KINGS CANYON - CHESTNUT,,36.73603,-119.736864,,,,,,0
852,KGCARECR,NW KINGS CANYON - RECREATION,,36.736019,-119.739614,,,,,,0
853,KGCASIVI,NW KINGS CANYON - SIERRA VISTA,,36.73601,-119.741875,,,,,,0
854,KGCAMAPL,NW KINGS CANYON - MAPLE,,36.735995,-119.74611,,,,,,0
855,KGCAJACK,NW KINGS CANYON - JACKSON,,36.735994,-119.748122,,,,,,0
856,KGCACHAN,NW KINGS CANYON - CHANCE,,36.735975,-119.751688,,,,,,0
858,VENTTENT,NE VENTURA - TENTH,,36.735973,-119.756972,,,,,,0
860,VENTFIFT,NW VENTURA - FIFTH,,36.735973,-119.76635,,,,,,0
861,VENTTHRD,NW VENTURA - THIRD,,36.735975,-119.769658,,,,,,0
862,VENTFRST,NW VENTURA - FIRST,,36.735986,-119.773059,,,,,,0
863,VENTURST,NW VENTURA - R ST,,36.735578,-119.777969,,,,,,0
864,VENTUMST,NW VENTURA - M ST,VENTURA ST & M ST,36.731788,-119.783249,,,,,,0
865,SHAWBRTN,SE SHAW - BARTON,E SHAW AVE & N BARTON AVE,36.808551,-119.749388,,,,,,0
870,VANNAMAD,NE VAN NESS - AMADOR,,36.742765,-119.79799,,,,,,0
871,VANNNEVA,NE VAN NESS - NEVADA,,36.745946,-119.79888,,,,,,0
872,VANNMILD,NE VAN NESS - MILDREDA,,36.747509,-119.798885,,,,,,0
873,VANNBELM,SE VAN NESS - BELMONT,,36.749814,-119.798837,,,,,,0
874,VANN950N,950 N VAN NESS NB,,36.754395,-119.798826,,,,,,0
875,VANNOLIV,NE VAN NESS - OLIVE,,36.757872,-119.798789,,,,,,0
876,VANNHEDG,NE VAN NESS - HEDGES,,36.759659,-119.7989,,,,,,0
877,VANNFLOR,NE VAN NESS - FLORADORA,,36.761457,-119.798939,,,,,,0
878,VANNHOME,NE VAN NESS - HOME,N VAN NESS AVE & E HOME AVE,36.763358,-119.798902,,,,,,0
879,MAROCLIN,NE MAROA - CLINTON,,36.772474,-119.799533,,,,,,0
880,MAROHARV,NE MAROA - HARVARD,,36.774179,-119.799542,,,,,,0
881,MAROSTFE,SE MAROA - SANTA FE RXR,,36.775489,-119.79956,,,,,,0
883,SHLDMARO,SE SHIELDS - MAROA,,36.779401,-119.798933,,,,,,0
884,SHLDDLMR,SE SHIELDS - DEL MAR,,36.779412,-119.794787,,,,,,0
885,SHAWFIGM,1234 E SHAW - FISH & GAME WB,E SHAW AVE & FRONTAGE RD,36.808613,-119.767796,,,,,,0
886,M STINYO,SW M ST - INYO,,36.733701,-119.784556,,,,,,0
887,VENTUNST,SW VENTURA - N ST,,36.732541,-119.781934,,,,,,0
889,VENT RST,SE VENTURA - R ST,,36.735437,-119.777798,,,,,,0
890,VENTHZLS,SE VENTURA - HAZELWOOD,,36.735775,-119.774731,,,,,,0
891,VENTFIRS,SE VENTURA - FIRST,,36.73577,-119.772161,,,,,,0
892,VENTTHIR,SE VENTURA - THIRD,,36.735779,-119.768839,,,,,,0
893,VENT3556,3556 E VENTURA EB,,36.735755,-119.76469,,,,,,0
894,VENTNINT,SE VENTURA - NINTH,,36.735771,-119.759741,,,,,,0
895,VENTTENH,SE VENTURA - TENTH,,36.735756,-119.757661,,,,,,0
897,WISHWELD,NW WISHON - WELDON,,36.768911,-119.801155,,,,,,0
898,WISHMCKI,SW WISHON - McKINLEY,,36.764696,-119.801151,,,,,,0
899,WITHPINE,SW WISHON - PINE,,36.762119,-119.801148,,,,,,0
900,WISHFERN,SW WISHON - FERN,,36.758428,-119.801138,,,,,,0
901,WISHOLIV,SW WISHON - OLIVE,,36.757446,-119.801105,,,,,,0
902,FULTDENN,SW FULTON - DENNETT,,36.755686,-119.800384,,,,,,0
903,FULTDUDL,SW FULTON - DUDLEY,,36.753609,-119.800412,,,,,,0
904,FULTTHOM,SW FULTON - THOMAS,,36.751935,-119.800432,,,,,,0
905,FULTBELM,SW FULTON - BELMONT,,36.749919,-119.800441,,,,,,0
906,FULTNEVA,SW FULTON - NEVADA,,36.745434,-119.800422,,,,,,0
907,FULTSACR,SW FULTON - SACRAMENTO,,36.742686,-119.799916,,,,,,0
909,FULTSAJQ,SW FULTON - SAN JOAQUIN,,36.740652,-119.79767,,,,,,0
910,FULTSTAN,NW FULTON - STANISLAUS,,36.738968,-119.795809,,,,,,0
911,KNGSBART,SW KINGS CANYON - BARTON,,36.735776,-119.750179,,,,,,0
912,KNGSMAPL,SE KINGS CANYON - MAPLE,E KINGS CANYON RD & S BACKER AVE,36.735898,-119.745427,,,,,,0
913,KNGSSRVS,SE KINGS CANYON - SIERRA VISTA,,36.735803,-119.740765,,,,,,0
914,KNGSRECR,SE KINGS CANYON - RECREATION,,36.735818,-119.737492,,,,,,0
915,CHESELMT,NW CHESTNUT - ELMONTE,,36.735344,-119.73651,,,,,,0
916,HAMLCHES,SE HAMILTON - CHESTNUT,,36.725047,-119.736053,,,,,,0
917,HAMLUN71,SE HAMILTON -UNIT 71,,36.725041,-119.733821,,,,,,0
918,HAMLWINE,SW HAMILTON - WINERY,,36.725043,-119.732259,,,,,,0
919,WINE1717,1717 S WINERY NB,,36.726214,-119.731963,,,,,,0
920,WINEBULR,SE WINERY - BUTLER,,36.728458,-119.731933,,,,,,0
921,BUTLWILL,SE BUTLER - WILLOW,,36.728584,-119.726922,,,,,,0
922,PECHLYEL,NE PEACH - LYELL,,36.729868,-119.718325,,,,,,0
923,PECHLANE,NE PEACH - LANE,,36.73275,-119.718283,,,,,,0
925,SHAWMAPL,SE SHAW - MAPLE,E SHAW AVE & N BACKER AVE,36.808555,-119.745077,,,,,,0
926,SHAWWORW,SE SHAW - WOODROW,E SHAW AVE & N WOODROW AVE,36.808532,-119.740563,,,,,,0
927,SHAWCHNT,SW SHAW - CHESTNUT,E SHAW AVE & N CHESTNUT AVE,36.808527,-119.736502,,,,,,0
928,SHAWWINE,SE SHAW - WINERY,,36.808425,-119.730699,,,,,,0
929,SHAWWILO,SE SHAW - WILLOW,W SHAW AVE & WILLOW AVE,36.808463,-119.726772,,,,,,0
930,SHAW HEL,SE SHAW - HELM,W SHAW AVE & SYLMAR AVE,36.808448,-119.722133,,,,,,0
931,SHAWPEAC,SE SHAW - PEACH,W SHAW AVE & N PEACH AVE,36.808424,-119.718739,,,,,,0
933,SHAWVILL,SE SHAW - VILLA,W SHAW AVE & N MINNEWAWA AVE,36.8084,-119.713229,,,,,,0
934,SHAWMINW,SE SHAW - MINNEWAWA,SHAW AVE & CHERRY LN,36.808412,-119.708704,,,,,,0
935,SHAW270E,270 E SHAW EB,SHAW AVE & HARVARD AVE,36.808432,-119.705242,,,,,,0
936,SHAWPSKY,SW SHAW - POLLASKY,SHAW AVE & POLLASKY AVE,36.808451,-119.702255,,,,,,0
937,SHAWCLOV,SE SHAW - CLOVIS,SHAW AVE & RAILROAD AVE,36.808471,-119.699653,,,,,,0
938,SHAW COL,SE SHAW - COLE,SHAW AVE & COLE AVE,36.808482,-119.694935,,,,,,0
939,SUNYSHAW,NE SUNNYSIDE - SHAW,SUNNYSIDE AVE & COLE AVE,36.809573,-119.690829,,,,,,0
940,HOBBSUNY,NW HOBLETT - SUNNYSIDE,HOBLITT AVE & SUNNYSIDE AVE,36.813999,-119.692337,,,,,,0
941,COLESCOT,SW COLE - SCOTT,COLE AVE & SHAW AVE,36.811338,-119.695537,,,,,,0
942,GETTROWE,NE GETTYSBURG - ROWELL,E GETTYSBURG AVE & N BARTON AVE,36.80131,-119.751651,,,,,,0
943,CRYSKEAR,SE CRYSTAL - KEARNEY,,36.728211,-119.831094,,,,,,0
944,KEARWEST,SW KEARNEY - WEST,,36.728355,-119.827071,,,,,,0
945,KEARTEIL,SW KEARNEY - TEILMAN,,36.728387,-119.822328,,,,,,0
946,KEARFRUT,SW KEARNEY - FRUIT,,36.72841,-119.817996,,,,,,0
947,KEARARTH,SW KEARNEY - ARTHUR,,36.728421,-119.815523,,,,,,0
948,KEARTHOR,SW KEARNEY - THORNE,,36.728401,-119.813169,,,,,,0
949,KEARPLUM,SE KEARNEY - PLUMAS,,36.728447,-119.811404,,,,,,0
950,TRINKEAR,NE TRINITY - KEARNEY,,36.729007,-119.808644,,,,,,0
951,TRINSTAN,NE TRINITY - STANISLAUS,,36.732033,-119.808586,,,,,,0
952,MODOLEMN,SE MODOOC - LEMON,,36.733702,-119.809976,,,,,,0
953,AMAD BST,SW AMADOR - B ST,,36.735308,-119.807963,,,,,,0
954,TRINPLAY,TRINITY - PLAYGROUND,,36.737613,-119.808504,,,,,,0
955,E EL,SW E ST - EL DORADO,,36.739354,-119.806675,,,,,,0
956,EST1833E,1833 E E ST NB,,36.737676,-119.804821,,,,,,0
957,ESTWWGRA,E ST - WW GRAINGER NB,,36.734139,-119.800931,,,,,,0
958,ESTFRESN,NW E ST - FRESNO,,36.732296,-119.798888,,,,,,0
959,OSTFRESN,NE O ST- FRESNO,,36.739769,-119.787398,,,,,,0
961,ABBYMCKZ,NE ABBY - McKENZIE,,36.747107,-119.789333,,,,,,0
962,ABBYLEWS,SE ABBY - LEWIS,,36.75438,-119.789174,,,,,,0
964,BLAKMCKL,NE BLACKSTONE - McKINLEY,,36.76546,-119.790416,,,,,,0
966,BLAKWELD,NE BLACKSTONE - WELDON,,36.769006,-119.790412,,,,,,0
967,BLAKCLIN,NE BLACKSTONE - CLINTON,,36.772652,-119.790412,,,,,,0
968,BLAKCRNL,NE BLACKSTONE - CORNELL,,36.778564,-119.790406,,,,,,0
970,BLAKLANS,NE BLACKSTONE - LANSING,,36.787218,-119.790393,,,,,,0
971,BLAKGRIF,NE BLACKSTONE - GRIFFITH,,36.790804,-119.790389,,,,,,0
972,BLAKMERV,4150 N BLACKSTONE - MERVYNS NB,,36.792669,-119.790394,,,,,,0
973,BLAKASHL,NE BLACKSTONE - ASHLAN,,36.794557,-119.790379,,,,,,0
975,BLAKGETY,NE BLACKSTONE - GETTYSBURG,,36.8017,-119.790347,,,,,,0
976,BLAKRIAL,SE BLACKSTONE - RIALTO,,36.802971,-119.790336,,,,,,0
977,BLAKSTAN,SE BLACKSTONE - SANTA ANA,,36.804769,-119.790338,,,,,,0
978,BLAKFAIR,NE BLACKSTONE - FAIRMONT,,36.806807,-119.790327,,,,,,0
979,BLAKSHAW,NE BLACKSTONE - SHAW,,36.809101,-119.790297,,,,,,0
980,BLAK5156,5156 N BLACKSTONE NB,,36.811275,-119.790306,,,,,,0
981,BLAK5530,5330 N BLACKSTONE NB,,36.814271,-119.790275,,,,,,0
982,BLAKBARS,NE BLACKSTONE - BARSTOW,,36.816085,-119.790257,,,,,,0
984,BLAK5700,5700 N BLACKSTONE NB,,36.821801,-119.790199,,,,,,0
986,BLAKESCA,NE BLACKSTONE - ESCALON,,36.82742,-119.790177,,,,,,0
987,BLAKSIER,NE BLACKSTONE - SIERRA,,36.831107,-119.790146,,,,,,0
988,BLAK6496,6496 N BLACKSTONE NB,,36.833554,-119.790132,,,,,,0
989,BLKSMAGL,SE BLACKSTONE - MAGILL,,36.835265,-119.790138,,,,,,0
990,BLAKBEEC,NE BLACKSTONE - BEECHWOOD,,36.839093,-119.790141,,,,,,0
991,FRIAFRES,NE FRIANT- FRESNO,,36.857639,-119.784676,,,,,,0
992,AUDOFRIA,SE AUDUBON - FRIANT RD,,36.860161,-119.782394,,,,,,0
993,COLEAUDO,SW COLE - AUDUBON,,36.858153,-119.778644,,,,,,0
994,COLEMARI,NW COLE - MARIPOSA,,36.85599,-119.781544,,,,,,0
995,FRIAFSNO,SW FRIANT - FRESNO,,36.857164,-119.785755,,,,,,0
997,BLCKNEES,SW BLACKSTONE - NEES,,36.851254,-119.791153,,,,,,0
998,BLAK7723,NW 7723 N BLACKSTONE,,36.84867,-119.791028,,,,,,0
999,BLAKELPA,SW BLACKSTONE - EL PASO,,36.845621,-119.790856,,,,,,0
1000,BLAKALLU,SW BLACKSTONE - ALLUVIAL,,36.844129,-119.79071,,,,,,0
1001,BLAKBRCH,SW BLACKSTONE - BIRCH,,36.841574,-119.79058,,,,,,0
1002,BLKSBEEC,SW BLACKSTONE - BEECHWOOD,,36.838391,-119.790436,,,,,,0
1004,BLAK6615,6615 N BLACKSTONE SB,,36.83403,-119.79045,,,,,,0
1005,BLAKSERR,SW BLACKSTONE - SIERRA,,36.829859,-119.790481,,,,,,0
1006,BLAKESLO,SW BLACKSTONE - ESCALON,,36.826382,-119.790516,,,,,,0
1008,BLAK5633,5633 N BLACKSTONE SB,,36.820887,-119.790563,,,,,,0
1009,BLAKBSTW,SW BLACKSTONE - BARSTOW,,36.815129,-119.790592,,,,,,0
1010,BLAK5195,5195 N BLACKSTONE SB,,36.811768,-119.79062,,,,,,0
1012,BLKSSANT,NW BLACKSTONE - SANTA ANA,,36.805229,-119.790655,,,,,,0
1013,BLKSRIAL,SW BLACKSTONE - RIALTO,,36.802296,-119.79066,,,,,,0
1015,BLAKHLND,SW BLACKSTONE - HOLLAND,,36.796972,-119.790686,,,,,,0
1016,BLAKSWFT,SW BLACKSTONE - SWIFT,,36.795585,-119.790695,,,,,,0
1017,BLAKALAN,SW BLACKSTONE - ASHLAN,,36.793701,-119.790683,,,,,,0
1018,BLAKGFTH,SW BLACKSTONE - GRIFFITH,,36.790151,-119.790699,,,,,,0
1019,BLAKSGAW,NW BLACKSTONE - SAGINAW,,36.788918,-119.790701,,,,,,0
1020,BLAKLNSG,NW BLACKSTONE - LANSING,,36.787541,-119.790701,,,,,,0
1022,BLAKTRCE,SW BLACKSTONE - TERRACE,,36.773004,-119.790736,,,,,,0
1023,BLAKWLDN,SW BLACKSTONE - WELDON,,36.768263,-119.790762,,,,,,0
1026,BLAKFORA,SW BLACKSTONE - FLORADORA,,36.760981,-119.790719,,,,,,0
1027,BLAKENWD,SW BLACKSTONE - ENGLEWOOD,,36.753896,-119.790636,,,,,,0
1028,BLAKBMNT,SW BLACKSTONE - BELMONT,,36.749826,-119.790643,,,,,,0
1029,BLAKILIS,NW BLACKSTONE - ILLINOIS,,36.745223,-119.790617,,,,,,0
1030,M STMARI,NW M ST - MARIPOSA,MARIPOSA MALL & M ST,36.737058,-119.788165,,,,,,0
1031,E STTUOL,NE E ST - TUOLUMNE,,36.734026,-119.800538,,,,,,0
1032,E STSTLA,NE E ST - STANISLAUS,,36.735171,-119.801793,,,,,,0
1033,E ST1755,1755 E ST SB,,36.738038,-119.804959,,,,,,0
1034,EL E,NW EL DORADO - E ST,,36.739496,-119.80717,,,,,,0
1035,TRINELDR,SW TRINITY - EL DORADO,,36.737702,-119.808626,,,,,,0
1036,TRINB ST,NW TRINITY - B ST,S TRINITY ST & E WHITES BRIDGE AVE,36.735888,-119.808507,,,,,,0
1038,TRINSLAU,NW TRINITY - STANISLAUS,,36.731992,-119.808702,,,,,,0
1040,TRINSTRO,SW TRINITY - STROTHER,,36.726238,-119.808854,,,,,,0
1041,EDENMODC,NE EDEN - MODOC,,36.72546,-119.810029,,,,,,0
1042,THRNEDEN,SW THORNE - EDEN,,36.724996,-119.813293,,,,,,0
1043,THRNCALI,NW THORNE - CALIFORNIA,,36.722494,-119.813394,,,,,,0
1044,CALIFRUT,NW CALIFORNIA - FRUIT,,36.721436,-119.818066,,,,,,0
1045,CALICORT,NW CALIFORNIA - COURT,,36.721395,-119.820784,,,,,,0
1046,TIELWOOD,SW TEILMAN - WOODWARD,,36.72208,-119.822177,,,,,,0
1047,EDENTEIL,NW EDEN - TEILMAN,,36.724953,-119.822852,,,,,,0
1048,EDENWEST,NE EDEN - WEST,,36.724957,-119.826132,,,,,,0
1049,EDENSUNS,NE EDEN - SUNSET,,36.724944,-119.828087,,,,,,0
1050,ESENCRYS,NE EDEN - CRYSTAL,,36.724915,-119.830978,,,,,,0
1051,CRTSSTRO,NE CRYSTAL - STROTHER,,36.72667,-119.831113,,,,,,0
1052,MLKGCHES,SE MARTIN LUTHER KING - CHESTER,,36.694272,-119.799763,,,,,,0
1053,MLKGJOLS,SE MARTIN LUTHER KING- JOLSON,,36.696475,-119.799742,,,,,,0
1054,MLKGANNA,NE MARTIN LUTHER KING - ANNADALE,,36.699873,-119.799753,,,,,,0
1055,MLKGVINE,SE MARTIN LUTHER KING - VINE,,36.703018,-119.799753,,,,,,0
1057,MLKGKAVI,NE MARTIN LUTHER KING - KAVILAND,,36.708877,-119.799757,,,,,,0
1058,MLKGBURN,NE MARTIN LUTHER KING - BURNS,,36.712544,-119.799766,,,,,,0
1059,MLKGCHUR,SE MARTIN LUTHER KING - CHURCH,S MARTIN LUTHER KING JR BLVD & E EUGENIA AVE,36.713594,-119.7997,,,,,,0
1060,MLKGFLOR,NE MARTIN LUTHER KING - FLORENCE,S MARTIN LUTHER KING JR BLVD & E FLORENCE AVE,36.718164,-119.799766,,,,,,0
1061,POTTCALI,NE POTTLE - CALIFORNIA,,36.721847,-119.799969,,,,,,0
1062,POTTKERN,NE POTTLE - KERN,,36.723859,-119.802155,,,,,,0
1063,FRESPOTS,SE FRESNO - POTTLE,,36.726716,-119.805079,,,,,,0
1064,FRESMYOS,SW FRESNO - MAYOR,,36.727892,-119.803438,,,,,,0
1065,FRESFULT,SE FRESNO - FULTON MALL,,36.735978,-119.79203,,,,,,0
1066,FRESN ST,SE FRESNO - N ST,,36.738965,-119.787864,,,,,,0
1067,FRESP ST,SE FRESNO - P ST,,36.740409,-119.785794,,,,,,0
1068,FRESR ST,SE FRESNO - R ST,,36.741806,-119.783848,,,,,,0
1069,FRESMCKN,NE FRESNO - McKENZIE,,36.74708,-119.781451,,,,,,0
1070,FRESBELM,SE FRESNO - BELMONT,,36.749835,-119.781414,,,,,,0
1071,FRESHY41,SE FRESNO - FWY 41,,36.754008,-119.781471,,,,,,0
1072,FRESOLVE,NE FRESNO - OLIVE,,36.758074,-119.781444,,,,,,0
1073,FRESHEDG,SE FRESNO - HEDGES,,36.75969,-119.781434,,,,,,0
1074,FRESHOME,NE FRESNO - HOME,,36.763175,-119.781406,,,,,,0
1075,FRESMCKI,SE FRESNO - McKINLEY,,36.765322,-119.781455,,,,,,0
1076,FRESWELD,SE FRESNO - WELDON,,36.767674,-119.781447,,,,,,0
1077,FRESBERK,SE FRESNO - BERKLEY,,36.770255,-119.78147,,,,,,0
1079,FRESHARV,NE FRESNO - HARVARD,,36.774244,-119.781478,,,,,,0
1080,FRESPRIN,NE FRESNO - PRINCETON,,36.776154,-119.78146,,,,,,0
1081,FRESCRNL,NE FRESNO - CORNELL,,36.77799,-119.781473,,,,,,0
1083,FRESDAKO,NE FRESNO - DAKOTA,,36.787139,-119.781389,,,,,,0
1084,FRESPONT,SE FRESNO - PONTIAC,,36.788749,-119.781376,,,,,,0
1085,FRESHAMP,SE FRESNO - HAMPTON,,36.791851,-119.781351,,,,,,0
1086,FRESWILL,SE FRESNO - WILLIS,,36.794946,-119.781336,,,,,,0
1087,FRESHOLL,NE FRESNO - HOLLAND,,36.797978,-119.781306,,,,,,0
1088,FRESGETY,SE FRESNO - GETTYSBURG,,36.800946,-119.781299,,,,,,0
1089,FRESALAM,NE FRESNO - ALAMOS,,36.805673,-119.781222,,,,,,0
1091,FRESSAJO,NE FRESNO - SAN JOSE,,36.812387,-119.781282,,,,,,0
1092,FRESBART,NE FRESNO - BARSTOW,,36.816405,-119.781279,,,,,,0
1093,FRESBRWN,SE FRESNO - BROWNING,,36.818965,-119.781256,,,,,,0
1094,FRESBULL,NE FRESNO - BULLARD,,36.82331,-119.781238,,,,,,0
1095,FRESESCA,NE FRESNO - ESCALON,,36.826948,-119.781212,,,,,,0
1096,FRESSIER,NE FRESNO - SIERRA,,36.830583,-119.781215,,,,,,0
1097,FRESPALO,NE FRESNO - PALO ALTO,,36.834127,-119.781194,,,,,,0
1099,FRESHOWD,NE FRESNO - HOWARD,,36.842346,-119.78314,,,,,,0
1100,FRESALLU,NE FRESNO - ALLUVIAL,,36.845056,-119.783629,,,,,,0
1101,FRESELPA,NE FRESNO - EL PASO,,36.848899,-119.783666,,,,,,0
1102,NEESFRSN,NW NEES - FRESNO,,36.852329,-119.784453,,,,,,0
1104,FRESELPO,SW FRESNO - EL PASO,,36.848233,-119.784537,,,,,,0
1105,FRESALLV,SW FRESNO - ALLUVIAL,,36.844362,-119.783977,,,,,,0
1106,FRESHWRD,SW FRESNO - HOWARD,,36.84167,-119.783117,,,,,,0
1108,FRESPATO,NW FRESNO - PALO ALTO,,36.834291,-119.781469,,,,,,0
1109,FRESSRRA,SW FRESNO - SIERRA,,36.829938,-119.781464,,,,,,0
1110,FRESESCL,SW FRESNO - ESCALON,,36.826463,-119.781463,,,,,,0
1111,FRESBLRD,SW FRESNO - BULLARD,,36.822416,-119.781432,,,,,,0
1112,FRESBRNG,SW FRESNO - BROWNING,,36.81909,-119.781432,,,,,,0
1113,FRESBSTW,SW FRESNO - BARSTOW,,36.815273,-119.781442,,,,,,0
1114,FRESSNJO,NW FRESNO - SAN JOSE,,36.81244,-119.781458,,,,,,0
1116,FRESSAAN,SW FRESNO - SANTA ANA,,36.804724,-119.781505,,,,,,0
1117,FRESGEBG,SW FRESNO - GETTYSBURG,,36.800956,-119.781503,,,,,,0
1118,FRESHLND,NW FRESNO - HOLLAND,,36.797915,-119.781527,,,,,,0
1119,FRESHLAN,SW FRESNO - ASHLAN,,36.793506,-119.781532,,,,,,0
1120,FRESGINW,SW FRESNO - SAGINAW,,36.788451,-119.781578,,,,,,0
1121,DAKOFREN,NW DAKOTA - FRESNO,,36.786911,-119.78245,,,,,,0
1122,DAKODIAN,NE DAKOTA - DIANA,,36.786906,-119.786822,,,,,,0
1125,FRESSIMP,SW FRESNO - SIMPSON,,36.778419,-119.781661,,,,,,0
1126,FRESPTON,NW FRESNO - PRINCETON,,36.776128,-119.781652,,,,,,0
1127,FRESHVRD,SW FRESNO - HARVARD,,36.77395,-119.781647,,,,,,0
1129,FRESBKLY,NW FRESNO - BERKELEY,,36.770488,-119.781648,,,,,,0
1130,FRESWLDN,SW FRESNO - WELDON,,36.768405,-119.78165,,,,,,0
1131,FRESMCKY,SW FRESNO - McKINLEY,,36.764719,-119.781644,,,,,,0
1132,FRESHOMM,SW FRESNO - HOME,,36.762468,-119.781639,,,,,,0
1133,FRESFY41,NW FRESNO - FWY 41,,36.753915,-119.781584,,,,,,0
1134,FRESBMNT,SW FRESNO - BELMONT,,36.750108,-119.781608,,,,,,0
1135,FRESMCKZ,SW FRESNO - McKENZIE,,36.747092,-119.781589,,,,,,0
1136,FRESILLN,SW FRESNO - ILLINOIS,,36.744646,-119.781709,,,,,,0
1137,FRES RST,NW FRESNO - R ST,,36.741626,-119.784476,,,,,,0
1138,FRES PST,NW FRESNO - P ST,,36.740215,-119.786439,,,,,,0
1139,FRES OST,NW FRESNO - O ST,,36.739389,-119.787594,,,,,,0
1140,TULE MST,NW TULARE - M ST,,36.73583,-119.787545,,,,,,0
1141,FRESBDWY,NE FRESNO - BROADWAY,,36.735532,-119.793027,,,,,,0
1142,FRES BST,NE FRESNO - B ST,,36.729921,-119.800941,,,,,,0
1143,FRESMYOR,NE FRESNO - MAYOR,,36.728304,-119.803194,,,,,,0
1144,POTTFRES,SW POTTLE - FRESNO,,36.726256,-119.805002,,,,,,0
1145,POTTKRNN,NW POTTLE - KERN,,36.723759,-119.802255,,,,,,0
1146,MLKGCLFA,SW MARTIN LUTHER KING - CALIFORNIA,,36.72115,-119.799958,,,,,,0
1147,MLKGFNCE,SW MARTIN LUTHER KING - FLORENCE,,36.717614,-119.799934,,,,,,0
1148,MLKGCHCH,NW MARTIN LUTHER KING - CHURCH,,36.714451,-119.799928,,,,,,0
1149,MLKGBRNS,NW MARTIN LUTHER KING - BURNS,,36.71243,-119.799909,,,,,,0
1150,MLKGGRVE,SW MARTIN LUTHER KING - GROVE,,36.710188,-119.799902,,,,,,0
1151,MLKGKVLD,NW MARTIN LUTHER KING - KAVILAND,,36.708774,-119.7999,,,,,,0
1153,MLKGVIIN,NW MARTIN LUTHER KING - VINE,,36.70311,-119.799953,,,,,,0
1154,MLKG2750,2750 S MARTIN LUTHER KING SB,,36.701303,-119.799939,,,,,,0
1155,ANNAMLKG,SE ANNADALE - MARTIN LUTHER KING,,36.699525,-119.797676,,,,,,0
1156,ANNAIVYC,SE ANNADALE - IVY CENTER,,36.699525,-119.796189,,,,,,0
1157,ANNADELM,SW ANNADALE - ELM,,36.69954,-119.791268,,,,,,0
1158,ELM 2890,2892 S ELM SB,,36.696001,-119.790918,,,,,,0
1159,NORTH WS,NE W NORTH - S NORTH,,36.692331,-119.795838,,,,,,0
1160,FRESHMND,SW FRESNO - HAMMOND,,36.7583,-119.78165,,,,,,0
1162,MLKGNRTH,NE MARTIN LUTHER KING - NORTH,,36.692593,-119.799772,,,,,,0
1164,BELMFRUT,SE BELMONT - FRUIT,,36.750224,-119.817238,,,,,,0
1165,BELMWEBR,SE BELMONT - WEBER,,36.750277,-119.811636,,,,,,0
1166,BELMFERG,SW BELMONT - FERGER,,36.750327,-119.807246,,,,,,0
1167,BELMECHO,SW BELMONT - ECHO,,36.750331,-119.804524,,,,,,0
1168,BELMFULT,SW BELMONT - FULTON,,36.750346,-119.800715,,,,,,0
1169,BELMVANN,SE BELMONT - VAN NESS,,36.750355,-119.797901,,,,,,0
1170,BELMSAPA,SE BELMONT - SAN PABLO,,36.750362,-119.794221,,,,,,0
1171,BELMGLEN,SE BELMONT - GLENN,,36.750372,-119.79298,,,,,,0
1173,BELMDIAN,SE BELMONT - DIANA,,36.750268,-119.78675,,,,,,0
1174,BELMVALE,SE BELMONT - VALERIA,,36.750283,-119.784676,,,,,,0
1175,BELMFRES,SE BELMONT - FRESNO,,36.750301,-119.78115,,,,,,0
1176,BELMANGU,SE BELMONT - ANGUS,,36.750289,-119.776789,,,,,,0
1177,BELMORCH,SE BELMONT - ORCHARD,,36.750311,-119.774384,,,,,,0
1179,BELMFORT,SE BELMONT - FOURTH,,36.750364,-119.76724,,,,,,0
1180,BELMSXTH,SW BELMONT - SIXTH,,36.750374,-119.763974,,,,,,0
1181,BELMNITH,SW BELMONT - NINTH,,36.750384,-119.75844,,,,,,0
1182,BELMCEDR,SE BELMONT - CEDAR,,36.750378,-119.753881,,,,,,0
1183,BELMROWL,SE BELMONT - ROWELL,,36.750378,-119.751967,,,,,,0
1184,BELMBRTN,SE BELMONT - BARTON,,36.750376,-119.748582,,,,,,0
1186,MAPLMCKE,SW MAPLE - MCKENZIE,,36.746804,-119.745533,,,,,,0
1187,MAPLTULE,NW MAPLE - TULARE,,36.743519,-119.745551,,,,,,0
1188,MAPLHUNT,SW MAPLE - HUNTINGTON BLVD,,36.73911,-119.745576,,,,,,0
1194,MAPLHNTG,SE MAPLE - HUNTINGTON BLVD,,36.739377,-119.745382,,,,,,0
1195,MAPLTURE,NE MAPLE - TULARE,,36.743626,-119.745348,,,,,,0
1196,MAPLMKZE,SE MAPLE - MCKENZIE,,36.746861,-119.745395,,,,,,0
1199,BELM4467,4467 E BELMONT WB,,36.750578,-119.750749,,,,,,0
1200,BELMCDER,NW BELMONT - CEDAR,,36.750582,-119.754817,,,,,,0
1201,BELMNNTH,NW BELMONT - NINTH,,36.750582,-119.759258,,,,,,0
1202,BELMMILL,NE BELMONT - MILLBROOK,,36.750583,-119.763994,,,,,,0
1203,BELMFRTH,NE BELMONT - FOURTH,,36.75058,-119.7672,,,,,,0
1204,BELMFHER,NE BELMONT - FISHER,,36.750574,-119.770566,,,,,,0
1206,BELMORRD,NW BELMONT - ORCHARD,,36.750511,-119.775066,,,,,,0
1207,BELMAGUS,NW BELMONT - ANGUS,,36.750503,-119.77737,,,,,,0
1208,BELMFSNO,NE BELMONT - FRESNO,,36.750499,-119.781083,,,,,,0
1209,BELMCLRK,NE BELMONT - CLARK,,36.750487,-119.785288,,,,,,0
1210,BELMDANA,NW BELMONT - DIANA,,36.750481,-119.788292,,,,,,0
1212,BELMBLAK,NW BELMONT - BLACKSTONE,,36.750512,-119.790933,,,,,,0
1213,BELMGLNN,NE BELMONT - GLENN,,36.750505,-119.793194,,,,,,0
1214,BELMSPAB,NW BELMONT - SAN PABLO,,36.750532,-119.795494,,,,,,0
1215,BELMVNSS,NE BELMONT - VAN NESS,,36.750518,-119.79854,,,,,,0
1216,BELMFLTN,NW BELMONT - FULTON,,36.750499,-119.800677,,,,,,0
1217,BELMTECH,NW BELMONT - ECHO,,36.750464,-119.804522,,,,,,0
1218,BELMFEGR,NE BELMONT - FERGER,,36.750442,-119.806818,,,,,,0
1219,BELMPALM,NW BELMONT - PALM,,36.750458,-119.808842,,,,,,0
1220,BELMHARR,NE BELMONT - HARRISON,,36.750453,-119.810718,,,,,,0
1221,BELMFRTE,NW BELMONT - FRUIT,,36.750374,-119.817797,,,,,,0
1222,BEMLDLNO,NE BELMONT - DELNO,,36.750367,-119.819386,,,,,,0
1223,ROEDPARK,ZOO - CUL-DE-SAC,,36.751272,-119.822556,,,,,,0
1225,JENSLOTU,NW JENSEN - LOTUS,E JENSEN AVE & S LOTUS AVE,36.706915,-119.787879,,,,,,0
1226,ELMJENSN,NE ELM - JENSEN,,36.707515,-119.790649,,,,,,0
1228,ELMCHURH,NE ELM - CHURCH,,36.714604,-119.79066,,,,,,0
1229,ELMFLORE,NE ELM - FLORENCE,,36.718,-119.79062,,,,,,0
1231,C STVENT,NE C ST - VENTURA,,36.724813,-119.794129,,,,,,0
1232,C STINYO,NE C ST - I NYO,,36.726518,-119.79598,,,,,,0
1233,C STMARI,SE C ST - MARIPOSA,,36.729021,-119.798729,,,,,,0
1234,C STFRES,SE C ST - FRESNO,,36.729874,-119.79967,,,,,,0
1235,M STTULE,SW M ST - TULARE,,36.735528,-119.786597,,,,,,0
1238,FRESHUNT,NE FIRST - HUNTINGTON,,36.73969,-119.772389,,,,,,0
1239,FRSTTULE,SE FIRST - TULARE,,36.742688,-119.772345,,,,,,0
1240,FRSTMCKZ,NE FIRST - McKENZIE,,36.746958,-119.772436,,,,,,0
1241,FRSTBLMT,NE FIRST - BELMONT,,36.750719,-119.772402,,,,,,0
1242,FRSTLEWS,NE FIRST - LEWIS,,36.756232,-119.772417,,,,,,0
1243,FRSTOLVE,NE FIRST - OLIVE,,36.758056,-119.772415,,,,,,0
1244,FRSTFLOR,NE FIRST - FLORADORA,,36.761619,-119.772416,,,,,,0
1245,FRSTMCKN,NE FIRST - McKINLEY,,36.765276,-119.772421,,,,,,0
1246,FRSTWELD,SE FIRST - WELDON,,36.768914,-119.772453,,,,,,0
1247,FRSTCLNN,NE FIRST - CLINTON,,36.772639,-119.772456,,,,,,0
1248,FRSTPRNN,NE FIRST - PRINCETON,,36.77624,-119.772464,,,,,,0
1249,FRSTSMPS,SE FIRST - SIMPSON,,36.778475,-119.772462,,,,,,0
1251,FRSTREDL,SE FIRST - REDLANDS,,36.784589,-119.772391,,,,,,0
1252,FRSTLANS,NE FIRST - LANSING,,36.787566,-119.772324,,,,,,0
1253,FRSTASHC,NE FIRST - ASHCROFT,,36.798876,-119.772187,,,,,,0
1254,FRSTGETT,NE FIRST - GETTYSBURG,,36.8017,-119.772191,,,,,,0
1255,FRSTRIAL,NE FIRST - RIALTO,,36.803279,-119.772201,,,,,,0
1256,FRESSANJ,NE FIRST - SAN JOSE,,36.812458,-119.772172,,,,,,0
1257,FRSTBSTW,NE FIRST - BARSTOW,,36.816108,-119.772187,,,,,,0
1258,FRSTROBE,NE FIRST - ROBERTS,,36.819977,-119.772164,,,,,,0
1260,FRSTESCA,SE FIRST - ESCALON,,36.826365,-119.772142,,,,,,0
1261,FRSTSERR,NE FIRST - SIERRA,,36.830544,-119.772128,,,,,,0
1262,FRST6592,6592 N FIRST,,36.833414,-119.772159,,,,,,0
1263,WARNFRST,SE WARNER - FIRST,,36.836183,-119.771661,,,,,,0
1264,WARN1177,1177 E WARNER,,36.836552,-119.767315,,,,,,0
1266,HERNMILL,SE HERNDON - MILLBROOK,E HERNDON AVE & E FRONTAGE RD S,36.837252,-119.762718,,,,,,0
1267,CEDRELVS,SE CEDAR - ELEVENTH,N CEDAR AVE & E OXFORD DR,36.840436,-119.756181,,,,,,0
1268,SPRUCEDR,NW SPRUCE - CEDAR,E SPRUCE AVE & N CEDAR AVE,36.841184,-119.757676,,,,,,0
1269,SPRUSPAL,NW SPRUCE - SPALDING,E SPRUCE AVE & N SPALDING AVE,36.842064,-119.761605,,,,,,0
1270,SPRUWIND,NE SPRUCE - WINDUM APTS,E SPRUCE AVE & N SPALDING AVE,36.841124,-119.763992,,,,,,0
1271,MILLSPRU,NE MILLBROOK - SPRUCE,N MILLBROOK AVE & N SPALDING AVE,36.840534,-119.765587,,,,,,0
1272,MILLMINA,SE MILLBROOK - MINARETS,N MILLBROOK AVE & E MINARETS AVE,36.842729,-119.765692,,,,,,0
1273,MILLALLU,SE MILLBROOK - ALLUVIAL,N MILLBROOK AVE & E PINEDALE AVE,36.844175,-119.765695,,,,,,0
1274,MILLELPA,NE MILLBROOK - EL PASO,N MILLBROOK AVE & E EL PASO AVE,36.848584,-119.765691,,,,,,0
1276,FRSTELPA,SW FIRST - EL PASO,N FIRST ST,36.848084,-119.774599,,,,,,0
1277,FRSTALLU,SW FIRST - ALLUVIAL,N FIRST ST & E ALLUVIAL AVE,36.844219,-119.774728,,,,,,0
1278,FRSTLOCU,SW FIRST - LOCUST,N FIRST ST & E LOCUST AVE,36.839847,-119.77309,,,,,,0
1279,FRSTWARN,NW FIRST - WARNER,,36.83653,-119.772384,,,,,,0
1280,FRSTELRY,SW FIRST - ELLERY,,36.828947,-119.772376,,,,,,0
1281,FRSTESCL,SW FIRST - ESCALON,,36.826353,-119.772412,,,,,,0
1283,FRSTRBTS,SW FIRST - ROBERTS,,36.820024,-119.772431,,,,,,0
1284,FRSTBARS,SW FIRST - BARSTOW,,36.814195,-119.772475,,,,,,0
1285,FRSTSAJO,SW FIRST - SAN JOSE,,36.811872,-119.772447,,,,,,0
1287,FRSTHOLL,NW FIRST - HOLLAND,,36.797939,-119.772458,,,,,,0
1288,FRSTDAKA,NW FIRST - DAKOTA,,36.787079,-119.772591,,,,,,0
1289,FRSTDAYT,SW FIRST - DAYTON,,36.782797,-119.772639,,,,,,0
1291,FRSTSIMP,SW FIRST - SIMPSON,,36.7783,-119.772698,,,,,,0
1292,FRSTPRIN,SW FIRST - PRINCETON,,36.775574,-119.772692,,,,,,0
1293,FRSTCLIN,SW FIRST - CLINTON,,36.77179,-119.772694,,,,,,0
1294,FRSTYALE,SW FIRST - YALE,,36.770395,-119.772693,,,,,,0
1295,FRSTUNIF,SW FIRST - UNIVERSITY,,36.766566,-119.772683,,,,,,0
1296,FRSTMCKI,SW FIRST - McKINLEY,,36.764726,-119.772666,,,,,,0
1297,FRSTFORA,NW FIRST - FLORADORA,,36.761691,-119.772664,,,,,,0
1298,FRSTHDGS,SW FIRST - HEDGES,,36.75928,-119.772644,,,,,,0
1299,FRSTOLIV,SW FIRST - OLIVE,,36.757104,-119.772643,,,,,,0
1300,FRSTCLAY,SW FIRST - CLAY,,36.754282,-119.772629,,,,,,0
1301,FRSTBELM,SW FIRST - BELMONT,,36.749881,-119.772648,,,,,,0
1302,FRSTMCKE,SW FIRST - McKENZIE,,36.746612,-119.772662,,,,,,0
1303,FRSTTARE,SW FIRST - TULARE,,36.742946,-119.772604,,,,,,0
1304,FRSTHNTG,SW FIRST - HUNTINGTON,,36.739154,-119.772579,,,,,,0
1305,VENTHAZL,NW VENTURA - HAZELWOOD,,36.735979,-119.776265,,,,,,0
1306,VENTUPST,NW VENTURA - P ST,,36.734086,-119.780094,,,,,,0
1307,B SH,B SHELTER,VAN NESS AVE & TULARE ST,36.73601,-119.790547,,,,,,0
1308,FRESBFST,NW FRESNO - F ST,,36.732389,-119.797502,,,,,,0
1309,CSTFRESN,SW C ST - FRESNO,,36.730006,-119.799981,,,,,,0
1310,CSTTULAR,NW C ST - TULARE,,36.728508,-119.798335,,,,,,0
1313,B STVENT,SW B ST - VENTURA,,36.723141,-119.794398,,,,,,0
1314,ELMGENEV,SW ELM - GENEVA,,36.720444,-119.791438,,,,,,0
1315,ELMFLNCE,SW ELM - FLORENCE,,36.717524,-119.790852,,,,,,0
1321,CHURKIRK,SE CHURCH - KIRK,E CHURCH AVE & S KIRK ST,36.714131,-119.784571,,,,,,0
1322,CHERCHUC,SW CHERRY - CHURCH,S CHERRY AVE & E GROVE AVE,36.712688,-119.781777,,,,,,0
1323,CHERGROV,SW CHERRY - GROVE,S CHERRY AVE & E GROVE AVE,36.710243,-119.781784,,,,,,0
1324,MAOL,NE MARKS - OLIVE,,36.757807,-119.844203,,,,,,0
1325,MARKFLOR,NE MARKS - FLORADORA,,36.761404,-119.844171,,,,,,0
1326,MARK1725,1725 N MARKS,,36.763869,-119.844176,,,,,,0
1327,MCKI2533,2533 W McKINLEY,,36.764621,-119.841346,,,,,,0
1328,MCKIPLEA,SE McKINLEY - PLEASANT,,36.764625,-119.83927,,,,,,0
1329,HUGHMCKI,SW HUGHES - McKINLEY,,36.764628,-119.836144,,,,,,0
1330,HUGHFLOR,SW HUGHES - FLORADORA,,36.761742,-119.835662,,,,,,0
1331,HUGHHAMM,SW HUGHES - HAMMOND,,36.758009,-119.835643,,,,,,0
1332,OLIVPARK,SE OLIVE - PARKWAY,,36.757388,-119.831421,,,,,,0
1333,OLIVWARR,SE OLIVE - WARREN,,36.7574,-119.827536,,,,,,0
1334,OLIVPAEN,OLIVE - PARK ENTRANCE EB,,36.757441,-119.824258,,,,,,0
1335,OLIVWEBE,SE OLIVE - WEBER,,36.757449,-119.820343,,,,,,0
1336,OLIVE403,403 W OLIVE EB,,36.757506,-119.816882,,,,,,0
1337,OLIVHARR,SW OLIVE - HARRISON,E OLIVE AVE & N HARRISON AVE,36.757557,-119.811281,,,,,,0
1339,OLIVBROD,SW OLIVE - BROADWAY,,36.757622,-119.803076,,,,,,0
1340,OLIVYOSE,SW OLIVE - YOSEMITE,,36.757651,-119.801751,,,,,,0
1342,OLIVSAPA,SE OLIVE - SAN PABLO,,36.757666,-119.794479,,,,,,0
1343,OLIVBLKS,SW OLIVE - BLACKSTONE,,36.757647,-119.791127,,,,,,0
1345,OLIVCLRK,SE OLIVE - CLARK,,36.757633,-119.785365,,,,,,0
1346,OLIVFRES,SW OLIVE - FRESNO,,36.757652,-119.780979,,,,,,0
1347,OLVSFRST,SE OLIVE - FIRST,,36.757651,-119.772108,,,,,,0
1348,OLIVBOND,SE OLIVE - BOND,,36.757653,-119.767804,,,,,,0
1349,OLIVMILL,SE OLIVE - MILLBROOK,,36.75765,-119.762622,,,,,,0
1350,OLIVNINE,SW OLIVE - NINTH,,36.757653,-119.759414,,,,,,0
1352,OLIVMAPL,NW OLIVE - MAPLE,,36.75781,-119.746298,,,,,,0
1353,OLIVSIVI,SW OLIVE - SIERRA VISTA,,36.757631,-119.741284,,,,,,0
1355,OLIVWINE,SE OLIVE - WINERY,,36.757416,-119.73156,,,,,,0
1356,OLIVWILL,SW OLIVE - WILLOW,,36.757427,-119.727673,,,,,,0
1357,OLIVHELM,SE OLIVE - HELM,,36.757394,-119.721476,,,,,,0
1359,OLIVVILA,SE OLIVE - VILLA,,36.757384,-119.712451,,,,,,0
1360,OLIVMINN,SW OLIVE - MINNEWAWA,,36.757372,-119.709545,,,,,,0
1361,OLIVDEWT,SE OLIVE - DEWITT,,36.757374,-119.704329,,,,,,0
1362,OLIVCLOV,SW OLIVE - CLOVIS,,36.757381,-119.702148,,,,,,0
1364,BELMDEWT,NE BELMONT - DEWITT,,36.75054,-119.704477,,,,,,0
1365,BELMMINN,NE BELMONT - MINNEWAWA,,36.750541,-119.708791,,,,,,0
1366,BELMVILA,NW BELMONT - VILLA,,36.750533,-119.714164,,,,,,0
1367,PECHBELM,NE PEACH - BELMONT,,36.751345,-119.718129,,,,,,0
1369,OLIVBALY,NE OLIVE - BAILEY,,36.757575,-119.721409,,,,,,0
1370,OLIVWILW,NW OLIVE - WILLOW,,36.757577,-119.727987,,,,,,0
1371,OLIVWERY,NE OLIVE - WINERY,,36.757578,-119.731448,,,,,,0
1372,OLIVGRDN,NE OLIVE - GARDEN,,36.757584,-119.73454,,,,,,0
1374,OLIVSIER,NW OLIVE - SIERRA VISTA,,36.757806,-119.741242,,,,,,0
1375,OLIVMPLE,SW OLIVE - MAPLE,,36.757638,-119.744796,,,,,,0
1376,OLIVBRTN,NW OLIVE - BARTON,,36.757795,-119.749689,,,,,,0
1378,OLIVNITH,NE OLIVE - NINTH,,36.757815,-119.758776,,,,,,0
1379,OLIVMILB,NW OLIVE - MILLBROOK,,36.75781,-119.764127,,,,,,0
1380,OLIVEBND,NW OLIVE - BOND,,36.757802,-119.768117,,,,,,0
1382,OLIVMARI,NW OLIVE - MARIPOSA,,36.757811,-119.779728,,,,,,0
1383,OLIVFRNO,NW OLIVE - FRESNO,,36.757785,-119.781857,,,,,,0
1384,OLIVCLAK,NE OLIVE - CLARK,,36.757786,-119.785699,,,,,,0
1385,OLIVEABY,NE OLIVE - ABBY,,36.757342,-119.788854,,,,,,0
1388,OLIVHRSN,NW OLIVE - HARRISON,,36.75769,-119.811234,,,,,,0
1390,OLIVFRUT,NW OLIVE - FRUIT,,36.757649,-119.817941,,,,,,0
1391,OLIVDLNO,NW OLIVE - DELNO,,36.757628,-119.820234,,,,,,0
1392,OLIVPRKE,OLIVE - PARK ENTRANCE WB,,36.757584,-119.824098,,,,,,0
1393,OLIVWEST,NW OLIVE - WEST,,36.757544,-119.827209,,,,,,0
1394,OLIVCRYS,NW OLIVE - CRYSTAL,,36.757537,-119.832664,,,,,,0
1395,OLIVHUGH,NW OLIVE - HUGHES,,36.757528,-119.836232,,,,,,0
1396,OLIVMARK,NE OLIVE - MARKS,,36.757522,-119.84133,,,,,,0
1397,FRES EST,NE FRESNO - E ST,,36.732062,-119.797952,,,,,,0
1399,FRESPOTT,NW FRESNO - POTTLE,,36.726642,-119.805491,,,,,,0
1400,FRESKLET,NW FRESNO - KLETTE,,36.725133,-119.807618,,,,,,0
1401,FRESJONE,NW FRESNO - JONES,,36.724433,-119.80862,,,,,,0
1402,MARTFRES,SW MARTIN - FRESNO,,36.722732,-119.81024,,,,,,0
1403,WALNCALI,SW WALNUT - CALIFORNIA,,36.721002,-119.808991,,,,,,0
1404,WALNGERY,SW WALNUT - GEARY,,36.718009,-119.809,,,,,,0
1405,BELGWALN,SE BELGRAVIA - WALNUT,,36.715876,-119.808722,,,,,,0
1406,BELGFAIR,SW BELGRAVIA - FAIRVIEW,,36.715894,-119.804592,,,,,,0
1408,CHURWALN,NE CHURCH - WALNUT,,36.714156,-119.808463,,,,,,0
1409,WALNGROV,SW WALNUT - GROVE,,36.710271,-119.809008,,,,,,0
1410,WALNKAVI,NW WALNUT - KAVILAND,,36.708943,-119.808995,,,,,,0
1411,WALNJENS,NW WALNUT - JENSEN,,36.70731,-119.808992,,,,,,0
1412,JENSBARD,SE JENSEN - BARDELL,,36.706732,-119.797428,,,,,,0
1413,JENSCLAR,SE JENSEN - CLARA,,36.706766,-119.795036,,,,,,0
1414,JENSEIVY,SE JENSEN - IVY,,36.706789,-119.792587,,,,,,0
1415,JENSEELM,SE JENSEN - ELM,,36.70677,-119.789941,,,,,,0
1417,JENSCHRY,SE JENSEN - CHERRY,,36.706809,-119.780996,,,,,,0
1418,JENSSARA,SE JENSEN - SARAH,,36.706815,-119.779368,,,,,,0
1419,JENSEAWE,SW JENSEN - EAST W,,36.706818,-119.776807,,,,,,0
1420,JENSSECO,SE JENSEN - SECOND,E JENSEN AVE & S GOLDEN STATE BLVD,36.706854,-119.770569,,,,,,0
1421,CALWNINE,SW CALWA - NINTH,,36.70483,-119.759127,,,,,,0
1422,CALWELEV,SE CALWA - ELEVENTH,,36.704821,-119.755856,,,,,,0
1424,CEDRKAVI,NE CEDAR - KAVILAND,,36.709279,-119.754628,,,,,,0
1425,CEDRGRVE,SE CEDAR - GROVE,,36.710403,-119.75461,,,,,,0
1426,CEDRCHUR,SE CEDAR - CHURCH,,36.713711,-119.754614,,,,,,0
1428,CEDRFLOR,NE CEDAR - FLORENCE,,36.717525,-119.754597,,,,,,0
1429,CEDRCALI,SE CEDAR - CALIFORNIA,,36.721574,-119.75457,,,,,,0
1431,CDRNHAMI,NE CEDAR - HAMILTON,,36.725311,-119.754559,,,,,,0
1432,CEDRBUTL,SE CEDAR - BUTLER,,36.727691,-119.75457,,,,,,0
1433,CEDRLANE,SE CEDAR - LANE,,36.731589,-119.754528,,,,,,0
1435,CEDRHUNT,SE CEDAR - HUNTINGTON AVE,,36.738719,-119.754366,,,,,,0
1436,CEDRPLAT,NE CEDAR - PLATT,,36.742064,-119.754332,,,,,,0
1437,CEDRIOWA,SE CEDAR - IOWA,,36.743722,-119.754317,,,,,,0
1438,CEDRILLI,NE CEDAR - ILLINOIS,,36.74523,-119.754303,,,,,,0
1439,CEDRMCKZ,NE CEDAR - MCKENZIE,,36.747049,-119.754287,,,,,,0
1440,CEDRGRNT,NE CEDAR - GRANT,,36.748952,-119.754282,,,,,,0
1441,CEDRBELM,NE CEDAR - BELMONT,,36.750771,-119.754364,,,,,,0
1442,CEDRTURN,NE CEDAR - TURNER,,36.752542,-119.754323,,,,,,0
1443,CEDROLIV,NE CEDAR - OLIVE,,36.758099,-119.754389,,,,,,0
1444,CEDRHDGS,NE CEDAR - HEDGES,,36.759759,-119.75439,,,,,,0
1445,CEDRFORA,NE CEDAR - FLORADORA,,36.761829,-119.754387,,,,,,0
1446,CEDRMCKY,NE CEDAR - MCKINLEY,,36.766051,-119.754429,,,,,,0
1448,CEDRUNIO,SE CEDAR - UNION,,36.771125,-119.754394,,,,,,0
1449,CEDRCLIN,NE CEDAR - CLINTON,,36.772616,-119.754376,,,,,,0
1450,CEDRPRIN,NE CEDAR - PRINCETON,,36.776219,-119.754361,,,,,,0
1453,CEDRDAYT,NE CEDAR - DAYTON,,36.783489,-119.754227,,,,,,0
1454,CEDRGARL,SE CEDAR - GARLAND,,36.784842,-119.754209,,,,,,0
1455,CEDRDAKO,NE CEDAR - DAKOTA,,36.787339,-119.754204,,,,,,0
1456,CEDRFARR,NE CEDAR - FARRIN,N CEDAR AVE & E FARRIN AVE,36.789526,-119.754235,,,,,,0
1458,CEDRASHL,NE CEDAR - ASHLAN,,36.794694,-119.754152,,,,,,0
1459,CESRRICH,NE CEDAR - RICHERT,,36.796865,-119.754144,,,,,,0
1460,CEDRINDI,NE CEDAR - INDIANAPOLIS,,36.799048,-119.754124,,,,,,0
1461,CEDRALAM,SE CEDAR - ALAMOS,,36.805634,-119.754094,,,,,,0
1463,CDRNBULL,NE CEDAR - BULLDOG LANE,,36.812532,-119.754062,,,,,,0
1465,CEDRBARS,NE CEDAR - BARSTOW,,36.816381,-119.754047,,,,,,0
1466,CEDRROBT,SE CEDAR - ROBERTS,,36.819575,-119.754041,,,,,,0
1467,CEDRBULD,NE CEDAR - BULLARD,,36.82348,-119.754039,,,,,,0
1468,CEDRESCA,NE CEDAR - ESCALON,,36.827009,-119.754052,,,,,,0
1469,CEDRSIER,NE CEDAR - SIERRA,,36.830778,-119.754065,,,,,,0
1470,CEDRPATO,NE CEDAR - PALO ALTO,,36.832699,-119.754071,,,,,,0
1471,CEDRPLTO,NE CEDAR - PALO ALTO AVE,,36.835014,-119.754082,,,,,,0
1473,CEDRSPRU,NE CEDAR - SPRUCE,N CEDAR AVE & E OXFORD DR,36.841435,-119.75659,,,,,,0
1474,CEDRALLU,NE CEDAR - ALLUVIAL,N CEDAR AVE & E ALLUVIAL AVE,36.845077,-119.756686,,,,,,0
1475,CEDRCROM,SE CEDAR - CROMWELL,N CEDAR AVE & E ALLUVIAL AVE,36.846416,-119.756688,,,,,,0
1476,NEESCEDR,NW NEES - CEDAR,E NEES AVE & E ALLUVIAL AVE,36.852056,-119.757218,,,,,,0
1477,NEESNINE,NE NEES - NINTH,E NEES AVE & N NINTH ST,36.852035,-119.760818,,,,,,0
1478,NEESEIGH,NE NEES - EIGHTH,E NEES AVE & N EIGHTH ST,36.852024,-119.762799,,,,,,0
1479,NEESBOND,NW NEES - BOND,E NEES AVE & N BOND ST,36.851962,-119.770632,,,,,,0
1480,NEESFRST,NW NEES - FIRST,E NEES AVE & PRIVATE DR,36.851993,-119.77473,,,,,,0
1481,FRESNEES,SW FRESNO - NEES,N FRESNO ST & E NEES AVE,36.85117,-119.783774,,,,,,0
1482,ELPAFRES,NW EL PASO - FRESNO,E EL PASO AVE & N FRESNO ST,36.848349,-119.784391,,,,,,0
1483,BLKSELPA,NE BLACKSTONE - EL PASO,,36.84694,-119.790532,,,,,,0
1484,BLAKNEES,SE BLACKSTONE - NEES,N BLACKSTONE AVE & E VIA DEL ORO,36.851215,-119.790871,,,,,,0
1485,NEESFRES,SE NEES - FRESNO,E NEES AVE & N FRESNO ST,36.851885,-119.783266,,,,,,0
1486,NEESBONN,SE NEES - BOND,E NEES AVE & N BOND ST,36.851865,-119.769647,,,,,,0
1487,NEESMILL,SE NEES - MILLBROOK,E NEES AVE & N MILLBROOK AVE,36.851833,-119.765368,,,,,,0
1488,NEESNITH,SW NEES - NINTH,E NEES AVE & N NINTH ST,36.851945,-119.761542,,,,,,0
1489,CEDRNEES,SW CEDAR - NEES,N CEDAR AVE & E NEES AVE,36.851708,-119.756799,,,,,,0
1490,CEDRCRWL,SW CEDAR - CROMWELL,N CEDAR AVE & E CROMWELL AVE,36.846523,-119.75679,,,,,,0
1491,CEDRALLV,SW CEDAR - ALLUVIAL,N CEDAR AVE & E OXFORD DR,36.844372,-119.756776,,,,,,0
1492,CEDRSPRC,NW CEDAR - SPRUCE,N CEDAR AVE & E OXFORD DR,36.841596,-119.756692,,,,,,0
1493,CEDRELEV,SW CEDAR - ELEVENTH,N CEDAR AVE & E OXFORD DR,36.839883,-119.755501,,,,,,0
1494,CEDRHERN,SW CEDAR - HERNDON,N CEDAR AVE & FRONTAGE RD,36.836778,-119.754229,,,,,,0
1495,CEDRPALO,NW CEDAR - PALO ALTO,N CEDAR AVE & E BURLINGAME AVE,36.832735,-119.7542,,,,,,0
1496,CEDRSERA,NW CEDAR - SIERRA,N CEDAR AVE & E SIERRA AVE,36.830566,-119.754196,,,,,,0
1497,CEDRSTUA,SW CEDAR - STUART,N CEDAR AVE & E BULLARD AVE,36.825264,-119.754177,,,,,,0
1498,CEDRBULL,SW CEDAR - BULLARD,N CEDAR AVE & E BULLARD AVE,36.822828,-119.754184,,,,,,0
1499,CEDRRBRT,SW CEDAR - ROBERTS,N CEDAR AVE & E BULLARD AVE,36.81957,-119.754179,,,,,,0
1500,CEDRBSTW,SW CEDAR - BARSTOW,N CEDAR AVE & E BULLDOG LN,36.815544,-119.754184,,,,,,0
1501,CEDRBLDG,SW CEDAR - BULLDOG LANE,N CEDAR AVE & E SCOTT AVE,36.812019,-119.754202,,,,,,0
1502,CEDRSHAW,SW CEDAR - SHAW,N CEDAR AVE & E SIERRA MADRE AVE,36.808413,-119.75423,,,,,,0
1505,CEDRGETT,SW CEDAR - GETTYSBURG,N CEDAR AVE & E INDIANAPOLIS AVE,36.801004,-119.754275,,,,,,0
1507,CEDRHOLL,NW CEDAR - HOLLAND,N CEDAR AVE & E HOLLAND AVE,36.797488,-119.754281,,,,,,0
1508,CEDRASLN,NW CEDAR - ASHLAN,N CEDAR AVE & FRONTAGE RD,36.794578,-119.754277,,,,,,0
1509,CEDRHAMP,SW CEDAR - HAMPTON,N CEDAR AVE & E HAMPTON WAY,36.792078,-119.754307,,,,,,0
1510,CEDRFARN,SW CEDAR - FARRIN,N CEDAR AVE & FRONTAGE RD,36.789151,-119.754347,,,,,,0
1511,CEDRDAKA,SW CEDAR - DAKOTA,N CEDAR AVE & E GARLAND AVE,36.786562,-119.754366,,,,,,0
1512,CEDRDATN,SW CEDAR - DAYTON,N CEDAR AVE & E FOUNTAIN WAY,36.782796,-119.75436,,,,,,0
1515,CEDRPRTN,SW CEDAR - PRINCETON,N CEDAR AVE & E PRINCETON AVE,36.77561,-119.754451,,,,,,0
1516,CEDRCLTN,NW CEDAR - CLINTON,N CEDAR AVE & E CLINTON AVE,36.772709,-119.754492,,,,,,0
1517,CEDRWELD,SW CEDAR - WELDON,N CEDAR AVE & E WELDON AVE,36.768461,-119.754508,,,,,,0
1518,CEDRMCKI,SW CEDAR - McKINLEY,N CEDAR AVE & E MCKINLEY AVE,36.764828,-119.754536,,,,,,0
1519,CEDR1445,1445 N CEDAR SB,N CEDAR AVE & E FLORADORA AVE,36.76223,-119.754509,,,,,,0
1521,CEDROLVE,SW CEDAR - OLIVE,N CEDAR AVE & E OLIVE AVE,36.757366,-119.754491,,,,,,0
1522,CEDRHARV,NW CEDAR - HARVEY,N CEDAR AVE & E THOMAS AVE,36.752608,-119.754506,,,,,,0
1524,CEDRBELT,SW CEDAR - BELMONT,N CEDAR AVE & E MADISON AVE,36.749939,-119.754479,,,,,,0
1525,CEDRGRAT,SW CEDAR - GRANT,N CEDAR AVE & UNNAMED ALY,36.748449,-119.754488,,,,,,0
1526,CEDRMCKE,SW CEDAR - McKENZIE,N CEDAR AVE & UNNAMED ALY,36.746663,-119.754508,,,,,,0
1527,CEDRILLO,NW CEDAR - ILLINOIS,N CEDAR AVE & ILLINOIS/IOWA ALY,36.744851,-119.754517,,,,,,0
1528,CEDRTULE,SW CEDAR - TULARE,S CEDAR AVE & E VERRUE AVE,36.742995,-119.754491,,,,,,0
1529,CEDRHTNG,SW CEDAR - HUNTINGTON,S CEDAR AVE & E BALCH AVE,36.738523,-119.754529,,,,,,0
1532,CEDARLAN,SW CEDAR - LANE,S CEDAR AVE & UNNAMED ALY,36.731775,-119.754621,,,,,,0
1533,CEDRLBTY,SW CEDAR - LIBERTY,S CEDAR AVE & UNNAMED ALY,36.730222,-119.754641,,,,,,0
1534,CEDRBUTE,SW CEDAR - BUTLER,S CEDAR AVE & E HEATON AVE,36.728508,-119.754638,,,,,,0
1535,CEDRHAMI,SW CEDAR - HAMILTON,S CEDAR AVE & E WOODWARD AVE,36.724491,-119.754666,,,,,,0
1537,CEDRDWGT,SW CEDAR - DWIGHT WAY,S CEDAR AVE & E DWIGHT WAY,36.722108,-119.754696,,,,,,0
1538,CEDRFLNC,SW CEDAR - FLORENCE,S CEDAR AVE & E FLORENCE AVE,36.7176,-119.754712,,,,,,0
1539,CEDREUGE,NW CEDAR - EUGENIA,S CEDAR AVE & UNNAMED ALY,36.71353,-119.754717,,,,,,0
1540,CEDRBURN,SW CEDAR - BURNS,S CEDAR AVE & E GROVE AVE,36.712021,-119.754726,,,,,,0
1541,CEDRGROV,SW CEDAR - GROVE,S CEDAR AVE & E KAVILAND AVE,36.710379,-119.754735,,,,,,0
1542,CEDRKALD,SW CEDAR - KAVILAND,S CEDAR AVE & PRIVATE DR,36.708808,-119.754732,,,,,,0
1544,JENS3695,NW 3965 JENSEN,E JENSEN AVE & S TENTH ST,36.706939,-119.757836,,,,,,0
1545,PULLJENS,NW PULLMAN - JENSEN,S PULLMAN AVE & E JENSEN BYP,36.706535,-119.760366,,,,,,0
1546,JENSEAST,NW JENSEN - EAST E,E JENSEN AVE & S 99 HWY,36.706808,-119.772072,,,,,,0
1547,JENSEASW,NW JENSEN - EAST W,E JENSEN AVE & S SARAH ST,36.706925,-119.778964,,,,,,0
1549,JENSCHER,NW JENSEN - CHERRY,E JENSEN AVE & S CHERRY AVE,36.706922,-119.782116,,,,,,0
1550,JENSNELM,NW JENSEN - ELM,E JENSEN AVE & S ELM AVE,36.706901,-119.79189,,,,,,0
1552,JENSCLRA,NE JENSEN - CLARA,E JENSEN AVE & S CLARA AVE,36.706924,-119.794725,,,,,,0
1553,JENSBDLL,NW JENSEN - BARDELL,E JENSEN AVE & S MARTIN LUTHER KING JR BLVD,36.706866,-119.797912,,,,,,0
1554,JENSMLKG,NE JENSEN - MARTIN LUTHER KING,E JENSEN AVE & S BARDELL ST,36.706828,-119.799324,,,,,,0
1555,WALTJENS,NE WALNUT - JENSEN,S WALNUT AVE & E GARRETT AVE,36.707199,-119.808827,,,,,,0
1556,WALTKAVA,SE WALNUT - KAVILAND,S WALNUT AVE & E KAVILAND AVE,36.70852,-119.808829,,,,,,0
1557,WALTGROV,SE WALNUT - GROVE,S WALNUT AVE & E GROVE AVE,36.710252,-119.808856,,,,,,0
1558,CHURWALT,SE CHURCH - WALNUT,,36.714062,-119.808326,,,,,,0
1560,BELGFVEW,NW BELGRAVIA - FAIRVIEW,,36.715976,-119.804634,,,,,,0
1561,BELGWLNT,NE BELGRAVIA - WALNUT,,36.715958,-119.808635,,,,,,0
1562,WALNFLOR,SE WALNUT - FLORENCE,,36.718761,-119.808876,,,,,,0
1563,WALNCLFA,SE WALNUT - CALIFORNIA,,36.720821,-119.808879,,,,,,0
1564,MARTIFRE,SE MARTIN - FRESNO,,36.72283,-119.810152,,,,,,0
1565,FRESIRWN,SE FRESNO - IRWIN,,36.723764,-119.809209,,,,,,0
1566,FRESKLTT,SE FRESNO - KLETTE,,36.725,-119.807494,,,,,,0
1567,FRESNBST,SE FRESNO - B ST,,36.729793,-119.800746,,,,,,0
1568,FRESNFST,SE FRESNO - F ST,,36.732623,-119.796745,,,,,,0
1569,HSTMARIP,SW H ST - MARIOPSA,,36.733495,-119.79353,,,,,,0
1570,BRODTULE,SW BROADWAY - TULARE,,36.732087,-119.791917,,,,,,0
1571,INYOFULT,NE INYO - FULTON,,36.731334,-119.788702,,,,,,0
1572,VANNINYO,NE VAN NESS - INYO,,36.73292,-119.787174,,,,,,0
1573,JENSMLKI,SE JENSEN - MARTIN LUTHER KING,,36.706734,-119.799525,,,,,,0
1575,MARKGETT,SW MARKS - GETTYSBURG,,36.800788,-119.844466,,,,,,0
1576,MRKSASHC,SW MARKS - ASHCROFT,,36.79848,-119.844443,,,,,,0
1577,MARKSWIF,SW MARKS - SWIFT,,36.796328,-119.844438,,,,,,0
1578,MARKSAVE,NW MARKS - SAVEMART,,36.794658,-119.844403,,,,,,0
1579,MRKSASHL,SW MARKS - ASHLAN,,36.793258,-119.844406,,,,,,0
1580,MARKBELL,SW MARKS - BELLAIRE,,36.791255,-119.844426,,,,,,0
1581,MARKPONT,SW MARKS - PONTIAC,,36.789402,-119.844439,,,,,,0
1582,DAKOATLA,SW DAKOTA - ATLAS WAY,,36.786389,-119.842671,,,,,,0
1583,DAKOPLEA,SE DAKOTA - PLEASANT,,36.786405,-119.83962,,,,,,0
1584,HUGHGARL,NW HUGHES - GARLAND,,36.785177,-119.835569,,,,,,0
1585,SHLDHUGH,SE SHIELDS - HUGHES,,36.779166,-119.835138,,,,,,0
1586,SHLDCRYS,SE SHIELDS - CRYSTAL,,36.779183,-119.830704,,,,,,0
1588,SHLETEIL,SE SHIELDS - TEILMAN,,36.779239,-119.821969,,,,,,0
1589,SHLDFRUT,SW SHIELDS - FRUIT,,36.779262,-119.818279,,,,,,0
1590,SHLDADOL,SE SHIELDS - ADOLINE,,36.779295,-119.813948,,,,,,0
1591,SHLDPALM,SW SHIELDS - PALM,,36.779318,-119.809145,,,,,,0
1592,SHLDVANN,SE SHIELDS - VAN NESS,,36.779361,-119.803807,,,,,,0
1593,SHLDWISH,SE SHIELDS - WISHON,,36.779362,-119.801838,,,,,,0
1594,SHLDCOLL,SE SHIELDS - COLLEGE,,36.779405,-119.797069,,,,,,0
1596,SHLDFRES,SE SHIELDS - FRESNO,,36.779566,-119.78118,,,,,,0
1597,SHLDCALL,SE SHIELDS - CALLISCH,,36.779535,-119.776464,,,,,,0
1598,SHLDFRST,SE SHIELDS - FIRST,,36.779499,-119.771982,,,,,,0
1599,SHLDBOND,SE SHIELDS - BOND,,36.779472,-119.767771,,,,,,0
1600,SHLDMILL,SE SHIELDS - MILLBROOK,,36.779489,-119.763244,,,,,,0
1601,SHLDSPAL,SW SHIELDS - SPALDING,,36.779493,-119.759529,,,,,,0
1602,SHLDTENT,SW SHIELDS - TENTH,,36.779524,-119.755932,,,,,,0
1605,SHLDJACK,SE SHIELDS - JACKSON,,36.779467,-119.747622,,,,,,0
1606,SHLEMAPL,SE SHIELDS - MAPLE,,36.779466,-119.744235,,,,,,0
1607,SHLDSIER,SE SHIELDS - SIERRA VISTA,,36.779441,-119.74054,,,,,,0
1610,CHESPRIN,SW CHESTNUT - PRINCETON,,36.77571,-119.736478,,,,,,0
1611,CHESCAMB,SW CHESTNUT - CAMBRIDGE,,36.769672,-119.73648,,,,,,0
1612,CHESMCKI,SW CHESTNUT - McKINLEY,,36.765908,-119.736507,,,,,,0
1613,CHESFLOR,NW CHESTNUT - FLORADORA,,36.762965,-119.73647,,,,,,0
1614,CHESOLIV,NW CHESTNUT - OLIVE,,36.75836,-119.736492,,,,,,0
1615,CHESHRVY,SW CHESTNUT - HARVEY,,36.753703,-119.736504,,,,,,0
1616,CHESBELM,NW CHESTNUT - BELMONT,,36.751012,-119.73653,,,,,,0
1617,CHSSMCKZ,SW CHESTNUT - McKENZIE,,36.746665,-119.736517,,,,,,0
1618,CHESTULE,SW CHESTNUT - TULARE,,36.742811,-119.73652,,,,,,0
1619,CHESHUNT,SW CHESTNUT - HUNTINGTON,,36.73932,-119.736457,,,,,,0
1620,CHESLOWE,SW CHESTNUT - LANE,,36.731241,-119.736563,,,,,,0
1621,CHESHAML,SW CHESTNUT - HAMILTON,S CHESTNUT AVE & PRIVATE,36.724873,-119.736562,,,,,,0
1622,CHESDWHT,NW CHESTNUT - DWIGHT WAY,S CHESTNUT AVE & E DWIGHT WAY,36.722106,-119.736592,,,,,,0
1623,CHESGERY,SW CHESTNUT - GEARY,,36.720179,-119.736643,,,,,,0
1624,CHESFLCE,SW CHESTNUT - FLORENCE,,36.717747,-119.736659,,,,,,0
1625,CHURCHES,NW CHURCH - CHESTNUT,,36.714239,-119.737317,,,,,,0
1626,CHURRECR,NW CHURCH - RECREATION,,36.714231,-119.739102,,,,,,0
1627,CHURSIVI,NW CHURCH - SIERRA VISTA,,36.714269,-119.741936,,,,,,0
1629,MAPLGROV,NW MAPLE - GROVE,,36.710666,-119.745776,,,,,,0
1630,MAPLKAVI,SW MAPLE - KAVILAND,,36.709069,-119.745752,,,,,,0
1631,MAPLJENS,SW MAPLE - JENSEN,,36.707534,-119.745757,,,,,,0
1633,MAPLVINE,SW MAPLE - VINE,,36.704366,-119.745772,,,,,,0
1634,MAPLANNA,NW MAPLE - ANNADALE,,36.700622,-119.745776,,,,,,0
1635,MAPLCOMM,SW MAPLE - COMMERCE,,36.69855,-119.745756,,,,,,0
1636,MAPLEDGR,SW MAPLE - EDGAR,,36.695554,-119.745761,,,,,,0
1637,MAPLNRTH,SW MAPLE - NORTH,,36.692924,-119.745759,,,,,,0
1638,CHESNORT,SW CHESTNUT - NORTH,,36.692056,-119.736614,,,,,,0
1639,CHESRRXG,NW CHESTNUT - RXR TRACK,,36.690164,-119.73668,,,,,,0
1641,OLNYWARD,SE OLNEY - WARD,,36.681355,-119.734831,,,,,,0
1642,FRON3600,NW 3600 FRONT ST - OLNEY,,36.681009,-119.73635,,,,,,0
1643,FRONCALV,NW FRONT - CALVIN,,36.683263,-119.736356,,,,,,0
1644,CHESMSCT,NE CHESTNUT - MUSCAT,,36.685631,-119.736581,,,,,,0
1645,CHESRXRG,SE CHESTNUT - RXR TRACK,,36.688393,-119.736444,,,,,,0
1646,NORTCHES,NW NORTH - CHESTNUT,,36.6925,-119.737601,,,,,,0
1647,MAPLNORT,NE MAPLE - NORTH,,36.693206,-119.745586,,,,,,0
1648,MAPL2907,2907 S MAPLE - EDGAR,,36.695638,-119.745582,,,,,,0
1649,MAPLCMCE,NE MAPLE - COMMERCE,,36.699022,-119.745571,,,,,,0
1650,MAPLANDL,NE MAPLE - ANNADALE,,36.700366,-119.74557,,,,,,0
1651,MAPLEVIN,NE MAPLE - VINE,,36.703472,-119.745562,,,,,,0
1652,MAPLEJEN,NE MAPLE - JENSEN,,36.707439,-119.745529,,,,,,0
1653,MAPLEGRO,SE MAPLE - GROVE,,36.710176,-119.745568,,,,,,0
1655,CHUR4726,4726 E CHURCH,,36.714079,-119.740479,,,,,,0
1656,CHESCHUR,NE CHESTNUT - CHURCH,,36.714802,-119.736417,,,,,,0
1657,CHES2317,2317 S CHESTNUT,,36.717229,-119.736413,,,,,,0
1658,CHESATCH,NE CHESTNUT - ATCHINSON,,36.721261,-119.736405,,,,,,0
1659,CHESUN25,CHESTNUT - UNIT 25,,36.723148,-119.736406,,,,,,0
1660,CHESCETI,SE CHESTNUT - CETTI,,36.724187,-119.736392,,,,,,0
1662,CHESTLOW,NE CHESTNUT - LOWE,,36.731446,-119.736326,,,,,,0
1663,CHESTMON,NE CHESTNUT - MONTECITO,,36.73314,-119.736248,,,,,,0
1664,CHESMONO,SE CHESTNUT - MONO,,36.737096,-119.736239,,,,,,0
1665,CHESHTGN,NE CHESTNUT - HUNTINGTON,,36.739827,-119.736227,,,,,,0
1666,CHESTURE,NE CHESTNUT - TULARE,,36.743482,-119.736271,,,,,,0
1667,CHESMCKZ,NE CHESTNUT - McKENZIE,,36.746938,-119.736268,,,,,,0
1668,CHESBLMT,NE CHESTNUT - BELMONT,,36.750743,-119.73621,,,,,,0
1669,CHESHARV,NE CHESTNUT - HARVEY,,36.752759,-119.736166,,,,,,0
1670,CHESOLVE,NE CHESTNUT - OLIVE,,36.758332,-119.736233,,,,,,0
1671,CHESFLOA,NE CHESTNUT - FLORADORA,,36.76146,-119.73624,,,,,,0
1672,CHESMCKY,NE CHESTNUT - McKINLEY,,36.765642,-119.736237,,,,,,0
1673,CHESCAMR,SE CHESTNUT - CAMBRIDGE,,36.769264,-119.73623,,,,,,0
1675,CHESPRNC,SE CHESTNUT - PRINCETON,,36.775517,-119.736207,,,,,,0
1676,CHESSMPS,NE CHESTNUT - SIMPSON,,36.778206,-119.7362,,,,,,0
1677,SHLDCHNT,NW SHIELDS - CHESTNUT,,36.779621,-119.736786,,,,,,0
1678,SHLDSIVI,NE SHIELDS - SIERRA VISTA,,36.77964,-119.740115,,,,,,0
1679,SHLDMAPL,NW SHIELDS - MAPLE,,36.779677,-119.745707,,,,,,0
1680,SHLDBARN,NW SHIELDS - BARTON,,36.779712,-119.75126,,,,,,0
1682,CHLD4175,4175 E SHIELDS,,36.779758,-119.755932,,,,,,0
1683,SHLDEGTH,NW SHIELDS - EIGHTH,,36.77971,-119.761503,,,,,,0
1684,SHLDMIBK,NW SHIELDS - MILLBROOK,,36.77969,-119.764128,,,,,,0
1685,SHLDSBND,NW SHIELDS - BOND,,36.779686,-119.768374,,,,,,0
1686,SHLDTRGT,3173 E SHIELDS -TARGET,,36.779655,-119.770642,,,,,,0
1687,SHLDFIST,NW SHIELDS - FIRST,,36.779708,-119.773387,,,,,,0
1688,SHLDCLCH,NW SHIELDS - CALLISCH,,36.779778,-119.776812,,,,,,0
1689,SHLDFREN,NW SHIELDS - FRESNO,,36.779813,-119.782024,,,,,,0
1690,SHLDEFFI,NW SHIELDS - EFFIE,,36.77979,-119.788693,,,,,,0
1691,MTCW 41,MANCHESTER CENTER WB 41,PRIVATE & E DWIGHT WAY,36.783854,-119.790282,,,,,,0
1692,SHLDGLEN,NE SHIELDS - GLENN,E SHIELDS AVE & N EKLUND AVE,36.779593,-119.792603,,,,,,0
1693,SHLDCLGE,NW SHIELDS - COLLEGE,E SHIELDS AVE & N MAROA AVE,36.779533,-119.797613,,,,,,0
1694,SHLDMORA,NW SHIELDS - MAROA,E SHIELDS AVE & N WISHON AVE,36.779521,-119.799932,,,,,,0
1695,SHLDWSON,NE SHIELDS - WISHON,E SHIELDS AVE & N MAROA AVE,36.779518,-119.802035,,,,,,0
1696,SHLDVNES,NW SHIELDS - VAN NESS,E SHIELDS AVE & N VAN NESS BLVD,36.779488,-119.804501,,,,,,0
1697,SHLDSPLM,NW SHIELDS - PALM,E SHIELDS AVE & N PALM AVE,36.779455,-119.809171,,,,,,0
1698,SHLDTHOR,NW SHIELDS - THORNE,W SHIELDS AVE & N ADOLINE AVE,36.779431,-119.813299,,,,,,0
1699,SHLDFRIT,NW SHIELDS - FRUIT,W SHIELDS AVE & N FRUIT AVE,36.779397,-119.818004,,,,,,0
1700,SHLDTEIL,NE SHIELDS - TIELMAN,W SHIELDS AVE & N PACIFIC AVE,36.779409,-119.821815,,,,,,0
1702,SHLDCRAL,NW SHIELDS - CRYSTAL,Shields & Crystal,36.779372,-119.831373,,,,,,0
1703,HGHSHLDN,NE HUGHES - SHIELDS,,36.779568,-119.835405,,,,,,0
1704,HUGHCORT,NE HUGHES - CORTLAND,,36.782133,-119.835408,,,,,,0
1705,DAKOHUGH,NW DAKOTA - HUGHES,,36.786581,-119.836219,,,,,,0
1706,DAKOPLES,NW DAKOTA - PLEASANT,,36.786546,-119.840263,,,,,,0
1707,MARKDAKO,NE MARKS - DAKOTA,,36.78685,-119.844263,,,,,,0
1708,MARKSAGI,SE MARKS - SAGINAW,,36.788094,-119.84424,,,,,,0
1709,MARKSUSX,NE MARKS - SUSSEX,,36.7916,-119.844218,,,,,,0
1710,MARKASHL,NE MARKS - ASHLAN,,36.794348,-119.844207,,,,,,0
1711,MARKSWFT,SE MARKS - SWIFT,,36.796441,-119.844225,,,,,,0
1712,MARKASHC,SE MARKS - ASHCROFT,,36.798692,-119.844246,,,,,,0
1714,EMER4504,4504 N EMERSON,,36.802862,-119.845118,,,,,,0
1715,EMERFELA,NE EMERSON - FELAND,,36.803547,-119.848459,,,,,,0
1716,EMER4638,4638 N EMERSON,,36.8071,-119.853417,,,,,,0
1720,HERNBLYT,SE HERNDON - BLYTHE,,36.836943,-119.871013,,,,,,0
1721,HERNBRAW,SE HERNDON - BRAWLEY,,36.837119,-119.861784,,,,,,0
1722,HERNVALE,SE HERNDON - VALENTINE,,36.837155,-119.852805,,,,,,0
1723,HERNMARK,SE HERNDON - MARKS,,36.837115,-119.84698,,,,,,0
1724,HERNVANN,SE HERNDON - VAN NESS,,36.837073,-119.834934,,,,,,0
1725,HERNWEST,SE HERNDON - WEST,,36.837088,-119.825897,,,,,,0
1726,FRUTHERN,NE FRUIT - HERNDON,,36.837354,-119.8172,,,,,,0
1727,HERNTHOR,SW HERNDON - THORNE,,36.837336,-119.813271,,,,,,0
1729,PALMLOCU,SW PALM - LOCUST,,36.840335,-119.808353,,,,,,0
1731,PALMPAAL,SW PALM - PALO ALTO,,36.832658,-119.808472,,,,,,0
1732,PALMESCA,SW PALM - ESCALON,,36.826217,-119.808483,,,,,,0
1733,PALMBLRD,SW PALM - BULLARD,,36.822526,-119.808469,,,,,,0
1734,BARSPALM,NW BARSTOW - PALM,,36.815699,-119.809025,,,,,,0
1735,BARSTHOR,NW BARSTOW - THORNE,,36.815666,-119.813252,,,,,,0
1736,FRUTSAMA,SW FRUIT - SAN MADELE,,36.814359,-119.81753,,,,,,0
1737,FRUTSAJO,SW FRUIT - SAN JOSE,,36.811694,-119.81754,,,,,,0
1739,FRUTSTAN,SW FRUIT - SANTA ANA,,36.804704,-119.81756,,,,,,0
1740,FRUTGETT,SW FRUIT - GETTYSBURG,,36.80087,-119.817563,,,,,,0
1741,FRUTHOLL,NW FRUIT - HOLLAND,,36.797604,-119.817581,,,,,,0
1742,FRUTASHL,SW FRUIT - ASHLAN,,36.793617,-119.817597,,,,,,0
1743,FRUTSUSX,3960 N FRUIT - SUSSEX,,36.790865,-119.817626,,,,,,0
1744,FRUTSAGI,NW FRUIT - SAGINAW,,36.788143,-119.817646,,,,,,0
1745,FRUTDAKO,SW FRUIT - DAKOTA,,36.786378,-119.817647,,,,,,0
1746,FRUTDAYT,NW FRUIT - DAYTON,,36.782801,-119.817675,,,,,,0
1747,FRUTFOUN,NW FRUIT - FOUNTAIN WAY,,36.780998,-119.817701,,,,,,0
1749,FRUTCORN,NW FRUIT - CORNELL,,36.777653,-119.81772,,,,,,0
1750,FRUTPRIN,NW FRUIT - PRINCETON,,36.775882,-119.817742,,,,,,0
1751,FRUTHARV,NW FRUIT - HARVARD,,36.774083,-119.817752,,,,,,0
1752,FRUTCLIN,SW FRUIT - CLINTON,,36.771684,-119.81776,,,,,,0
1753,FRUTYALE,SW FRUIT - YALE,,36.77002,-119.81777,,,,,,0
1754,FRUTUNIV,SW FRUIT - UNIVERSITY,,36.766857,-119.817744,,,,,,0
1755,MCKITHOR,SE McKINLEY - THORNE,,36.764774,-119.812815,,,,,,0
1756,MCKIHARR,SW McKINLEY - HARRISON,,36.764815,-119.811094,,,,,,0
1757,MCKPALMS,SE McKINLEY - PALM,,36.764847,-119.80829,,,,,,0
1758,MCKIWISH,SE McKINLEY - WISHON,,36.764927,-119.800817,,,,,,0
1759,VANNUNIV,NE VAN NESS - UNIVERSITY,,36.766704,-119.799102,,,,,,0
1760,MAROWELD,SE MAROA - WELDON,,36.768435,-119.79951,,,,,,0
1761,MAROYALE,NE MAROA - YALE,,36.770625,-119.799547,,,,,,0
1762,MAROMICH,NE MAROA - MICHIGAN,,36.776955,-119.799514,,,,,,0
1764,BLAKSAGI,NE BLACKSTONE - SAGINAW,,36.788767,-119.790388,,,,,,0
1765,ASHLBLAK,SE ASHLAN - BLACKSTONE,,36.794003,-119.789655,,,,,,0
1766,ASHLFRES,SW ASHLAN - FRESNO,,36.794002,-119.782227,,,,,,0
1767,ASHLAUGU,SW ASHLAN - AUGUSTA,,36.794038,-119.778784,,,,,,0
1768,ASHLFRST,SE ASHLAN - FIRST,,36.794044,-119.771438,,,,,,0
1769,ASHLBOND,SE ASHLAN - BOND,,36.794048,-119.76754,,,,,,0
1770,ASHLMILL,SW ASHLAN - MILLBROOK,,36.794063,-119.763815,,,,,,0
1771,ASHLNINE,SW ASHLAN - NINTH,,36.794049,-119.758983,,,,,,0
1773,ASHLBART,SE ASHLAN - BARTON,,36.794212,-119.749412,,,,,,0
1774,ASHLCHES,SE ASHLAN - CHESTNUT,,36.794142,-119.73582,,,,,,0
1775,ASHLWINE,SE ASHLAN - WINERY,,36.794117,-119.731128,,,,,,0
1776,ASHLWILL,SE ASHLAN - WILLOW,,36.794035,-119.726965,,,,,,0
1777,ASHLHELM,SE ASHLAN - HELM,,36.793991,-119.722402,,,,,,0
1778,ASHLPECH,SE ASHLAN - PEACH,,36.793904,-119.717084,,,,,,0
1779,ASHLVILL,SW ASHLAN - VILLA,,36.793882,-119.713939,,,,,,0
1780,ASHLMINN,SW ASHLAN - MINNEWAWA,,36.794223,-119.710307,,,,,,0
1781,ASHLBUCK,SE ASHLAN - BUCKINGHAM,,36.794015,-119.70629,,,,,,0
1784,CLOSAGI,SW CLOVIS - SAGINAW,,36.789286,-119.700485,,,,,,0
1785,CLOVDAKO,SW CLOVIS - DAKOTA,,36.787105,-119.700502,,,,,,0
1786,SHLDCLOV,SW SHIELDS - CLOVIS,,36.779348,-119.699651,,,,,,0
1787,SHLDARGY,SW SHIELDS - ARGYLE,,36.779333,-119.695422,,,,,,0
1788,SHLDCLAR,SE SHIELDS - CLAREMONT,,36.77933,-119.69029,,,,,,0
1789,SHLDSTNS,SW SHIELDS - STANFORD,,36.77932,-119.68726,,,,,,0
1794,SHLDSUNN,NE SHIELDS - SUNNYSIDE,,36.779507,-119.691482,,,,,,0
1795,SHLDSABR,NE SHIELDS - SABER,,36.779522,-119.698914,,,,,,0
1797,CLOVSAGI,SE CLOVIS - SAGINAW,,36.789127,-119.700203,,,,,,0
1799,ASHLRALP,NW ASHLAN - RALPH,,36.793266,-119.703029,,,,,,0
1800,ASHLBUHM,NW ASHLAN - BUCKINGHAM,,36.794231,-119.706479,,,,,,0
1801,ASHLMINW,NW ASHLAN - MINNEWAWA,,36.794557,-119.709475,,,,,,0
1802,ASHLVILA,NW ASHLAN - VILLA,,36.794083,-119.714141,,,,,,0
1803,ASHLPEAC,NE ASHLAN - PEACH,,36.794143,-119.717518,,,,,,0
1804,ASHLNHEL,NW ASHLAN - HELM,,36.7942,-119.722923,,,,,,0
1805,ASHLWILO,NE ASHLAN - WILLOW,,36.794259,-119.726793,,,,,,0
1806,ASHLWINY,NW ASHLAN - WINERY,,36.794333,-119.732277,,,,,,0
1807,ASHLCHNT,NE ASHLAN - CHESTNUT,,36.794344,-119.735616,,,,,,0
1808,ASCHBRTN,NE ASHLAN - BARTON,,36.794443,-119.749234,,,,,,0
1810,ASHLNITH,NW ASHLAN - NINTH,,36.794249,-119.758199,,,,,,0
1811,ASHLMIBK,NE ASHLAN - MILLBROOK,,36.79425,-119.763028,,,,,,0
1812,ASHLABND,NW ASHLAN - BOND,,36.794204,-119.768491,,,,,,0
1813,ASHLFIST,NW ASHLAN - FIRST,,36.794182,-119.772766,,,,,,0
1814,ASHLANGU,NW ASHLAN - ANGUS,,36.794187,-119.776583,,,,,,0
1815,ASHLFREN,NW ASHLAN - FRESNO,,36.794183,-119.782008,,,,,,0
1816,ASHLCLRK,NE ASHLAN - CLARK,,36.794202,-119.785463,,,,,,0
1817,ASHLEFFI,NW ASHLAN - EFFIE,,36.7942,-119.788817,,,,,,0
1818,MTCW,MTC WB 45,,36.783904,-119.790316,,,,,,0
1819,SHLDDEMA,NE SHIELDS - DEL MAR,E SHIELDS AVE & N DEL MAR AVE,36.779564,-119.794696,,,,,,0
1820,WISHPRIN,SW WISHON - PRINCETON,,36.775666,-119.801164,,,,,,0
1821,WISHHRVD,SW WISHON - HARVARD,,36.773802,-119.801165,,,,,,0
1822,WISHCLIN,SW WISHON - CLINTON,,36.771964,-119.801169,,,,,,0
1823,MCKIECHO,NW McKINLEY - ECHO,,36.76506,-119.804583,,,,,,0
1824,MCKIARTH,NE McKINLEY - ARTHUR,,36.764895,-119.815238,,,,,,0
1825,FRUTMCKI,NE FRUIT - McKINLEY,,36.765001,-119.817655,,,,,,0
1826,FRUTUNTY,NE FRUIT - UNIVERSITY,,36.766834,-119.817651,,,,,,0
1827,FRUITYAL,NE FRUIT - YALE,,36.770457,-119.817574,,,,,,0
1828,FRUTCLNT,NE FRUIT - CLINTON,,36.772317,-119.817559,,,,,,0
1829,FRITHAVD,NE FRUIT - HARVARD,,36.774124,-119.817559,,,,,,0
1830,FRUTPRTN,NE FRUIT - PRINCETON,,36.775905,-119.817542,,,,,,0
1831,FRUTCRNL,NE FRUIT - CORNELL,,36.777697,-119.817541,,,,,,0
1833,FRUTFOUT,SE FRUIT - FOUNTAIN WAY,,36.780953,-119.817513,,,,,,0
1834,FRUTDATN,NE FRUIT - DAYTON,,36.783167,-119.817498,,,,,,0
1835,FRUTGARL,NE FRUIT - GARLAND,,36.784959,-119.817466,,,,,,0
1836,FRUTDKTA,NE FRUIT - DAKOTA,,36.786896,-119.817449,,,,,,0
1837,FRUTSAGW,SE FRUIT - SAGINAW,,36.788648,-119.817447,,,,,,0
1838,FRUT4025,4025 N FRUIT,,36.791251,-119.817429,,,,,,0
1839,FRUTASHN,NE FRUIT - ASHLAN,,36.794463,-119.817472,,,,,,0
1840,FRUTINDI,NE FRUIT - INDIANAPOLIS,,36.799507,-119.817424,,,,,,0
1841,FRUTGETY,NE FRUIT - GETTYSBURG,,36.801326,-119.817399,,,,,,0
1844,FRUTSAJS,NE FRUIT - SAN JOSE,,36.812249,-119.817318,,,,,,0
1845,FRUTBSTW,SE FRUIT - BARSTOW,,36.815328,-119.817298,,,,,,0
1846,BARSTHNE,SW BARSTOW - THORNE,,36.815514,-119.813421,,,,,,0
1847,PALMBSTW,NE PALM - BARSTOW,,36.815899,-119.808329,,,,,,0
1849,PALMPLOA,SE PALM - PALO ALTO,,36.833026,-119.80822,,,,,,0
1851,LOCUPALM,NW LOCUST - PALM,,36.840763,-119.808578,,,,,,0
1852,HERNFARI,NE HERNDON - FARRIS,,36.837397,-119.811425,,,,,,0
1853,HERNTHNE,NW HERNDON - THORNE,,36.837385,-119.814076,,,,,,0
1854,HERNFRUT,NE HERNDON - FRUIT,,36.838261,-119.817101,,,,,,0
1855,HERNDWET,NW HERNDON - WEST,,36.837377,-119.826765,,,,,,0
1856,HERNVANS,NW HERNDON - VAN NESS,,36.837356,-119.835785,,,,,,0
1857,HERNMRKS,NW HERNDON - MARKS,,36.837382,-119.847839,,,,,,0
1858,HERNDVAL,NW HERNDON - VALENTINE,,36.837374,-119.853792,,,,,,0
1859,HERNBRWY,NW HERNDON - BRAWLEY,,36.83735,-119.862845,,,,,,0
1860,HERNBYTH,NE HERNDON - BLYTHE,,36.837254,-119.870952,,,,,,0
1861,BLYTHERN,NE BLYTHE - HERNDON,,36.837732,-119.871379,,,,,,0
1862,SPRUCHEN,NW SPRUCE - CHENNAULT,,36.840497,-119.877558,,,,,,0
1863,MILBANTI,NW MILBURN - ANTIOCH,,36.839099,-119.879236,,,,,,0
1866,ELPE,EL PASO EB,PRIVATE DR & E FLORENCE AVE,36.84815,-119.786473,,,,,,0
1867,NEESANGU,SW NEES - ANGUS,E NEES AVE & N ANGUS ST,36.851898,-119.779451,,,,,,0
1868,NEESFIRS,SE NEES - FIRST,E NEES AVE & N FIRST ST,36.851904,-119.774074,,,,,,0
1869,MILLNEES,NE MILLBROOK - NEES,,36.852358,-119.765696,,,,,,0
1870,MILLPORT,SE MILLBROOK - PORTLAND,,36.85554,-119.765704,,,,,,0
1872,MILLCOLE,SE MILLBROOK - COLE,,36.862752,-119.765705,,,,,,0
1873,MILLMONT,NE MILLBROOK - MONTICELLO,,36.865202,-119.765708,,,,,,0
1874,SHEPMILL,NW SHEPHERD - MILLBROOK,,36.866507,-119.766933,,,,,,0
1875,SHEPPERR,NE SHEPHERD - PERRIN,,36.866485,-119.769711,,,,,,0
1876,PERRFOXH,SW PERRIN - FOXHILL,,36.868717,-119.768712,,,,,,0
1878,CHAMPL1S,SW CHAMPLAIN 1S,,36.870821,-119.762195,,,,,,0
1879,CHAMFOXH,SW CHAMPLAIN - FOXHILL,,36.869047,-119.758476,,,,,,0
1880,CEDRSHEP,SW CEDAR - SHEPHERD,,36.866069,-119.756944,,,,,,0
1881,CEDRNEWH,SW CEDAR - NEWHAVEN,,36.862051,-119.756925,,,,,,0
1882,TEAGCEDR,NW TEAGUE - CEDAR,,36.859349,-119.75729,,,,,,0
1883,TEAGEIGH,NW TEAGUE - EIGHTH,,36.859307,-119.763771,,,,,,0
1885,MILLOMHA,NW MILLBROOK - OMAHA,,36.855426,-119.765874,,,,,,0
1886,NEESMILB,NW NEES - MILLBROOK,E NEES AVE & N SIXTH ST,36.851904,-119.766206,,,,,,0
1888,NEESCALL,NW NEES - CALLISCH,E NEES AVE & PRIVATE DR,36.85198,-119.778296,,,,,,0
1889,NEESAGUS,NW NEES - AUGUSTA,E NEES AVE & N AUGUSTA ST,36.851976,-119.78193,,,,,,0
1890,ELPW,EL PASO WB,PRIVATE DR & N FRESNO ST,36.848293,-119.786621,,,,,,0
1903,BRAWGRI,NE BRAWLEY - GRIFFITH,N BRAWLEY AVE & W GRIFFITH WAY,36.7904,-119.862256,,,,,,0
1904,TULEPECH,NW TULARE - PEACH,E TULARE ST & N VILLA AVE,36.743193,-119.718896,,,,,,0
1905,WESTSHIE,SE WEST - SHIELDS,,36.778706,-119.826445,,,,,,0
1906,WESTSHAW,NE WEST - SHAW,,36.808863,-119.826274,,,,,,0
1907,CLINSANP,SW CLINTON - SAN PABLO,,36.772194,-119.794746,,,,,,0
1908,CLINGLEN,SE CLINTON - GLENN,,36.772202,-119.792919,,,,,,0
1909,BUTLNST,NW BUTLER - N ST,,36.728625,-119.777837,,,,,,0
1910,KINGWILL,NW KINGS CANYON - WILLOW,,36.736004,-119.72853,,,,,,0
1911,BLAKHOLL,NE BLACKSTONE - HOLLAND,,36.797978,-119.790368,,,,,,0
1912,FRESFST,SE FRESNO - F ST,,36.732646,-119.796723,,,,,,0
1913,FRANMUSC,SE FRANK - MUSCAT,,36.685036,-119.734351,,,,,,0
1914,ASHLANGS,SE ASHLAN - ANGUS,,36.794036,-119.776034,,,,,,0
1916,CEDR GET,NE CEDAR - GETTYSBURG,,36.801684,-119.754119,,,,,,0
1917,BLAKELPO,NE BLACKSTONE - EL PASO,,36.846933,-119.790544,,,,,,0
1935,VENTNINE,NW VENTURA - NINTH,,36.735941,-119.759742,,,,,,0
1936,COLEHOBB,SW COLE - HOBLETT,COLE AVE & SAN JOSE AVE,36.813685,-119.695516,,,,,,0
1937,SHAW99,SW SHAW - HIGHWAY 99,W SHAW AVE & N POLK AVE,36.808032,-119.887877,,,,,,0
1954,CORNMOBL,SW CORNELIA - MOBIL HOME PK,N CORNELIA AVE & PRIVATE DR,36.79938,-119.880462,,,,,,0
1955,TRINOLEA,NW TRINITY - OLEANDER,,36.729923,-119.80875,,,,,,0
1956,BLAKHOME,NE BLACKSTONE - HOME,,36.76357,-119.790414,,,,,,0
1957,SANPOLIV,SW SAN PABLO - OLIVE,,36.757391,-119.795132,,,,,,0
1958,FRESDIVI,NE FRESNO - DIVISADERO,,36.743706,-119.781585,,,,,,0
1959,SHAWFIRS,SHAW - FIRST,,36.808432,-119.771565,,,,,,0
1978,VENTPST,SW VENTURA - P ST,,36.734029,-119.779832,,,,,,0
1991,BUTLHELM,SW BUTLER - HELM,,36.728595,-119.72321,,,,,,0
1992,CLINARTH,SW CLINTON - ARTHUR,W CLINTON AVE & N ARTHUR/VAGEDES ALY,36.772028,-119.815487,,,,,,0
1993,CLINBRTN,SE CLINTON - BARTON,,36.772233,-119.750249,,,,,,0
1994,CLINRWEL,NE CLINTON - ROWELL,,36.772424,-119.752564,,,,,,0
1995,FRSTMINA,SW FIRST - MINARTES,N FIRST ST & E MINARETS AVE,36.842371,-119.774724,,,,,,0
1996,CEDRWLDN,NE CEDAR - WELDON,,36.76899,-119.754415,,,,,,0
1997,CEDRDWIT,NE CEDAR - DWIGHT,,36.722402,-119.754566,,,,,,0
1998,SHLDEFFE,SE SHIELDS - EFFIE,,36.779581,-119.78806,,,,,,0
1999,CHESSHLD,SW CHESTNUT - SHIELDS,,36.778934,-119.736455,,,,,,0
2000,CHESHEDG,NW CHESTNUT - HEDGES,,36.760053,-119.736488,,,,,,0
2001,ASHLAUGA,NW ASHLAN - AUGUSTA,,36.794181,-119.779445,,,,,,0
2002,FRUTSANT,SE FRUIT - SANTA ANA,,36.804612,-119.817395,,,,,,0
2003,FRUTFAIR,NE FRUIT - FAIRMONT,,36.80683,-119.817424,,,,,,0
2004,MCKNBLAK,NW MCKINLEY - BLACKSTONE,,36.764529,-119.790732,,,,,,0
2005,BLAKMCKY,SW BLACKSTONE - MCKINLEY,,36.764489,-119.79076,,,,,,0
2009,WSTSHAW,NW WEST - SHAW,,36.809761,-119.826504,,,,,,0
2010,OLIVFULT,NE OLIVE - FULTON,,36.757731,-119.8001,,,,,,0
2011,BUSS2923,2923 N BUSINESS PARK,,36.77681,-119.685328,,,,,,0
2012,PRINFOWL,SW PRINCETON - FOWLER,,36.77571,-119.682611,,,,,,0
2013,MELOPARK,MELODY PARK,,36.779493,-119.684278,,,,,,0
2015,CHURELM,CHURCH - ELM,E CHURCH AVE & S ELM AVE,36.714115,-119.790198,,,,,,0
2016,TULEFAGN,TULARE - FAGAN ALY,,36.730003,-119.795514,,,,,,0
2017,929FST,929 F STREET,,36.729906,-119.794393,,,,,,0
2018,FSTINYO,F ST - INYO,,36.728421,-119.792775,,,,,,0
2019,FSTVENT,F ST - VENTURA,,36.726734,-119.79089,,,,,,0
2020,CHURHOLY,CHURCH - HOLLY,E CHURCH AVE & S HOLLY AVE,36.714153,-119.788334,,,,,,0
2022,BLAKSTAR,BLACKSTONE - STARBUCKS,,36.849427,-119.790654,,,,,,0
2023,CSTSANBE,C ST - SAN BENITO,,36.721744,-119.792609,,,,,,0
2024,COLEFRES,NW COLE - FRESNO,,36.85458,-119.783429,,,,,,0
2025,INGRBECH,NW INGRAM - BEECHWOOD,,36.838803,-119.801983,,,,,,0
2178,SNJSBRAW,SE SAN JOSE BRAWLEY,,36.811759,-119.862354,,,,,,0
2215,ASH MLBN,SE ASHLAN - MILBURN,W ASHLAN AVE & N MELANIE WAY,36.793569,-119.876303,,,,,,0
2221,CEDRJEN1,CEDAR AND JENSEN,S CEDAR AVE & UNNAMED ALY,36.706309,-119.754638,,,,,,0
2243,WIKC,WINERY KINGS CANYON,E KINGS CANYON RD & S WINERY AVE,36.736007,-119.732304,,,,,,0
