stop_id,stop_code,stop_name,stop_desc,stop_lat,stop_lon,location_type
688a134e-8c33-4776-b276-d03da1dd587c,"23358","Cache Creek Casino Resort","""Cache Creek Casino""",38.7333548804137,-122.142351546428,0
4fb90529-df3d-4817-b289-7913bab8e803,"23526","Hwy. 16 at Rd. 85 (Capay) EB","",38.7073401336277,-122.048604312456,0
7b7a754a-71f2-4796-b7c9-c9bfda47d8e6,"23355","Yolo at Grafton (Esparto) SB","",38.6929621513463,-122.016727597518,0
14989d21-0e8e-43d1-93f9-fbd511ed63fd,"23353","Railroad at Main (Madison)","""""",38.6790736722394,-121.968470631151,0
ce57f7f5-4110-40e8-a062-fb58b27e5dfa,"23293","W. Lincoln at Rd 98 EB","",38.67525286527,-121.801838386168,0
a4acdffb-7213-4a43-978b-9b9db6bbcb14,"23012","Ashley at W. Lincoln NB","""Rite Aid""",38.6767723367674,-121.797849941126,0
6199fa70-9d70-47e1-bc3a-293667c9a91c,"23081","W. Main at Community EB","",38.6775756584153,-121.791895436758,0
62ef68cb-4521-4e57-a81d-3c251994f3d2,"23079","Main at Cleveland EB","""Main at Cleveland""",38.6774844633034,-121.781001644194,0
a6918e1a-0990-464d-90e8-7005ccc95dab,"23568","Main at Elm EB","""""",38.6774723933621,-121.776003347397,0
7cf29d45-b326-4590-a28d-0ed18cb2dc7b,"23077","Main at 5th EB","",38.6773986326098,-121.767433689084,0
a5e7c535-c539-4b5c-a007-a56af02aed93,"23082","E. Main at East","",38.6774160669694,-121.7644564369,0
7bbc0017-446c-41c4-be3f-2568812c06eb,"23085","E. Main at Matmor","",38.6773221896483,-121.75816531528,0
e559ea14-94a5-4a2d-8525-42e3a520592d,"23090","Matmor at E. Main SB","""Matmor at E. Main""",38.6766824827601,-121.756177798282,0
88e94a76-9bec-45a3-8f35-b448a058e4a2,"23088","Matmor at Crystal Springs","",38.6732935114678,-121.756209984792,0
59d5b7d3-a724-4102-a198-d78cbb0d1361,"23094","Matmor at Gum SB","""Matmor at Gum""",38.6687149804065,-121.756268993394,0
c8bc4afa-d857-4d0a-86e3-c117874c6b93,"23093","Matmor at E. Gibson SB","""Matmor at E. Gibson""",38.6640358665011,-121.756478205709,0
1cde3a78-e935-4840-a880-ecd6722be049,"23062","E. Gibson at Washington WB","",38.6628261901633,-121.75946618673,0
02350227-bfd9-46b8-923a-9a4ee6f2c2a4,"23362","E. Gibson at County Fair Mall WB","",38.6628168024312,-121.76193650138,0
1bd24f10-5c90-46b4-826e-888c1b9bd29c,"23306","County Fair Mall","",38.6598878300123,-121.764565066371,0
913425c5-4421-4785-996a-e8a9d02bc97b,"23073","Industrial at E. Main SB","""Industrial at E. Main""",38.6779283689218,-121.752937689599,0
ba5a68da-afdc-4e50-8066-106fe73c6f44,"23473","West Sacramento Transit Center","",38.5809329796394,-121.522479595094,0
06f70a73-e097-4a17-b2e1-aa2390db4a6c,"23585","County Fair Mall - Depart","",38.6598878300123,-121.764011190177,0
887f25d9-008b-4191-a359-b5632a2ffefa,"23056","Gibson at Coloma","",38.6628972687064,-121.769909368152,0
7f09721d-1ace-4f1d-8abb-be19f761f57f,"23055","Gibson at College WB","",38.6629307963211,-121.775150404879,0
d5d61c06-315f-4c22-a5a6-8eff67eac502,"23061","Gibson at Spruce","",38.6629562773082,-121.778053896311,0
142b430b-a8be-4217-9491-ceec4e0e390b,"23064","W. Gibson at West WB","""Gibson at West""",38.6630018748642,-121.785002159178,0
e5936ef2-0682-4bf9-908c-f34f20283667,"23058","W. Gibson at Midway WB","""W. Gibson at Midway""",38.6630300380606,-121.787068801348,0
545437fd-de38-4037-adf1-ad64c16e8c09,"23051","W. Gibson at Amherst WB","""W. Gibson at Amherst""",38.6630716123028,-121.791554796192,0
a452026e-cf01-4c69-b6d6-7e4a73a31610,"23031","Cottonwood at W. Gibson NB","""Hospital""",38.6641900935286,-121.79336662849,0
97664ef4-ad0e-4999-b295-516030e56a4b,"23037","Cottonwood at W. Southwood NB","""""",38.6695799928653,-121.793333100875,0
3ebb3431-3bc3-4a5e-a2ef-6335b6f21eb4,"23029","Cottonwood at W. Cross NB","""""",38.6719859344951,-121.793312984306,0
15026b11-53c3-4e83-8166-b6cf70e596b5,"23033","Cottonwood at W. Lincoln NB","""""",38.6757061586205,-121.793276774483,0
eae1bf76-6946-4d27-843a-b21d58d68a40,"23075","W. Lincoln at Ashley WB","""W. Lincoln at Ashley""",38.6758925721581,-121.797255831793,0
575c87cf-d9eb-4554-84a3-aa96b04d42d6,"23305","W. Lincoln at Rd 98 WB","",38.6755371794425,-121.801319378693,0
eda38c3a-349a-4f8f-8cee-2cc91d09d246,"23297","Ashley at W. Court","",38.678714837927,-121.797852563154,0
a17ae909-0af6-4de9-b019-42dd6db6634d,"23294","W. Court at Cottonwood EB","""W. Court at Cottonwood""",38.6789154218981,-121.793591934061,0
e69e9976-9310-4b8f-a236-5e803ce7d2a8,"23027","Cottonwood at Riverside NB","""""",38.6805824149002,-121.793197649312,0
d3aa9bec-5520-48a6-b45f-6e5467a34041,"23025","Cottonwood at Buckeye NB","""""",38.6832498719245,-121.793148028442,0
41531c2b-ce90-4bf1-a289-1d3303831212,"23023","Cottonwood at W Beamer NB","""""",38.6847760489449,-121.793146687338,0
c0eb9220-ad88-4af3-9fcd-9eed7703d643,"23495","N. Cottonwood at W. Woodland NB","",38.6878793649602,-121.793571817492,0
5571e507-5885-4efb-aa5e-8748e3a00117,"23497","N. Ashley at W. Woodland","",38.6889468842117,-121.797774839269,0
6be487b4-0258-4b20-9f25-2327366c2a85,"23498","W. Kentucky at N. Ashley","",38.6921166813569,-121.797570973558,0
53d3cd29-c321-4b6f-a2cb-4b5afa249d6e,"23505","N. Cottonwood at W. Kentucky","",38.6919335241278,-121.793110477514,0
39c667e0-b38f-4970-8af7-c46d0433cbcc,"23496","N. Cottonwood at W. Woodland SB","",38.6880778484391,-121.793582546328,0
daa05d86-01bf-4f92-9bd6-cca0013d3748,"23014","W. Beamer at Mariposa EB","""W. Beamer at Mariposa""",38.6847599556899,-121.790058123473,0
7930e5b0-66de-4708-ba17-93601d9801b8,"23020","W. Beamer at West EB","""W. Beamer at West""",38.684769343422,-121.784167992125,0
c2e907be-b86d-4e8f-a4d9-7ff190a5815d,"23099","West at Clover SB","""West at Clover""",38.6824478913813,-121.784024493934,0
acf21332-2b7e-4abe-a368-850a9d7f691e,"23102","West at North SB","""West at North""",38.6798984515606,-121.784052657131,0
8657d35b-b850-4894-b813-ba4733ba099f,"23041","Court at Cleveland EB","""""",38.6788027691128,-121.7796001899,0
b29d7570-2770-4046-97a1-7e9452b7afbe,"23045","Court at Walnut EB","""""",38.678775947021,-121.777882234924,0
a474ec18-6c33-4eae-a595-4856c05105b8,"23043","Court at College EB","""""",38.6787504660338,-121.77420626725,0
2e18a735-9ffe-46f8-ad9c-6baf014ad23b,"23039","Court at 2nd EB","""Post Office""",38.6787316905696,-121.771579043363,0
e6275c54-fab5-40e8-9e77-5e92972337be,"23298","3rd St. at Clover NB","""""",38.6825471331207,-121.770532981785,0
2bb1b1d1-ca6b-4967-ad6b-111747c035b4,"23301","3rd St. at Beamer NB","",38.6844045629742,-121.770528958471,0
307d14c7-4a2a-412c-bc52-8fe263a6a8b6,"23018","Beamer at 5th EB","""""",38.6846701016825,-121.767278120952,0
071bb6e0-ce3f-4842-b696-2f77d21311a3,"23016","E. Beamer at Matmor EB","""""",38.6845896354073,-121.758535460146,0
d0c26673-e96d-477e-ace2-aebcd2b6e070,"23087","Matmor at Cannery SB","""Matmor at Cannery""",38.6810826469113,-121.756224736942,0
816ebea1-e3b3-4a8d-83d0-e8556da70a27,"23069","E. Gum at Matmor WB","""E. Gum at Matmor""",38.6682885091477,-121.757218495442,0
15af1bbe-e124-4e86-8b1f-bced5268e040,"23066","E. Gum at East WB","""Gum at East""",38.668339471122,-121.764393404984,0
79a96ec6-f0d3-4f90-9047-cf0c72161617,"23494","Woodland Community & Senior Center NB","",38.6538018973948,-121.764945940074,0
b21bb77f-8f8e-42d1-851c-2e41206f83a4,"23284","W. Capitol at Jefferson WB","",38.5808699477238,-121.525938303825,0
48aab1e4-70a9-4922-ab3f-9fed17117726,"23240","Jefferson at Michigan NB","",38.583007668436,-121.526222617997,0
61e6f459-6412-4548-93c8-ea62e5868d3d,"23439","Jefferson at Triangle Court NB","",38.5869384459816,-121.526906581337,0
ab43d1e7-37ae-4c47-9fb7-6e8a7599220b,"23223","5th St. at C St.","",38.5890627556481,-121.512649298468,0
0b2628ce-dd01-4b5d-a8ad-69fbbc697ff2,"23224","6th St. at Andrew SB","""""",38.590834354808,-121.513828129401,0
975da23c-72e7-4068-a02a-d8374f9271e6,"23508","Cummins at Rueter WB","""""",38.5933368559681,-121.516916693265,0
e33d2fa4-2bdf-4d95-a63e-6b7b27a6c5ec,"23509","Cummins at Fairway WB","""Cummins at Fairway""",38.5938786622214,-121.521505953163,0
f5a90c7c-25cc-470e-a7a9-2eea9a398b0c,"23510","Cummins at Hardy WB","""Cummins at Hardy""",38.5941187199425,-121.523467989175,0
85f4f7d1-9d7e-4f90-b374-f7bf4c255033,"23511","Cummins at Kegle WB","",38.5942702647609,-121.525923551674,0
8189926c-cc13-4fe4-a3a6-52b19a54f61d,"23424","Anna at Holland WB","""""",38.5963033793153,-121.529639752486,0
04386ec4-9a10-4e2c-b928-95c8a6dc5232,"23423","Anna at Todhunter WB","",38.5953310784895,-121.533490063756,0
55f70ac6-35a7-4418-8152-3fe57df22692,"23226","Anna at Bryte WB","",38.5942850169113,-121.537364514909,0
4db6ce15-1647-489f-9a5b-fa925fbb7400,"23228","Bryte at Lisbon","",38.5955617484785,-121.538795473504,0
117d2319-6fa5-42f5-9dd6-716cff2524c1,"23255","Lisbon at Water","",38.5947114881701,-121.542217972411,0
51377821-87fa-483d-bd6e-c4352cc17c05,"23272","Water at Hobson SB","""Water at Hobson""",38.5923538263055,-121.541352959952,0
8e36cb69-0f28-4eb3-8c30-028d4b5026ee,"23327","Solano at Sacramento SB","""Solano at Sacramento""",38.5913560444925,-121.53999576211,0
48f1062f-c0d7-49b5-859f-87db57fbe97f,"23379","Reed at Oak WB","""Reed at Oak""",38.5915357525072,-121.543933245178,0
2092e136-24cc-4ba7-b29b-665441e78129,"23566","Ikea Ct. at Reed","""""",38.5912085229879,-121.548750492856,0
baa175c1-1933-4c78-ab4e-44d026f6f235,"23421","Ikea Ct. at IKEA NB","",38.58915395076,-121.552063021187,0
3cffdd7f-4509-47e6-b70e-cde48bf42cbe,"23264","Reed at Ikea EB","",38.591685956221,-121.548297199505,0
c7548b05-dbe0-45ce-a57a-89b58c371702,"23380","Reed at Oak EB","""Reed at Oak""",38.5914113046063,-121.543950881183,0
776f82d0-b5f9-411c-b6ea-83a53be4fe3b,"23437","Sacramento at Bryte EB","""Sacramento at Bryte""",38.5906063670281,-121.537109705037,0
00a9a175-f17c-449d-ae09-4f74abfa85c3,"23332","Sacramento at Todhunter","",38.5902187878024,-121.53357589445,0
99a9e51f-8a9a-492b-92c6-887e8cf85536,"23434","Sacramento at Jefferson EB","""Sacramento at Jefferson""",38.5895696931821,-121.527365239106,0
f815bba5-7a95-49dd-acc5-d59a438361fe,"23243","Jefferson at Triangle Court SB","",38.5870712153358,-121.526985706507,0
6f8c17c6-3271-4f88-a49c-0cad2f2fedbf,"23239","Jefferson at Michigan","",38.5824470867185,-121.526514978797,0
51f53407-ecac-49df-b858-c5633606ff37,"23285","W. Capitol at Jefferson EB","""W. Capitol at Jefferson""",38.5806607354081,-121.526223959102,0
ca3e7361-5f7d-496d-95f8-80abb90d4790,"23472","W. Capitol at Merkley","",38.581496243566,-121.522534580382,0
d35cddd6-3832-4c38-946d-0a9a24cbcede,"23441","5th St. at G St. NB","",38.5845351865611,-121.513593436098,0
5f30a0a3-d382-4db6-b96d-294368304aa3,"23221","3rd St. at G St. SB","",38.5834623028912,-121.511034608545,0
d886a75f-fe41-47aa-b3af-e6a0ba07a98d,"23412","Capitol Mall at Front EB","""Embassy Suites""",38.5801014947952,-121.506804764676,0
01f9bce4-cd1e-4707-b2ed-a1683734e588,"23512","N at 4th","",38.5779382930957,-121.503170371245,0
ab1c5619-cd0c-42e7-84e6-9b576cbd35bb,"23563","N St. at 7th St.","""""",38.5768962548313,-121.499309331138,0
ad3a3860-d2ff-4e0c-b0a4-9a9e44d57f24,"23513","8th St. at N St.","",38.5769016192497,-121.497906535739,0
005f4090-8510-443b-8cb8-8d589f6d8137,"23600","Capitol Mall at 7th St.","",38.5779986428022,-121.498170733343,0
176351b2-9986-4238-8e8b-ed2f8f19a9da,"23411","Capitol Mall at Front WB","""Old Sacramento""",38.5801028358998,-121.506331354757,0
29b75249-9e1f-4c7d-bc14-6373a185c1ed,"23222","3rd St. at G St. NB","",38.5838042845609,-121.510903180295,0
e83c4fcc-3cde-490d-afb4-ecffa35b3d42,"23440","5th St. at G St. SB","",38.5837573459004,-121.513793260681,0
1b597722-aa5e-4d92-b005-04157347ef4b,"23383","W. Capitol at Hotel WB","",38.582907085592,-121.515821010817,0
35658ace-05e1-4e0a-b6b0-496534e2c07a,"23363","E. Gibson at County Fair Mall EB","""E. Gibson at County Fair Mall""",38.6627886392348,-121.76151271233,0
8595cdde-69f2-4b08-86c2-b415de43c419,"23063","E. Gibson at Washington EB","",38.6627819337119,-121.758673593919,0
96f007c7-19cc-4a60-a103-17787a447eb7,"23104","E. Gibson at Pioneer EB","""Pioneer High School""",38.6626464821485,-121.741341158232,0
f657c5a8-2bb2-476f-bee6-797398cee8df,"23302","Woodland Community College","",38.6610894597226,-121.735555633042,0
cddc5a4c-5acd-44d0-b4f4-d03564aaaebf,"23096","Ogden at Branigan","""29""",38.6643353443154,-121.735618282494,0
4d027b0b-7f92-4f73-b9fd-ce9de339dd18,"23049","Farnham at Howard NB","""""",38.6658839086225,-121.731662406424,0
3e95c243-4d56-4772-9a37-4b4fd65e4919,"23506","Maxwell at Burns EB","",38.6687029104652,-121.729925675984,0
bd3408b0-4551-493d-bc01-7df52ace467c,"23503","Veterans at Maxwell","",38.6693801682818,-121.723847789994,0
053f96fa-7c6d-4dd8-afcb-708b9b0b59f8,"23507","Maxwell at Burns WB","",38.6687270503477,-121.73084835594,0
30db4000-e76f-4bb3-8f7f-0c25da445f01,"23046","Farnham at Maxwell NB","""""",38.6678164403329,-121.733094706124,0
e7c9b246-d94b-44d9-9ad9-ffc4396ac262,"23047","Farnham at Eaton","""56""",38.6697033744874,-121.735051377717,0
45939370-dacd-46ee-84b4-c931f92203cd,"23071","E. Gum at Wallace WB","""""",38.6689738135918,-121.738987519681,0
56379c1a-6798-4013-8d9e-73ca29a61569,"23097","Pioneer at E. Gum NB","""67""",38.6697234910562,-121.74217666639,0
c28a88c1-020c-4a25-8fd1-131abd3a8f8f,"23307","Pioneer at Spring Lake NB","""Pioneer at Spring Lake""",38.6733404501283,-121.74537520083,0
54bcf81e-eb6c-4f14-a86c-92d87bfac7b8,"23308","E. Main at Wal-Mart","",38.6771599159932,-121.740895911509,0
6e19eb43-d427-430e-ae21-ba12341c5974,"23084","E. Main at Industrial WB","""""",38.6773007319749,-121.752369061254,0
84bec73d-14e3-4dca-9a3a-dd9371c57212,"23072","Industrial at E Main NB","""Industrial at E Main""",38.6780638204851,-121.752893433147,0
b6a3d6b0-8e10-48b6-9533-e405075f6c57,"23086","Matmor at Cannery NB","""Matmor at Cannery""",38.6812891770178,-121.756180480491,0
e4ce0aa4-02ea-4136-a2fb-e228d0ed11e1,"23015","E. Beamer at Matmor WB","""""",38.6846177986037,-121.758067414645,0
02c9adf0-095b-45dd-aedb-8ac8a06fa86e,"23017","Beamer at 5th WB","""""",38.6846955826697,-121.767335788449,0
e2cf2ec6-3bbe-4d1c-8637-f8907b0fa54c,"23300","3rd St. at Beamer SB","",38.6842315604825,-121.77058126155,0
e7a6294d-801a-4453-b5db-8bf37373ddae,"23299","3rd St. at Clover SB","""""",38.6822319735427,-121.770573214923,0
a3c5b259-2c8b-4d4c-85a9-3e70b36030e5,"23038","Court at 2nd WB","""""",38.678753148243,-121.771341667851,0
cc36df81-1986-4eda-96ef-e1d771608b8c,"23042","Court at College WB","""""",38.6787799703348,-121.775174544762,0
5dbc024a-743d-4b70-9b1c-2ee6a5b4c1d7,"23044","Court at Walnut WB","""""",38.6788041102173,-121.777943925735,0
9b04dfd3-1c50-4907-a8eb-a4a765029839,"23040","Court at Cleveland WB","""""",38.6788389789366,-121.779565321181,0
0c6a01d2-e7be-4d40-8456-1a0cc54087e0,"23502","West at Park SB","",38.6731325789173,-121.784106301314,0
aedd8947-ee67-4332-a4d9-593ea39a8026,"23583","Cross at Dingle EB","",38.672015438796,-121.775961773155,0
4b7c0fde-9de8-4b26-917a-4b4d30cfad8d,"23500","College at Marshall SB","""114""",38.6677449238286,-121.774835999033,0
f8dc0e4c-19d7-4d04-8119-f34306a5f966,"23057","Gibson at Coloma","",38.6628516711504,-121.769358174167,0
21090350-87fb-4508-a0cf-c9c082dedc90,"23278","W. Capitol at Enterprise WB","""W. Capitol at Enterprise""",38.5753647133925,-121.576180104982,0
156eacc8-8376-4c2a-9dde-1f6d608e4236,"23003","UC Davis Memorial Union","",38.543694847369,-121.750110227216,0
d1bc0b02-cd08-4189-802a-4c7e6fadbcdf,"23360","Russell at California WB","""Russell at California""",38.546302976984,-121.753836229672,0
49a19851-5e1d-47a8-af2c-cd3389d4765c,"23130","Anderson at Russell NB","",38.5471773771749,-121.758736625834,0
da802018-35ed-443c-adaa-9d2aaca30acc,"23132","Anderson at Sunset NB","",38.5491753334753,-121.758692755523,0
35870e32-4f8f-49df-b3d4-2955db73c627,"23126","Anderson at Amherst NB","",38.5524961979685,-121.758661523978,0
f5aef00b-a8fd-4d1f-ad18-a90f1d3d6111,"23136","Anderson at Villanova NB","""""",38.556433681037,-121.75857166997,0
b56dd1d1-7b63-4121-82ea-4db18a53f7e5,"23127","Anderson at Hanover NB","",38.5594136154302,-121.758544847879,0
8d9fa8b1-71bb-4121-9fa0-c50129eed722,"23155","W. Covell at Sycamore WB","""""",38.5609384513461,-121.764656261483,0
dae5ea6d-40a1-4dd1-810c-dfebe4e07211,"23560","W. Covell at John Jones","""""",38.561,-121.7708,0
9a27e122-4426-4987-8635-f3b65efecd5c,"23157","W. Covell at Shasta WB","""W. Covell at Shasta""",38.5609143114635,-121.773089127129,0
486df446-f72f-4a9f-a9ee-f9f876a4e3ed,"23529","Shams at Road 32","",38.5337542613598,-121.944785383033,0
b172feb7-3c51-469e-a92b-1f91303f1fa3,"23340","Grant at Morgan (Town and Country Market)","",38.5270326451679,-121.965183583807,0
0a75f084-e672-4338-b71c-62ea2eb34efb,"23342","Grant at Railroad","",38.5246830299308,-121.971670506696,0
ff06d035-7a41-4cef-b33c-df7219ca6c27,"23341","Grant at Apricot","",38.5230093314057,-121.976291953104,0
d58b250e-baf0-490d-9086-a4c57a4cf102,"23344","W. Main at Cody SB","""W. Main at Cody""",38.5203928363557,-121.98160272727,0
1961f8bf-4b4d-4563-8e90-9511cdae7e5e,"23349","Abbey at 4th St.","",38.5201956939814,-121.97610956288,0
51959517-0499-498c-bb4d-2d341ef4e85b,"23348","Abbey at 1st St.","""""",38.5219190133762,-121.971387533628,0
1abc0509-17f3-442b-a73e-fa52c63cf619,"23350","Main at Railroad","",38.5219939776964,-121.968499365409,0
9e575cc5-5dc5-494a-942c-4c13c3989f75,"23543","Main at East EB","""Main at East""",38.5229932381507,-121.965576527451,0
9ee98b72-02fa-4105-b4aa-7989fd9b2444,"23544","Main at Morgan EB","""Main at Morgan""",38.5248640790501,-121.963669476728,0
f5f95718-9a1f-49e3-86f8-d0a229a88887,"23545","E. Main at Blue Oak Park EB","""""",38.5262025014283,-121.961429832067,0
0285572e-8ba2-4dd1-bb58-13302587cfd5,"23608","Kaiser Medical Center","""Kaiser Medical Center - Main Entrance""",38.3889377647005,-121.938321258922,0
73df30c7-24f4-469d-97fd-d87c05e8943a,"23488","Helen Power at Burton (Wal-Mart)","",38.3630249418631,-121.958648381153,0
af9b116f-3dd9-49cb-b231-3c3ead965dbf,"23489","Harbison at nut Tree Pkwy (Safeway)","",38.3619507170886,-121.963326153953,0
d69c529c-97cb-405c-82f0-57697975e73d,"23572","Vacaville Transportation Center NB","""Vacaville Transportation Center""",38.3586381887578,-121.966104922658,0
c5227411-62a8-49b8-a494-97d9b08e8296,"23405","L St. at 13th St.","",38.5767795787322,-121.489243000105,0
3b726b29-3373-49b2-a228-2277e838732f,"23404","L St. at 11th St.","",38.5779382930957,-121.493651210883,0
d4a0bc8c-034e-49bd-8822-57803c417c08,"23391","9th St. at L St.","",38.5781153189013,-121.495943158623,0
a5226982-7e91-4795-92c1-661884f0b277,"23387","5th St. at L St.","",38.5791318761785,-121.501363903365,0
ce4b3cec-d179-4730-947a-67a5959e310f,"23384","L St. at 4th St.","",38.5802087831622,-121.502202093732,0
987f0572-94ab-41af-bcb1-289261460f28,"23492","Terminal A (Airport)","",38.6924283917206,-121.588610803402,0
7c3770ea-a82c-4499-81f0-da661ca870c7,"23493","Terminal B (Airport)","",38.691230785324,-121.590511148602,0
26ba1e30-f2b9-49a3-b072-c68ee264ae98,"23156","W. Covell at Sycamore EB","""""",38.5607882476323,-121.76447118905,0
cf4084d1-195d-4676-9ad9-daaca1382e5c,"23128","Anderson at Hanover SB","",38.5586451625016,-121.758591786539,0
150b7129-94e2-4e44-936e-0072961337af,"23135","Anderson at Villanova SB","""""",38.5560420784975,-121.758611903108,0
0968b0f5-e95d-4edc-875d-796317776716,"23125","Anderson at Amherst SB","",38.5522185893189,-121.758712485952,0
3c02aa3a-627f-458e-b2de-726aab4ace8a,"23131","Anderson at Sunset SB","",38.5490401714468,-121.75873528473,0
9572c396-195a-490f-86d7-15014321138e,"23129","Anderson at Russell SB","",38.5470942286905,-121.758771494554,0
16743764-972e-4623-9c41-cbff528534c8,"23359","Russell at California EB","""Russell at California""",38.5461728720805,-121.753875121586,0
24f4d706-86c6-42b9-8828-7584bf10d489,"23209","Russell at A St. EB","""Russell at A St.""",38.5461661843161,-121.747134730049,0
25414966-8da3-4fb4-af8d-978134290d78,"23000","5th St. at D St. EB","""Downtown Davis""",38.5469520716043,-121.743122145124,0
ddff333c-bae6-4ca8-a153-7f6ea1829236,"23178","F St. at 5th St.","",38.5474670557658,-121.741105123824,0
94acef28-a9de-4430-9eb4-c9ed505d7180,"23180","F St. at 6th St. NB","""F St. at 6th St.""",38.5488269358174,-121.741498067468,0
48695234-6d53-41ea-97d8-c1e957f5b7c2,"23182","F St. at 8th St. NB","""F St. at 8th St.""",38.5514740751902,-121.742074050529,0
68b58737-4881-4406-9219-d4e566901afc,"23177","F St. at 12th St.","",38.555205229235,-121.742764070199,0
9225e2d5-8666-496a-a05d-a1cdc411d5ca,"23002","F St. at 14th St. NB","""""",38.5572128628023,-121.743453397957,0
a866256e-fc99-4a01-b142-d52059d40f22,"23183","F St. at Covell NB","",38.5601096487111,-121.744834735682,0
61ea96c3-5e0c-426e-afd1-83df21fca5c7,"23151","E. Covell at J EB","""""",38.5605307555515,-121.738076909666,0
c0c5082a-3aa8-4990-b7b1-b3269321b3d1,"23154","E. Covell at Poleline EB","""Nugget Market""",38.5622272528545,-121.732137157448,0
66740a03-33df-4ec7-a44b-042ac0568e77,"23159","E. Covell at Wright EB","""""",38.5633564629171,-121.717920107718,0
2a2b3ed7-5c35-4bae-b96d-a134050887fb,"23120","Alhambra at San Miguel","",38.5624176897059,-121.709561002824,0
999ecd60-4ae2-48d7-8cf6-7e664f6e53bd,"23119","Alhambra at Loyola SB","""""",38.5600439345863,-121.708937389191,0
4021b88b-2006-4f22-bec0-e979a62826cd,"23111","Alhambra at 5th St. EB","""""",38.5578941439327,-121.704124164827,0
23221077-aa1d-4c3f-8ccf-a0db63227826,"23113","Alhambra at Arroyo","",38.5579236482336,-121.699980151652,0
bb10a536-8b67-4edb-9424-c1c5e72b4413,"23116","Alhambra at Mace EB","""""",38.5586853956393,-121.696740042969,0
2ea52bc8-e186-4e7d-b400-60799c7876bc,"23202","Mace at 2nd St. SB","",38.5577265058593,-121.694248270646,0
b9758d47-e81e-43d5-b688-9d969d38399f,"23203","Mace at Chiles","",38.5497335225185,-121.694444071915,0
91297974-c64b-4b9d-aac0-cb52274e61e1,"23168","Cowell at Mace EB","""Cowell at Mace""",38.5487618470943,-121.693782871808,0
8e04bea3-683f-4586-ad20-0764a10459fa,"23162","Cowell at El Cemonte EB","""Cowell at El Cemonte""",38.5488430290725,-121.690238367929,0
a54347f9-9a72-43c2-94ce-3c0784c0f474,"23173","El Cemonte at Glide NB","""El Cemonte at Glide""",38.5509981841444,-121.690978657662,0
9cbd517a-650b-4243-b829-fd0fee557cff,"23149","Chiles at Mace","",38.5510431947177,-121.693283179652,0
dec5fb35-da12-47eb-9da8-6ca9e796c903,"23279","W. Capitol at Enterprise EB","""W. Capitol at Enterprise""",38.5753511465706,-121.576127928254,0
d096192e-07ef-43fe-bc54-731b28a516b8,"23321","W. Capitol at Interstate EB","""W. Capitol at Interstate""",38.5767594621634,-121.571731661065,0
72a4a10e-b80f-46f2-ae41-045bc95bca01,"23323","W. Capitol at Roadway EB","""""",38.5781220244242,-121.567072663729,0
b78eec44-42e2-4cc7-9f2d-ca981cb1106e,"23325","W. Capitol at Northport EB","""W. Capitol at Northpoint""",38.5784452306298,-121.562170926462,0
c9e5b791-f9f7-4225-838a-cc531eead91b,"23288","W. Capitol at Pine EB","""W. Capitol at Pine""",38.5788784074115,-121.555215958072,0
4b8c5afb-0a24-4f52-b034-3b9cc69cfcad,"23283","W. Capitol at Harbor EB","",38.5792405056501,-121.54766419814,0
a0b379f4-723d-41b2-9e1b-f272e5392f68,"23281","W. Capitol at Glide EB","",38.5793920504684,-121.545122804947,0
ebbe2bf4-b9df-42d4-9a85-4d68232bd114,"23292","W. Capitol at Walnut EB","",38.5796870934777,-121.539936753508,0
e52fa993-52de-4a3a-8a80-5cac8a13094d,"23291","W. Capitol at Sycamore EB","",38.5798252272502,-121.53752276525,0
239dbcbf-7532-43ac-98b6-a5cd598a7dc6,"23290","W. Capitol at Poplar EB","",38.580076013808,-121.533714028222,0
fd0a847f-681a-4a88-8763-ae02836fc181,"23333","W. Capitol at Westacre EB","",38.5802248764172,-121.530935259517,0
ed6c902d-c5ca-47d1-9468-363937a01bbb,"23578","Garden at W. Capitol SB","",38.5817738522156,-121.518626601614,0
6b90d5c2-03fd-4789-91fc-5e31b2c2d37c,"23576","Tower Bridge Gtwy at Garden EB","",38.581142191955,-121.517669052939,0
f4981c5d-bf60-441e-947c-dbd2625e73de,"23575","Tower Bridge Gtwy at Raley Field EB","",38.581886505001,-121.513954193232,0
c70fe5e0-256e-4cd2-ac67-c2a574f47af2,"23413","Capitol Mall at 3rd St.","",38.5794510590703,-121.504523545773,0
83c2e139-4d52-4890-91d1-89cecb835ceb,"23397","J St. at 6th St.","",38.5816826818777,-121.498699638854,0
025c691b-77f2-4e90-9ef3-1977820785ce,"23398","J St. at 8th St.","",38.5810708310508,-121.496357177675,0
4060506b-e45b-4064-9cc9-4785e5f744e4,"23399","J St. at 9th St.","",38.5806298900026,-121.494650333801,0
ec4fb982-ee2f-4bac-add7-0c25a78c7d9a,"23408","J St. at 10th St.","",38.5802825439145,-121.493345439037,0
f6824953-ed47-47d2-87fa-b10f9a8bc97a,"23409","J St. at 11th St.","",38.5798279094593,-121.491620778538,0
50762d22-b38d-474b-8644-ded6b6e27327,"23410","J St. at 14th St.","",38.5787751423582,-121.487661837796,0
597a62c3-6c49-4326-93df-64775422bdbc,"23415","15th St. at K St.","",38.5777719961269,-121.486896067077,0
8e577340-3175-4565-a630-78131ff7cac0,"23580","F at Anderson SB","",38.5738599940455,-121.747455254045,0
fc6daed4-e2f3-4bd9-8385-51a4b129bb91,"23188","Grande at Solito WB","""Grande at Solito""",38.5693096261805,-121.747420385326,0
00fb068a-b744-4234-87d6-179eee8b5d18,"23216","Grande at Mercedes WB","",38.568410624719,-121.751014604974,0
b6846a94-fc07-44c5-8adf-82ff1a2a007c,"23186","Catalina at Grande WB","""Grande at Catalina""",38.5671169201801,-121.754402175808,0
46fd9937-0c30-4ecf-afdb-b8047b909265,"23146","Catalina at Anderson","",38.5681187253069,-121.757683858733,0
76fcd972-8fe8-4394-8713-3154f48cffe4,"23133","Anderson at Valencia SB","""""",38.5670015851856,-121.758402690792,0
58cacca1-0118-4bb8-b693-18bc44c6c266,"23124","Anderson at Alvarado SB","""""",38.5626067854528,-121.758484498172,0
7f60b94e-d4b1-4612-a0b5-d12870d3ea73,"23191","Lake at W. Covell SB","""Lake at W. Covell""",38.5605066156689,-121.786202447784,0
63485a7d-3b32-4b1f-8ca6-20f69b1e6e28,"23192","Lake at Oyster Bay SB","""Lake at Oyster Bay""",38.5574677999,-121.786603586065,0
30baf919-17f8-4c4c-86e2-d0d0d9970187,"23139","Arlington at Lake EB","""Arlington at Lake""",38.5550738009854,-121.78686495345,0
d6021c60-559d-409c-b9db-f3010057a1a8,"23137","Arlington at Cabot","",38.5537514718623,-121.784468399553,0
663b2385-ecf8-4cba-9562-3621a94d2cf4,"23140","Arlington at Shasta EB","""""",38.5535073908274,-121.781304733831,0
190face6-8589-4c98-9069-caff6a50612c,"23376","Calaveras at Arlington EB","""Calaveras at Arlington""",38.5506240159645,-121.778249697581,0
83c4023a-fbe4-4581-abb4-83fdf37d944f,"23373","Eisenhower at Amador SB","""Eisenhower at Amador""",38.5491541653367,-121.776114659078,0
396f30c2-6b13-4a8e-bba8-187a508352b8,"23122","Alameda at Coolidge EB","""Alameda at Coolidge""",38.5474657146612,-121.773219214274,0
82156760-5da4-4c2a-b49e-da639a58640a,"23143","Arthur at Alameda SB","""Arthur at Alameda""",38.5477406411016,-121.77058126155,0
8d6926d1-6c33-40cf-be17-33d1f7c1c77b,"23385","9th St. at K St.","",38.579253916696,-121.495424151148,0
b33d2a79-50b9-419d-a2a1-118e31bf9424,"23390","9th St. at Capitol Mall","",38.5769217358185,-121.496455460576,0
b8e0ed2f-2894-41d9-b29d-b04ef3bd3ad4,"23392","9th St. at N St.","",38.5758957908091,-121.496885955148,0
0160ac07-9f11-4238-9aef-5da0e191660c,"23393","9th St. at O St.","",38.5749248310879,-121.497308403093,0
33cae7e2-dfb6-4009-b6a0-3d3364875a30,"23394","9th St. at P St.","",38.573868040673,-121.497761696444,0
d61f5dcf-0193-4b10-a661-ae475f8af5ce,"23395","10th St. at N St.","",38.5756865784935,-121.495445608821,0
2b60536b-2866-45fa-8ac0-721a30d68c24,"23417","N St. at 14th St.","",38.5744929954107,-121.490270286219,0
b01e686f-4690-44dc-9ba1-64e665c98ac0,"23416","16th St. at Capitol Ave","",38.5744393512273,-121.486806213069,0
d4356d6f-6203-4b77-ba51-96d44cf33dd3,"23520","Merkley at Westacre WB","",38.5791144418189,-121.528675498287,0
779a7123-8c5c-4ee1-a6dd-db274ecbc5d3,"23336","Westacre at Evergreen SB","""Westacre at Evergreen """,38.5773334549268,-121.53064960424,0
43528ec5-41a1-4022-984d-69708ff85a13,"23339","Westacre at Meadow SB","""Westacre at Meadow""",38.5727964981077,-121.53064960424,0
04407bce-63a9-4208-a0b1-83b483e24416,"23381","Park at Westacre SB","",38.5711348695239,-121.530220450772,0
f9897da8-e069-442b-a2dd-ad41d262db50,"23443","Park at Fallbrook","",38.5693512004227,-121.531835140695,0
746f151c-4a34-4fc2-b1eb-fee05a6475a7,"23444","Park at Hughes SB","",38.56804362345,-121.533040793719,0
3e7c38b5-254a-4e9a-8770-9af71ca0bdb2,"23445","Park at Acorn SB","",38.5669667164663,-121.533972861408,0
5a6eff44-993f-4e74-a2f2-9cb92ca1c455,"23446","Park at 19th St. SB","",38.565732900246,-121.53508731932,0
9b4b408e-c1de-4f9e-b1f5-6145d68b40b7,"23447","Park at Stone SB","",38.5638258495227,-121.536795886564,0
1eedce3d-de02-4464-9dfa-0fb80271bdb9,"23448","Stone at Delaware EB","",38.5630775131629,-121.533956768153,0
b03cb3cd-8be4-4e27-8084-16f039ecd55a,"23378","Stone at Stone Ct.","",38.5630721487446,-121.532450707701,0
4c8fe2c4-a8e0-408a-a967-82aaad6d377b,"23450","Stone at Sam Combs Park","",38.5630815364767,-121.530728729411,0
8c5e906c-5df6-4afc-83cf-abd52148638d,"23451","Gateway at Jefferson EB","",38.5561989877343,-121.532792689371,0
02f07625-18d1-44c6-8f56-382641cb2b61,"23452","North Beach at Gateway SB","",38.5553232464387,-121.529197187972,0
3efd2e4b-c8ae-4825-8b47-f3d349e318ec,"23562","Stonegate at Lake Washington SB","""""",38.551438476238,-121.531620128832,0
e57c898f-7091-439f-8ca7-df301f57555d,"23461","Lake Washington at Stonegate EB","""Lake Washington at Stonegate""",38.5509941608306,-121.531198116016,0
679cf9dc-e9dc-4331-ad57-f5b91c4f0303,"23459","Lake Washington at Highland EB","",38.5493660598615,-121.527829261293,0
6661489d-0a7e-4cec-9068-d68928ecfc88,"23603","Redwood at Linden SB","",38.5446064796809,-121.525493057102,0
f981ea37-adb2-4a65-bcc4-0e8604f81964,"23605","Linden at Mojave SB","",38.5466677574317,-121.531973274468,0
2d1cd38b-bf8f-4e90-9af5-2d2f9e0325fd,"23594","Linden at Jefferson WB","""Lindent at Jefferson WB""",38.5487639039018,-121.537149938175,0
6f5858fe-7c72-43e8-a07b-300c817541d5,"23462","Jefferson at N. Linden SB","",38.5497107237405,-121.540227773203,0
1bccd35f-30c3-4f0e-acdc-357a740302dc,"23356","Jefferson at Higgins SB","""Jefferson at Higgins""",38.5464102653509,-121.543302926022,0
d41b5345-c020-4442-a52d-dd46d6781cbd,"23464","Jefferson at S. Linden SB","",38.5392152392396,-121.549918594952,0
2da4ae52-f7a7-41aa-a237-5d5012108ee2,"23318","Marshall at Rivermont","",38.535076590483,-121.557214203907,0
6f89b577-4d94-4bec-9c68-5046f6c23777,"23524","Marshall at Seymour","""""",38.535092683738,-121.562538389119,0
8cd04afa-68b8-4d8c-b9cf-f4ff5b1499f8,"23590","Southport Pkwy at Marshall","",38.5359107575363,-121.57605404115,0
015afb75-7354-4b74-b122-4a65ab57ebe4,"23591","Southport Pkwy at Oakland Bay","""Southport Pkwy at Oakland Bay (Northbound Farside)""",38.5397664332251,-121.576068793301,0
fbac2a2f-b324-4d04-8f33-768fffbfc6ca,"23592","Southport Pkwy at Promenade","""Southport Pkwy at Promenade (Northbound Nearside)""",38.5449846711746,-121.570112947828,0
831e3847-3727-4d81-ad6f-3bdbe189c92d,"23593","Promenade at Golden Gate","""Promenade at Golden Gate (Southbound Nearside)""",38.5433659579376,-121.567448173013,0
18330579-e2af-4ab9-beef-cb9996cf5e84,"23257","Oakland Bay at Martinique","",38.5383287691074,-121.57262483672,0
40149c8c-87c1-4d94-9c93-8b089d4e5dd5,"23256","Oakland Bay at Golden Gate","",38.5370305798668,-121.565919313784,0
a49d5245-02e6-4b9b-b611-473b5e42369e,"23465","Jefferson at S. Linden NB","",38.5397489988654,-121.549366059862,0
9afd663c-29f8-4630-af9a-bdfe7082fbee,"23523","Jefferson at Higgins NB","""Jefferson at Higgins""",38.5467844335308,-121.542707475585,0
65f0810e-554d-45f2-8da2-bb96cd6c70fb,"23463","Jefferson at N. Linden NB","",38.5499145716378,-121.539795937526,0
e1469232-d874-4114-b872-58456398c3cf,"23606","Linden at Mojave NB","",38.5466248420849,-121.532006802082,0
3f5dd508-8293-48c7-a180-ade133dd8aff,"23604","Redwood at Linden NB","",38.5446869459562,-121.525397838676,0
3e96ece8-c261-4e03-901d-d5e6b324f47a,"23456","Lake Washington at Redwood WB","",38.5471223918869,-121.524058075193,0
14e72518-7680-4320-bafa-b910d8981a60,"23458","Lake Washington at Highland NB","",38.549618187524,-121.528031768085,0
e346d84b-cee0-4aed-ae55-df0fcf80028a,"23460","Lake Washington at Stonegate WB","""Lake Washington at Stonegate""",38.550976726471,-121.530831994464,0
eb284349-a82d-4afb-86d8-873db1e5a8c4,"23453","North Beach at Gateway NB","",38.5553983482956,-121.52915561373,0
a011a417-c320-4ab0-a55a-5ea62b3458e1,"23238","Jefferson at Gateway","",38.5566616688169,-121.532739045187,0
a02f07b5-9fb5-4f6e-9599-36782e4973a1,"23270","Stone at Virginia","",38.5631190874051,-121.530766280339,0
32ec6f67-0902-41fd-92b2-3cade1d639b0,"23449","Stone at Alabama","",38.5631137229868,-121.531835140695,0
86d6a202-be85-4fd5-94c6-9b534b3df46c,"23268","Stone at Delaware WB","",38.5630976297317,-121.534654142538,0
ac6705a5-5f86-4f06-9ee2-4609bbbfec22,"23262","Park at Stone NB","",38.5637480654566,-121.536810638714,0
d5dd714a-e92a-437a-85b7-935aaa015fa3,"23260","Park at 19th St. NB","",38.5658321419854,-121.53495589107,0
28064242-a9ba-49c8-a227-e3d0ea8739fd,"23259","Park at 18th NB","",38.5667105654902,-121.534153910527,0
47922207-7720-40d7-aac9-bafeb286ac0c,"23258","Park at 17th NB","",38.5682756345436,-121.532784642743,0
5866dc40-6b6a-4bb0-a167-b7a75a733a2b,"23261","Park at 16th St. NB","",38.5695228618099,-121.531627269484,0
40882282-35c0-4d68-bbc3-7d35f2d20b2d,"23382","Westacre at Park NB","",38.5714339358469,-121.530177535425,0
46a496af-1464-4bd8-9994-e516cf8308f2,"23338","Westacre at Meadow NB","",38.5736400528932,-121.53059998337,0
6a7b616d-c4bc-4d46-8ceb-197b6981c2c2,"23337","Westacre at Evergreen NB","""Westacre at Evergreen (Willow) NB""",38.5776875065379,-121.530601324475,0
c120c045-8a60-4907-bd01-03e5a0f10905,"23334","Westacre at W. Capitol","",38.5797179388832,-121.53059998337,0
8a00c8d1-258d-4ee4-9b38-409842fe42d6,"23499","College at Marshall NB","""College at Marshall""",38.6678834955623,-121.774788306641,0
08da092f-3e53-4a37-b598-1fc81cbb8b97,"23582","Cross at Dingle WB","",38.6720516486199,-121.776484803944,0
aee505f6-4185-4fa3-87dd-0e29f21716c4,"23504","Cross at Cleveland WB","""""",38.6720731062933,-121.779230045034,0
28d3cc14-8024-4ba7-b9bd-2f0ea6bdebb8,"23501","West at Park NB","",38.6735992833137,-121.78405533934,0
cf79e1da-0239-4c62-ba7f-f10a42822ebe,"23361","E. Main at Industrial EB","""""",38.6772537933143,-121.751080259745,0
dee4ea21-9796-4971-993e-9de8ef2156d7,"23083","Pioneer at Spring Lake SB","""Pioneer at Spring Lake""",38.6741491361945,-121.746496364265,0
676b35c9-aa25-403d-b7af-b7a736798199,"23098","Pioneer at E. Gum SB","""Pioneer at Gum""",38.6696001094341,-121.742218240632,0
e9f93150-972b-4489-95f5-6efc51e0f28c,"23070","E. Gum at Walker EB","""""",38.6692353289864,-121.73824186553,0
3f1bd81e-35f8-4db2-84c4-5f881169bee3,"23050","Farnham at Maxwell SB","""""",38.6675897936576,-121.73289488154,0
6cb83a1f-be5a-4bee-a0a0-7d2bb878bde5,"23048","Farnham at Howard SB","""""",38.6656639674702,-121.731595351195,0
1bd60e6c-7c4c-4e01-a77f-b2269834248e,"23021","Branigan at Guerreo","""Branigan at Ogden""",38.6646192469966,-121.734784497904,0
d171535a-d690-4a1e-bf58-d74b3b5aa13b,"23610","E. Gibson at Rd 102","""E. Gibson at Rd 102 - Yolo County Justice Center""",38.6626464821485,-121.731706662876,0
9016d572-a2b3-449e-98ae-095c5e99afb7,"23303","E. Gibson at Gibson Plaza","""Bel Air""",38.6628060735944,-121.739827051152,0
e2ab8d74-4a05-4d86-a55b-186aac3b3694,"23103","E. Gibson at Pioneer WB","""""",38.6628288723724,-121.742691650551,0
a47e2cd7-a727-43f7-a7dd-16ee93bb0334,"23053","E. Gibson at Bourne WB","""""",38.6627569168143,-121.747435505399,0
a3e8b170-f4ea-428d-b7e0-9120183cbdd5,"23574","Tower Bridge Gtwy at Raley Field WB","",38.5815887797826,-121.511925101991,0
9ca4f9d3-9ff9-43f3-8948-7df0204460c6,"23577","Garden at W. Capitol NB","",38.5819039393606,-121.51846164575,0
57151571-5c8c-4dcb-9d0f-5370aba1151a,"23335","W. Capitol at Westacre WB","",38.5804327476283,-121.530802490163,0
d94dd4c9-ea3e-487a-b9f1-45947915cb2a,"23289","W. Capitol at Poplar WB","",38.5801980543255,-121.534689011257,0
5c77ca9d-86cb-45e6-a4e2-f57f23cc35b6,"23277","W. Capitol at Cedar WB","",38.5798708248061,-121.539416404928,0
a7c92348-2789-420e-a115-88d324de5e92,"23286","W. Capitol at Pecan WB","",38.5796978223144,-121.542085203057,0
83776e4b-ea29-4c07-b3f0-734bc0593910,"23280","W. Capitol at Glide WB","",38.5795033621492,-121.545648517945,0
01089ac3-39d8-46ea-ad47-a95ad616bdb8,"23282","W. Capitol at Harbor WB","",38.5793920504684,-121.547373178445,0
ff74f881-15ab-4892-ac75-d56b2b0d183d,"23287","W. Capitol at Pine WB","""W. Capitol at Pine""",38.5788931595619,-121.555658522586,0
7048a932-dc3a-470d-92cc-3a6eae89929a,"23326","W. Capitol at Northport WB","""W. Capitol at Northpoint""",38.5784881459766,-121.561909411067,0
f10845fd-3aec-45e4-a588-9e3f6e307919,"23324","W. Capitol at Roadway WB","""W. Capitol at Roadway""",38.5781957851765,-121.566714588804,0
1ab203f2-d857-4d03-b64e-af718e6dfcbe,"23322","W. Capitol at Interstate Co. WB","""W. Capitol at Interstate Co.""",38.5769633100607,-121.57123008795,0
bed29dc5-06f2-4845-ba97-7d1a615dd4a9,"23148","Chiles at Mace","",38.5508211583389,-121.693631362535,0
3ea9ca32-352b-4c45-89e6-ec1a60b3d895,"23174","El Cemonte at Glide SB","""El Cemonte at Glide""",38.5509619743205,-121.690981339871,0
c430a81e-107c-4a16-922a-1ad22071ae24,"23161","Cowell at El Cemonte WB","""Cowell at El Cemonte""",38.5489784806358,-121.689913820619,0
f8d3cabd-c01a-4502-9774-cf06570a6bb0,"23167","Cowell at Mace WB","""Cowell at Mace""",38.5487531750651,-121.693077486341,0
9479a343-b253-4cc3-9901-296592247e87,"23561","Mace at 2nd St. NB","",38.5564135644682,-121.694126230128,0
b17b9b04-c802-4b94-b1de-59ff8dead2e9,"23115","Alhambra at Mace WB","""""",38.5589522754522,-121.695401620591,0
4aa46b4e-c26d-4825-b1ea-98a16df84667,"23112","Alhambra at Atlantis","",38.5580564175878,-121.69899712199,0
36e66a51-446f-491d-94b8-c5819e615f50,"23114","Alhambra at Carcia","",38.5580071104649,-121.702861405401,0
1e9edccb-69c1-4da8-a2e4-d38585b6f27b,"23118","Alhambra at 5th St. WB","""""",38.5581570004318,-121.705630225279,0
0a60510f-c1c3-408d-a3e3-ac8f3a4291f9,"23215","Alhambra at Loyola NB","""""",38.560408715034,-121.70897225791,0
ed921e1a-c9ee-453d-baa0-3a9b238e09a0,"23117","Alhambra at Covell","",38.5635978617428,-121.709402752483,0
41fcb34c-f200-4d92-b174-ad59fc383b88,"23158","E. Covell at Wright WB","""Covell at Wright WB""",38.5634530224474,-121.718488736063,0
ec61eac5-bd39-471c-98f0-d226bfc4d509,"23153","E. Covell at Poleline WB","""""",38.5625920333023,-121.730016871096,0
682a77fd-0803-4ee8-8bf5-e282195ae272,"23152","E. Covell at J WB","""""",38.5606890058928,-121.738409503604,0
7d44a2a3-b898-45b3-a2b7-fcd7519d0e0c,"23184","F St. at Covell SB","",38.5601606106854,-121.744873627715,0
ccd8ceb1-4ad8-4650-9d55-8ab9ebb248c9,"23372","F St. at 14th St. SB","""""",38.5572289560574,-121.74350704214,0
f9d8a3c4-4eee-46fd-9d41-33afc0a4b1aa,"23176","F St. at 11th St. ","""F St. at 12th St.""",38.5537997516274,-121.742509260327,0
06e3f6e1-dae3-4350-bb08-f466d90e1058,"23181","F St. at 8th St. SB","""F St. at 8th St.""",38.5515721769078,-121.742144479879,0
9bb520ce-0903-48ad-8f13-043d2afafe4a,"23179","F St. at 6th St. SB","""F St. at 6th St.""",38.5483924179311,-121.741418942298,0
d4d61d1f-4be1-426a-a60b-914f747277cd,"23110","5th St. at D St. WB","""Downtown Davis""",38.5469426838721,-121.743363543949,0
8697870b-b130-492a-ba14-1993702bf19f,"23208","Russell at A St.WB","""Russell at A St.""",38.5462868837289,-121.747161552141,0
a65242ca-d845-4715-983a-be5f5e6df77b,"23304","East at Gum","",38.6696698468727,-121.765533343883,0
8901d53b-7e4a-4aa6-bb88-de691e1b483c,"23569","East at Cross NB","""""",38.6721857590786,-121.765515909524,0
69a10d88-d80f-461e-8ea3-eaa2df27bbbb,"23396","J St. at 4th St.","",38.582347844979,-121.50113725669,0
cafb975a-0045-4b32-9273-789bdeac4390,"23406","H St. at 11th St.","",38.5820407320285,-121.490863054446,0
d764a825-1811-4ddb-8962-28cd9c68f272,"23407","H St. at 14th St.","",38.5809155452797,-121.486635892787,0
85cd4365-905e-4a7c-8d67-d30e43e7ab40,"23414","15th St. at N St.","",38.5742864653043,-121.488395422005,0
af986c0c-8313-43af-bfc1-c306f73fc907,"23418","P St. at 14th St.","",38.5720897359902,-121.490227370872,0
c1eee3da-0431-47db-9260-92f49c32fede,"23419","P St. at 13th St.","",38.5728139324673,-121.493010162891,0
68db9ee0-33f9-4fc7-8ce0-7632449eb31b,"23420","P St. at 11th St.","",38.5732685669224,-121.494746893331,0
0a384143-babd-4323-b81b-f00562577b74,"23001","Cowell at Sunrise WB","""""",38.5480303196925,-121.696910363252,0
9399acf9-fce4-4836-9877-473be60ec707,"23163","Cowell at Ensenada WB","""""",38.5479565589402,-121.70018131734,0
26115f07-1416-4cf2-abda-d0fbee8a4e22,"23164","Cowell at La Vida WB","""""",38.54815236021,-121.702981543719,0
265095b9-8939-4565-820c-0e887fdc5c1b,"23169","Cowell at Ohlone WB","""""",38.5476279883163,-121.70661861936,0
4300d615-8a7f-483c-8634-dd9fb83c255c,"23528","Drummond at Cowell SB","",38.5467307893474,-121.713353646597,0
0f5dbace-19d5-4b2a-809a-ac6e5ec53e26,"23172","Drummond at Lillard SB","""""",38.5437065985028,-121.713413996304,0
ed955847-8638-4bd3-981a-8c6268b7ec02,"23195","Lillard at Danbury WB","""Lillard at Danbury (Evans)""",38.5417445624915,-121.717434627857,0
0cfde061-c578-4f6c-a28c-56020f397df7,"23218","Lillard at Farragut WB","""Lillard at Farragut""",38.5412899280363,-121.720790071535,0
44a3108e-f035-4499-b75e-0e41496d77ae,"23366","Cowell at Valdora WB","""""",38.5400078320508,-121.724830819656,0
1585158c-b3db-4abe-88c3-31c78d03576e,"23367","Cowell at Drew WB","""""",38.5399099314159,-121.727445973602,0
1774c893-51ab-4c7c-a4d1-eccfe4e13c2c,"23369","Cowell at Research Park WB","""""",38.5399407768214,-121.731813951243,0
711ef82b-b99f-4929-88d2-eea7e40d52b2,"23106","1st St. at D St. WB","",38.5417110348768,-121.742088153487,0
b8e8fd95-5af0-49cb-bee3-06f2cb864b89,"23144","B at 4th NB","""Central Park""",38.5449913766975,-121.745006397069,0
e34f1446-730c-4da3-bd05-ac7a5b7f9e74,"23386","3rd St. at Capitol Mall SB","",38.5791117596097,-121.50438809421,0
42544160-0a33-43c6-acab-7c14d3048af6,"23535","3rd St. at O St.","",38.5775399850333,-121.505076080863,0
3dba2d0c-a4b0-4d58-a2a0-43840f2eda6e,"23241","Jefferson at Webster SB","""Jefferson at Webster""",38.5748175427209,-121.524394692444,0
853b72f7-9ae5-4ce4-bbc4-1242eb347ea9,"23442","15th St. at Alabama WB","",38.5711777848707,-121.52512425334,0
9a1f62d0-22ed-40ff-81a4-4d6b7c8678db,"23596","Stonegate at Spokane SB","",38.549166235278,-121.53282755809,0
4e612bc0-77de-439f-8a41-53f388bb4381,"23599","Stonegate at Linden SB","",38.5477647809842,-121.533671112875,0
e425877f-c5e5-4ab2-b9e4-44c97b3fea7a,"23317","Linden at Touchstone EB","""Linden at Touchstone""",38.550661566893,-121.540375294708,0
666cae1b-848a-4888-a268-2e8b2ee5f838,"23250","Linden at Independence WB","",38.5512275130288,-121.545387002551,0
4e060282-e0f2-4c7f-b064-19cfb092dd37,"23252","Linden at Summerfield WB","""Linden at Summerfield""",38.5509123534508,-121.552614215172,0
682c9987-d0b1-4ffe-93d3-8ecb3d85cbcb,"23248","Linden at Higgins SB","""Linden at Higgins""",38.5466650585446,-121.555567955861,0
5e89ff12-890c-441a-bf00-aa78f3c67ad4,"23244","Linden at Brenda EB","",38.5426967467485,-121.55592003798,0
caec3eb7-36fd-42c6-b164-bf64e398f19b,"23247","Linden at Canvasback EB","""Linden at Canvasback""",38.5409124635278,-121.553229812195,0
1559c2af-702f-484e-a2e9-a7b4a60b14b5,"23319","Golden Gate at Twitchell NB","",38.5407534862014,-121.562883052998,0
fbb8a0cd-0303-4026-8b99-0ce3f6c4795e,"23229","Golden Gate at Tortola","",38.5402634998991,-121.572193156649,0
299ad37f-17ad-4dd5-8f0f-db13e28bbe3b,"23467","Southport Pkwy at Oakland Bay SB","",38.5383046292248,-121.576225702538,0
b5b94806-44fe-45bb-876e-88956206fcda,"23468","Southport Pkwy at Britton SB","",38.5294680910986,-121.576210950387,0
e7bda950-a9a0-4b51-bb41-4e8e8e430724,"23469","Southport Pkwy at Silverwood","",38.5245341673216,-121.575490777224,0
ef9846be-c245-4d8f-ae2c-4b6d8ee0d395,"23470","Otis at Bevan","",38.5240111365325,-121.570363734386,0
2105bec7-dfab-4601-8289-68b2c4f8c6af,"23471","Otis at New Hogan","",38.5280062870983,-121.567910854096,0
6bba7313-eb59-44b9-a8a5-805c07356b49,"23092","Matmor at E. Gibson NB","""Matmor at E. Gibson""",38.6633116700239,-121.756446019199,0
204e61ad-64ba-4251-ad7d-6ea7a826159e,"23095","Matmor at Gum NB","""Matmor at Gum""",38.6679653029421,-121.756235465779,0
1ad86982-4f2d-45ae-9075-cd3c12037915,"23089","Matmor at Oak NB","""Matmor at Oak""",38.6736649974385,-121.756161705027,0
c904d903-5f22-4c39-8755-893331b2310d,"23091","Matmor at E. Main NB","""Matmor at E. Main""",38.6759918138976,-121.756140247353,0
5b375ce6-68fd-48d8-9d4c-03e1ae0b8817,"23076","Main at 5th WB","",38.6774321602244,-121.767983541964,0
1314053e-5c3d-4c0a-9d69-86a013313d7a,"23078","Main at Cleveland WB","""Main at Cleveland""",38.6775126264997,-121.780131267317,0
592aeff0-1127-4bc7-8fac-c8dd89800909,"23080","W. Main at Community WB","""W. Main at Community""",38.6776011394025,-121.791424709047,0
29834761-9111-48d2-8f6e-5eb023f95a14,"23011","Ashley at W. Lincoln SB","""""",38.6767280803161,-121.797903585309,0
6474131c-a7dc-468a-be55-e5942eced8a5,"23354","Yolo at Grafton (Esparto) NB","",38.6927730555995,-122.0167222331,0
3606284e-a97a-4bca-888b-c08e294ab780,"23357","Hwy 16 at Rd 85 (Capay) WB","",38.707215410901,-122.047642740467,0
85c2cac8-cdc0-4f87-86d3-4927e363eb4a,"23006","Hutchison at UC Davis Silo WB","",38.5391052686635,-121.753649816135,0
c54d30f9-dd71-496d-a2f6-3315d86eebb1,"23007","Hutchison at Bioletti WB","",38.5391763472066,-121.756816164065,0
fc2cef05-a17b-420b-abcb-bd08c76e501f,"23601","Hutchison Dr. at Health Sciences Dr. WB","",38.5370909295732,-121.764866814903,0
0d2ccd18-9882-4455-9286-36f42c53df0f,"23589","Farmers Central at Miekle EB","",38.654948541817,-121.737527056785,0
999464b8-a119-4585-9644-975033511202,"23587","E. Heritage at Miekle EB","",38.647996255636,-121.73513720841,0
24f5fe79-4bbc-4372-8b35-639ea08a0edc,"23207","Poleline at Chestnut SB","""Poleline at Chestnut""",38.5594868299758,-121.730197959558,0
8d88447a-20e6-4b4b-b840-0951f7c152fc,"23199","Loyola at Regis West","""Loyola at Regis""",38.5575628910996,-121.726515247018,0
b0930e9c-3462-40d1-a59e-932fc12b7899,"23197","Loyola at Nutmeg EB","""Loyola at Nutmeg""",38.5576742027804,-121.722698463362,0
2f4ddb4d-9de0-49a0-b609-38dbc7ae4c11,"23214","Tulip at Cascade NB","""Tulip at Cascade (Loyola)""",38.5581020151438,-121.717285765248,0
cae98b04-944e-4b91-ac19-0d0b8ee65125,"23213","Tulip at Blackburn","",38.5604972279368,-121.717529846283,0
53bff7a1-44dc-4047-bc99-63f3f616e634,"23211","Temple at Tulip EB","""Temple at Tulip""",38.5618611313022,-121.71723077996,0
15309a9f-105f-4f7c-8eda-e065c46ae721,"23205","Monarch at Covell NB","""Monarch at Covell""",38.5634691157024,-121.714537841948,0
8e2b736d-f7df-47bc-ab64-07d0760bc45b,"23320","Harbor at W. Capitol NB","",38.5804957795439,-121.548602971351,0
3f1fc693-9ebb-42dd-98c6-166f58ca56f6,"23233","Harbor at Duluth NB","",38.5848369350932,-121.54714384956,0
1f83be2e-d3e7-4585-a30f-2b93713d7249,"23565","Riverpoint at Harbor WB","",38.589222347094,-121.546534988078,0
8092c7d3-cc4f-4eb9-bd27-0fa03f7a1e22,"23567","Riverpoint at Wal-Mart","",38.5891110354132,-121.549914571638,0
4237f9de-5740-440c-b0c0-b84b49bf2160,"23263","Reed at I-80 WB","",38.5920173340207,-121.551229898543,0
23697ebc-f3e9-43f5-9505-93f5950be903,"23329","Stillwater at Reed","",38.5914863665192,-121.555767507873,0
3783592a-92b8-49c0-928b-c1d8c1a68d84,"23328","Stillwater at Citi Group","",38.5885692291599,-121.558004114509,0
5ded3b02-6477-4065-8e93-c3aaecd75e82,"23579","Riverside at Embarcadero WB","",38.5858025303961,-121.56297424811,0
458abd02-9aac-489d-803e-0809735ab66e,"23330","Riverside at State Library WB","""Riverside at State Library""",38.5865964643119,-121.566329691787,0
84e51ce4-7674-4c28-ba42-5ae212e1fb78,"23267","Riverside at Cummins Co.","",38.5895683520775,-121.566233132257,0
5a072a5f-1c75-4803-a9b4-6c8b7426cbf6,"23478","Riverside at Social Security","",38.590827649285,-121.564031038525,0
d7a480ec-be9e-4850-98b8-e85ed3ffebbf,"23265","Reed at Stillwater","",38.5922720189257,-121.557030472578,0
0b359d37-be9d-4d14-8ddc-2c4a2e398fa9,"23564","Harbor at Riverpoint","""""",38.5885960512516,-121.546109857923,0
bb536872-a3de-48ec-a1bd-2b02166b8b66,"23232","Harbor at Duluth SB","",38.5845164110968,-121.547316852052,0
888409ca-1d1f-4c5f-8a30-4e463a52d890,"23230","Harbor at W. Capitol SB","",38.5809852827182,-121.548493000775,0
e9469bbe-6841-4fdf-939d-6f1c5381d1c5,"23546","Nut Tree Rd. at Nut Tree Pkwy","",38.3663441757169,-121.954811480928,0
6ded70fd-8761-4794-ba3f-99fbb65536a8,"23607","SCC Vacaville Center","""Solano Community College - Vacaville Center""",38.393580668782,-121.941722300155,0
8692d550-28e6-4ad9-a2f6-f68764f78178,"23150","W. Covell at Denali","",38.5609639323332,-121.778390513563,0
4ac34301-7a41-4e1a-b993-9ebd93c9a408,"23219","W. Covell at Shasta EB","""W. Covell at Shasta""",38.5608311629791,-121.771959917066,0
ab8af1c7-28f2-496c-98d2-02933fb62d77,"23527","Arthur at Alameda NB","",38.5469601182318,-121.770553098354,0
60b8f6bd-e703-4b4c-8217-f6dd9b9df33d,"23121","Alameda at Coolidge WB","""Alameda at Coolidge""",38.5474938778576,-121.773323820431,0
5d105aba-2489-4e22-80fc-e46c8c641cc8,"23374","Eisenhower at Amador NB","""Eisenhower at Amador""",38.5483588903164,-121.775359617195,0
e3910932-d146-43ef-a715-9b222fbd1e1b,"23375","Calaveras at Arlington WB","""Calaveras at Arlington""",38.550615969337,-121.778935002025,0
70ec24e2-3e66-4fc1-8816-3dc2165b5545,"23141","Arlington at Shasta WB","""""",38.553716603143,-121.781972603915,0
1af5bc75-8326-44ca-bade-5c08f8f507eb,"23138","Arlington at Lake WB","""Arlington at Lake""",38.5551998648167,-121.787247168258,0
cb24de24-41b7-45f0-9abd-86d27f54d34b,"23189","Lake at Oyster Bay NB","""Lake at Arlington""",38.5573509965748,-121.786620872415,0
f127bf1a-8e3d-4231-98dc-57cbf0f98f03,"23190","Lake at W. Covell NB","""Lake at W. Covell""",38.5602893567258,-121.786170261274,0
f65c72dd-07f2-4479-a07c-7b4791777073,"23123","Anderson at Alvarado NB","""""",38.5628468431739,-121.758445606139,0
9a99a001-4cfd-462f-bae6-7e65ab17648f,"23134","Anderson at Valencia NB","""""",38.5675568024848,-121.758353069923,0
a6ac3575-a399-4eb9-9e10-8d991d914bc9,"23185","Grande at Catalina EB","""Grande at Catalina""",38.5671437422719,-121.754121884949,0
9ac32bcb-67b7-4fe1-801a-0587e55d87fa,"23187","Grande at Solito EB","""Grande at Solito""",38.5689555745694,-121.749181255649,0
8807df56-a393-48af-a9ed-a99856188e7d,"23581","F at Anderson NB","",38.5732967301188,-121.747240677311,0
5623b296-08e7-407a-a6c2-e9c861c4f50d,"23067","E. Gum at East EB","""E. Gum at East""",38.6683072846119,-121.763341978988,0
a8870922-2b89-4c37-8fed-8514c2e63875,"23068","E. Gum at Deborah EB","""Gum at Deborah""",38.6682657103697,-121.759008870066,0
27fb7f1a-58ec-4842-9642-53f1ad5a75eb,"23101","West at North NB","""West at North""",38.680118392713,-121.784004377365,0
34b591e9-836d-42cd-9e4a-d311256dee04,"23100","West at Clover NB","""West at Clover""",38.6827751209006,-121.783968167542,0
3cc5580c-2da9-4888-8304-9196782142cc,"23019","W. Beamer at West WB","""W. Beamer at West""",38.6847948244092,-121.78442950752,0
d0386641-03d8-40a3-8a83-d843cce19d6f,"23013","W. Beamer at Mariposa WB","""W. Beamer at Mariposa""",38.6847867777817,-121.789902555341,0
0edc2c80-d4c4-4e86-9521-c2b317f79878,"23022","Cottonwood at W Beamer SB","""Peterson Clinic""",38.6845668366293,-121.793193625998,0
4c272336-f0d6-4b50-b09b-2d9e81ac285f,"23024","Cottonwood at Buckeye SB","""""",38.6831653823355,-121.79318826158,0
ba410109-8b7a-40a1-8b73-bb0a4b7824f0,"23026","Cottonwood at Riverside SB","""Cottonwood at Riverside""",38.6802913952047,-121.793239223554,0
95bc8ff1-f90b-4cf4-adc0-f6aec0fc95f5,"23295","W. Court at Cottonwood WB","""W. Court at Cottonwood""",38.678951631722,-121.793860154978,0
6f9e4c38-4ea8-4e69-b600-0109bb014456,"23296","W. Court at Ashley","",38.6789650427678,-121.797428834285,0
e548a8f7-834f-43e6-be28-9c63ba479d59,"23074","W. Lincoln at Ashley EB","""W. Lincoln at Ashley""",38.675860385648,-121.797082829302,0
08c85901-6341-4379-946b-1a3639e12659,"23032","Cottonwood at W. Lincoln SB","""""",38.6756766543196,-121.793326395352,0
39fb56b6-d678-4dfd-abaa-d5ab23b3db99,"23028","Cottonwood at W. Cross SB","""""",38.6719349725208,-121.793358581862,0
0a8df500-9f14-4e3c-bef4-015136a3843b,"23036","Cottonwood at W. Southwood SB","""""",38.6689751546964,-121.793367969594,0
8ceb65b3-a0a2-4d44-a958-e89f31c1fc28,"23030","Cottonwood at W. Gibson SB","""""",38.6642128923066,-121.793397473895,0
9759407b-cc13-489a-bee9-0dbd8cb3221d,"23052","W. Gibson at Amherst EB","""W. Gibson at Amherst""",38.663028696956,-121.790897654945,0
c4043369-c5ae-4815-8c60-7a29993a4ac4,"23059","W. Gibson at Midway EB","""W. Gibson at Midway""",38.6629871227138,-121.786763029502,0
b0b8b568-0280-441a-92e7-2264d6b5807e,"23065","Gibson at West","",38.662960300622,-121.78433026578,0
5b25e601-61c0-423c-97a9-6c6c87bdcdcd,"23060","Gibson at Spruce","",38.6629281141119,-121.778405265713,0
121f4c2d-fdd9-466f-9658-8712b1ae050b,"23054","Gibson at College EB","",38.6629053153339,-121.775273786502,0
00511c65-7567-4b85-8922-697c241fcd6c,"23487","Road 88 at Campers Inn","""""",38.9035236181929,-121.989595710611,0
116cafbc-63db-4767-96a9-f01032bcd2d7,"23551","Road 99W at Main Street","""Dunnigan Post Office""",38.8858599296725,-121.97092619365,0
6f68b1d1-c75f-4a44-9859-cabde4a32c01,"23479","Country Fair Estates at Road 99W","",38.8646396317863,-121.953478422968,0
d30f7dce-8e62-4e21-8f3e-75529d6d57ea,"23484","Road 99W at Road 13","""Zamora Mini Mart""",38.7947385784828,-121.877748929128,0
ed85899d-c83c-4ed9-9b05-6f4ab1718eb0,"23553","Washington at Yolo Post Office","""Washington at 2nd""",38.7339543541643,-121.807070035164,0
c2e745bd-0bc1-410f-b92c-21d8d5915765,"23246","Linden at Canvasback WB","",38.540659950057,-121.552509560388,0
74242b59-3541-4258-97c2-0f39b6aef3c2,"23245","Linden at Brenda WB","""Linden at Brenda""",38.5430615271963,-121.555985752105,0
19bdeb3f-bc4e-4716-b754-f2b50ac19b29,"23249","Linden at Higgins NB","",38.5464022477915,-121.555465496948,0
3777f3b5-3e9e-4fb4-842d-5579c49d07ed,"23253","Linden at Summerfield EB","""Linden at Summerfield""",38.5507554442141,-121.552527043374,0
a5d4ba12-51c4-4e5a-860f-e911ad22c590,"23251","Linden at Independence EB","""Linden at Independence""",38.5509338111242,-121.546172889839,0
454f3a6a-20ca-409b-894f-0618c0aef1a9,"23316","Linden at Touchstone WB","""Linden at Touchstone""",38.5510531694325,-121.541599723196,0
a9ff8575-9f71-430d-9acc-15ef983c5f28,"23598","Stonegate at Linden NB","",38.5478573172007,-121.533565165613,0
f322cdff-0f12-4f49-bb2b-66eac5f99e68,"23597","Stonegate at Lake Washington NB","",38.5503732294067,-121.531867327205,0
0867ef4d-5833-483a-9d18-8a5cd928941c,"23220","15th St. at Alabama EB","",38.5711174351643,-121.525329442342,0
d6675cae-f1b4-41b1-b40c-9270b7265579,"23237","Jefferson at 15th St.","",38.5717316610653,-121.523353995285,0
904cec06-5bb1-4077-8d2e-6d66365f17ae,"23242","Jefferson at Webster NB","""Jefferson at Webster""",38.5744903132016,-121.524241806522,0
9d61771c-585e-49ca-b6a9-6449260a903d,"23389","5th St. at P St.","",38.5756181821596,-121.502896785909,0
2a8f1d79-e70b-44d6-9516-5f83354faa25,"23531","5th St. at O St.","",38.5766608328939,-121.502445469607,0
5ec6edef-adcc-413c-ba67-597f3b6530a5,"23388","5th St. at N St.","",38.5780952023325,-121.501810491193,0
958fd8c0-a864-4f30-aa95-281e2be5aa80,"23145","B at 4th SB","""""",38.5450597730315,-121.745064064566,0
e7cea228-4bdb-4780-add9-0b5c028c04b2,"23107","1st St. at C St. EB","",38.5415930176731,-121.74261520759,0
4c9263f7-5068-4939-89dd-8609ed91624b,"23370","Cowell at Research Park EB","""""",38.5399515056581,-121.730924798901,0
d68dc23b-ca50-423e-a7e8-19bfe54dfe0b,"23368","Cowell at Drew EB","""""",38.5398482406049,-121.726764692471,0
b9dfa6a5-c51b-4810-b3f6-1d98fca9e4c9,"23365","Cowell at Valdora EB","""""",38.5402237498894,-121.724141491898,0
4030a5d4-fbfd-4c24-aec4-4ac8bcbdb169,"23193","Lillard at Cowell EB","""Lillard at Cowell""",38.5412483537941,-121.722152633795,0
5e7902e5-800c-4f6c-bdd1-1842e7351ae0,"23194","Lillard at Danbury EB","",38.5426377381466,-121.716199470532,0
e7815636-20d2-40c4-87f7-19d4b7cd0b3f,"23171","Drummond at Lillard NB","""""",38.543595286822,-121.713381809794,0
848e41af-0c9a-4a73-9fe9-7d62f2e7c8a3,"23160","Cowell at Drummond EB","""""",38.5474737612888,-121.712531549485,0
12ffd082-df72-4bc2-a360-e83a2b76dae3,"23170","Cowell at Ohlone EB","""""",38.5474509625108,-121.705844802013,0
dee10c8c-03ef-4b0a-aba7-e9db5f8e7c41,"23165","Cowell at La Vida EB","""""",38.5481617479421,-121.702776354717,0
ae2dd21e-7269-4cb7-9f91-fb9c6edc1a02,"23175","Ensenada at Chiles","",38.5503464073149,-121.700656068364,0
82273516-af43-4eb3-a993-4c4e9258117b,"23204","Monarch at Campbell SB","""Monarch at Campbell""",38.5626885928326,-121.71446810451,0
77d46988-015b-463c-966f-6afe9795218c,"23210","Temple at Balsam WB","""Temple at Balsam (Myrtle)""",38.5619335509499,-121.716778827714,0
bcaacac7-37a3-4d0c-9543-478daf8108dc,"23212","Tulip at Blackburn SB","""Tulip at Blackburn""",38.5600063836578,-121.717511070818,0
59c4b0dd-eec6-4769-b230-64396621b0ce,"23217","Loyola at Tulip","",38.557821724285,-121.717724306448,0
6ccc9e9f-2427-4349-8d79-eaf561fafc2e,"23200","Loyola at Regis East","""Loyola at Regis""",38.5578004391713,-121.72064220924,0
838b751e-6062-4d33-8fec-0f8a106dda7d,"23196","Loyola at Nutmeg WB","",38.5577023659767,-121.722749425337,0
e590f95d-ce94-4c00-bf1b-9143692dd3a9,"23198","Loyola at Poleline","",38.5575408949739,-121.727198635323,0
ecfc46aa-9228-46de-868f-71085d15f515,"23371","Poleline at Chestnut NB","""Poleline at Chestnut""",38.5597824191918,-121.730487598806,0
b1b6e630-0101-476c-b701-e84ea807ef7e,"23206","Poleline at Covell","",38.5620193816435,-121.731109871334,0
1359eefe-b1bf-4484-bb49-d2ce91b0524e,"23034","Cottonwood at W. Main SB","""""",38.6779189811897,-121.793271410064,0
8652c250-01e8-4807-b8d8-88450ef2226f,"23536","Harbor at Evergeen","",38.5772462831286,-121.548733058496,0
246b2607-e04c-4787-8b2a-95f60b092048,"23231","Harbor at Beacon","",38.5717222733332,-121.548652592221,0
24af78d9-d8a7-4bb5-931c-56e3a38097b3,"23269","Industrial at Halyard","""Industrial at Halyard (Harbor)""",38.5699345809182,-121.550225707902,0
d0edaf20-ed8d-4f83-9a93-0f35857366d2,"23235","Industrial at Beacon","",38.5729131742068,-121.554844472101,0
970589b2-377f-40a5-b27e-4792cce104f9,"23377","Industrial at Parkway","",38.57368296824,-121.563961301086,0
3fba6ece-86e8-4e58-a23e-a16e75bc643c,"23313","Parkway at Parkway","",38.5716257138029,-121.565083805626,0
97bff884-4bdd-42a6-898d-0edfe72a130b,"23312","Parkway at Seaport","",38.5682930689033,-121.56424025084,0
70a72dbf-2b87-4559-9d46-7b3ddc08d4d0,"23311","Seaport at Channel","""Seaport at Postal Facility""",38.5662666598717,-121.566780302929,0
81ce220f-61fe-4d82-96bb-3b7b10d3f651,"23310","Seaport at Enterprise","""Seaport at J C Produce""",38.5645339527448,-121.572811250258,0
a7ef1f8d-83d0-4833-ab33-b830b9c83496,"23309","Enterprise at Seaport","",38.5650744178936,-121.578336601158,0
c863beaa-9f59-49fc-8972-42f6c4997c11,"23236","Enterprise at Industrial","",38.5704857749036,-121.578437184002,0
06022d6e-8bcc-4daa-80c8-f1affebe9cdf,"23035","Cottonwood at W. Main NB","""""",38.6779484854906,-121.793227153613,0
cd371fba-ce49-42a3-b3ab-5a873f8c1f3c,"23514","Sacramento at Jefferson WB","""Sacramento at Jefferson""",38.5896810048629,-121.527970077274,0
1974b3c3-2ada-4e9e-95ce-69849a3b5e2e,"23435","Sacramento at Todhunter WB","""Sacramento at Todhunter""",38.5902523154171,-121.53360808096,0
3026fcfa-3103-4419-8096-2265f264dd99,"23436","Sacramento at Bryte WB","""Sacramento at Bryte""",38.5905554050538,-121.536526324542,0
9628b363-4dc7-4efe-b059-397cd946c672,"23266","Solano at Sacramento NB","""Solano at Sacramento""",38.5913707966429,-121.539944800135,0
f31f959f-0c4b-4614-b7e1-c1e323b10df3,"23234","Hobson at Water","",38.592108404166,-121.541141065427,0
1c7c5318-92c6-4024-b556-06a18187004b,"23271","Water at Lisbon","",38.5945854243389,-121.542313190836,0
39983863-708d-43f3-938d-96034ba33915,"23254","Lisbon at Bryte","",38.595553701851,-121.538983228146,0
6214fc2d-e226-463f-9fa8-302aecc423c4,"23227","Anna at Bryte EB","""""",38.5941656586031,-121.537663581232,0
db10e158-7958-43cc-8603-8ccb23682aa9,"23422","Anna at Todhunter EB","""""",38.5951272305922,-121.534098925239,0
b922b6c3-9f2d-4a38-b671-4db53c793a2c,"23425","Anna at Holland EB","""""",38.5962711928052,-121.529575379466,0
a0cca7fa-af32-4afc-b85f-8cf98171a139,"23515","Cummins at Kegle EB","""""",38.5942461248783,-121.525833697667,0
187132f5-42e8-413b-a115-ebd8e4397d35,"23516","Cummins at Hardy EB","""Cummins at Hardy""",38.5940167959939,-121.522865833215,0
7fc9b1f0-8040-4022-9457-9d4c649f3936,"23517","Cummins at Fairway EB","""Cummins at Fairway""",38.5937981959461,-121.521100939578,0
8ff2f312-699b-4c8f-a785-ec8743631afa,"23518","Douglas at Cummins NB","",38.5944553371939,-121.519545258257,0
ce175109-f295-41aa-b7c5-22e8df314dbd,"23429","Lighthouse at Douglas EB","""Lighthouse at Douglas""",38.5954812822033,-121.519120128102,0
3bdc681d-ea50-4700-85af-963a53087410,"23431","Lighthouse at Fountain EB","""Lighthouse at Fountain""",38.5952506122142,-121.515071333353,0
c0e71fa3-0bcd-4f6e-bf11-9923e6db26ad,"23519","Sacramento at Douglas","",38.589176749538,-121.52380862974,0
8a03940f-c878-4d94-bb13-254b82b9ccc9,"23586","E. Heritage at Miekle WB","",38.6480203955186,-121.734969570337,0
5717b026-fc59-49b6-b625-3682ef76002f,"23588","Farmers Central at Pioneer WB","",38.6550705823344,-121.741099759406,0
8400bfd7-dd36-434b-bfd3-82bbbd99c110,"23602","Hutchison Dr. at Health Sciences Dr. EB","",38.5373430572357,-121.764366582892,0
bfe012d8-78f9-4ecd-82d6-16d83c9e3854,"23584","Hutchison at Dairy","",38.5391790294158,-121.759635165908,0
809b7eae-fad7-4750-a590-797fa7bcabbf,"23009","Hutchison at Bioletti EB","",38.539129408546,-121.755538091394,0
b446911e-903b-4db6-a9c4-588739d36999,"23008","Hutchison at UC Davis Silo EB","""UC Davis Silo EB""",38.5390784465717,-121.753432557191,0
d35b81a0-8945-487c-b212-7503113e8bb1,"23403","L St. at 10th St.","",38.578226630582,-121.494740187808,0
c3919c42-ad81-4e0c-b5b0-699289399400,"23315","Jefferson at Lake Washington SB","""Jefferson at Lake Washington""",38.5523339243134,-121.537754776344,0
2187c573-027b-4c12-84ec-5736cecea1e5,"23004","Hutchison at Shields Library","",38.5390717410488,-121.750150874266,0
3d6034d7-e98c-4e79-aa7f-e30d8c03c346,"23570","Amtrak - Sac Valley Station","""""",38.5844976356326,-121.500209212316,0
28d5dd9a-4e17-459b-8eee-f864c050a271,"23343","Grant at Taylor (Winters JUSD)","",38.5195969962698,-121.985756194189,0
28eb2ce8-feda-4176-bb7c-7dc413d40bfe,"23346","Valley Oak at Mcarthur","""Valley Oak at Mcarthur (Adams)""",38.5216588390862,-121.988827257683,0
1d93a500-b607-49f1-961a-7b7533f1b670,"23345","Adams at Valley Oak","""Adams Valley Oak""",38.5227625681616,-121.987964927433,0
21d8bae9-df30-4da4-9a64-17ca65c62a16,"23541","Adams at Taylor","""Adams Taylor""",38.5227598859525,-121.985840617766,0
f87c8a83-c194-41fa-842b-80debff081b6,"23347","Taylor at Washington SB","",38.5206463051227,-121.984828083803,0
4c83408f-727d-4ddc-a308-88d33514f320,"23010","UC Davis Health Sciences SB","""UC Davis Health Sciences""",38.535099389261,-121.764382676147,0
2684e054-91ab-4eb0-8342-85ac2cc9aa1d,"23005","Hutchison at Art Building","",38.5392541312727,-121.748542889866,0
f35ad527-8cfc-4f16-a922-cda73130f308,"23481","Hwy 113 at Rd 116","""""",38.7963157174775,-121.722270650999,0
fad1998a-0c65-4271-b23b-fd591cc657b7,"23480","3rd at Mill","""""",38.8010364056251,-121.7191136908,0
0d1c0c98-bbb2-4ede-9e22-6a0dc7764d12,"23482","Locust at 6th SB","",38.7989053904358,-121.721036834779,0
cd94b92c-207a-442b-b671-36915973a707,"23483","S. Oak Grove at Dixon","""""",38.7948968288241,-121.724365456364,0
05d1fb1a-2db9-4b4b-88c0-e00feaa6417e,"23532","Q St. at 5th St.","",38.5742153867612,-121.502985298812,0
020504ca-5bdf-4fc5-84f6-a751242fea2a,"23533","Q St. at 7th St.","",38.5734978958069,-121.500297725218,0
bf2004ee-cb5d-4ba0-88db-c07497ae3373,"23314","Jefferson at Lake Washington NB","""Jefferson at Lake Washington""",38.5520402224088,-121.537760140762,0
82c2b9f1-5908-4830-80f6-568b00fa2a93,"23556","E. Main at Blue Oak WB","""""",38.5258940473732,-121.961613563395,0
5f498ce7-b810-4e5a-924e-a2d234b45c8b,"23557","Main at Morgan WB","""Main at Morgan""",38.5247997060299,-121.963823703755,0
5f567ef0-855d-46ed-ba56-14edffc8893a,"23609","Mace at 2nd Park & Ride","",38.5550872120313,-121.693273287611,0
985fd332-6ebf-4b8e-8d9b-8798d3248b76,"23108","W. 14th St. at Beech WB","""W. 14th St. at Eureka""",38.5558555473584,-121.750380877091,0
2815bde3-ebf6-4584-b18c-1d8a2cdf7fea,"23109","W. 14th St. at B Street EB","""W. 14th St. at B Street""",38.5558449361232,-121.751078918641,0
